!AIVDM,1,1,,A,13c`==0P0011C?pGGhr9n?vP00RP,0*1D
!AIVDM,1,1,,B,13cWA30PDB113J8GEh8Ra26P0<1u,0*3B
$GPRMC,163319.00,A,4049.65371,N,01414.93596,E,0.159,333.33,280921,3.72,E,A*3D
$GPVTG,333.33,T,329.60,M,0.159,N,0.295,K,A*2D
$GPGGA,163319.00,4049.65371,N,01414.93596,E,1,04,4.65,17.6,M,41.2,M,,*68
$GPGSA,A,3,30,07,09,20,,,,,,,,,8.16,4.65,6.71*05
$GPGSV,1,1,04,07,42,051,39,09,20,101,42,20,60,239,36,30,78,028,44*70
$GPGLL,4049.65371,N,01414.93596,E,163319.00,A,A*69
$GPGST,163319.00,6.9,,,,6.0,5.6,10*53
!AIVDM,1,1,,B,13cVlR0P01Q1@D>GGPOABwvP00Se,0*6C
$GPRMC,163320.00,A,4049.65332,N,01414.93635,E,0.180,333.33,280921,3.72,E,A*3E
$GPVTG,333.33,T,329.60,M,0.180,N,0.333,K,A*24
$GPGGA,163320.00,4049.65332,N,01414.93635,E,1,04,4.65,18.8,M,41.2,M,,*6E
$GPGSA,A,3,30,07,09,20,,,,,,,,,8.16,4.65,6.71*05
$GPGSV,1,1,04,07,42,051,39,09,20,101,42,20,60,239,36,30,78,028,44*70
$GPGLL,4049.65332,N,01414.93635,E,163320.00,A,A*6E
$GPGST,163320.00,6.9,,,,5.9,5.6,10*53
$GPRMC,163321.00,A,4049.65304,N,01414.93662,E,0.195,333.33,280921,3.72,E,A*3C
$GPVTG,333.33,T,329.60,M,0.195,N,0.361,K,A*27
$GPGGA,163321.00,4049.65304,N,01414.93662,E,1,04,4.65,19.6,M,41.2,M,,*67
$GPGSA,A,3,30,07,09,20,,,,,,,,,8.16,4.65,6.71*05
$GPGSV,1,1,04,07,42,051,39,09,19,101,42,20,60,239,36,30,78,028,45*7B
$GPGLL,4049.65304,N,01414.93662,E,163321.00,A,A*68
$GPGST,163321.00,6.9,,,,5.9,5.6,10*52
!AIVDM,1,1,,A,13ca`>004<114RDGEre9FoJP0@:l,0*6B
!AIVDM,1,1,,B,33@KJb500011G2dGGUHWsVFL0000,0*77
!AIVDM,2,1,2,A,53P<P:P2@i;k8DdcN208h4p<622222222222220U3hD556Mi07kPD3k2H888,0*1D
!AIVDM,2,2,2,A,88888888880,2*26
!AIVDM,1,1,,A,13cc0q3P00Q1C6PGGf;QgwvT0624,0*7D
$GPRMC,163322.00,A,4049.65275,N,01414.93693,E,0.200,333.33,280921,3.72,E,A*39
$GPVTG,333.33,T,329.60,M,0.200,N,0.370,K,A*28
$GPGGA,163322.00,4049.65275,N,01414.93693,E,1,04,4.65,20.4,M,41.2,M,,*65
$GPGSA,A,3,30,07,09,20,,,,,,,,,8.16,4.65,6.71*05
$GPGSV,1,1,04,07,42,051,39,09,19,101,40,20,60,239,36,30,78,028,45*79
$GPGLL,4049.65275,N,01414.93693,E,163322.00,A,A*62
$GPGST,163322.00,6.9,,,,5.8,5.5,10*53
!AIVDM,1,1,,A,D02FhOQRHN?b<`N01ptv000,2*0A
!AIVDM,1,1,,B,13cWA3004B113UdGEhW2Wj4`0624,0*73
$GPRMC,163323.00,A,4049.65251,N,01414.93724,E,0.242,333.33,280921,3.72,E,A*35
$GPVTG,333.33,T,329.60,M,0.242,N,0.448,K,A*22
$GPGGA,163323.00,4049.65251,N,01414.93724,E,1,04,4.65,21.2,M,41.2,M,,*68
$GPGSA,A,3,30,07,09,20,,,,,,,,,8.16,4.65,6.71*05
$GPGSV,1,1,04,07,42,051,39,09,19,101,38,20,60,239,31,30,78,028,45*71
$GPGLL,4049.65251,N,01414.93724,E,163323.00,A,A*68
$GPGST,163323.00,15,,,,5.7,5.6,10*7B
!AIVDM,1,1,,B,13ca`>004<114M0GErKaEWJT00S4,0*0B
!AIVDM,1,1,,B,13c`;@0P0011C9VGGfIh0?vV0@<?,0*08
!AIVDM,1,1,,B,13ci>S0P00Q1CmdGGh>f4?v`2@<E,0*2C
$GPRMC,163324.00,A,4049.65220,N,01414.93759,E,0.269,333.33,280921,3.72,E,A*37
$GPVTG,333.33,T,329.60,M,0.269,N,0.498,K,A*26
$GPGGA,163324.00,4049.65220,N,01414.93759,E,1,04,4.65,22.2,M,41.2,M,,*60
$GPGSA,A,3,30,07,09,20,,,,,,,,,8.16,4.65,6.71*05
$GPGSV,1,1,04,07,42,051,39,09,19,101,40,20,60,239,33,30,78,028,44*7D
$GPGLL,4049.65220,N,01414.93759,E,163324.00,A,A*63
$GPGST,163324.00,9.8,,,,5.7,5.6,10*57
!AIVDM,1,1,,B,13cVq>0P1h11<@4GF0O2CgvU8V24,0*0F
!AIVDM,1,1,,A,402FhOQvFN@QE11BePGGgg700<1D,0*03
!AIVDM,1,1,,A,13d4a80P0011C;2GGI:P0?v`0L17,0*47
!AIVDM,1,1,,B,33cmw`0OiQ12@e`GBJT785h`H000,0*6C
!AIVDM,1,1,,B,17f6F1P00111EfvGGhde:U`d0H<n,0*18
$GPRMC,163325.00,A,4049.65195,N,01414.93790,E,0.284,333.33,280921,3.72,E,A*3D
$GPVTG,333.33,T,329.60,M,0.284,N,0.526,K,A*21
$GPGGA,163325.00,4049.65195,N,01414.93790,E,1,04,4.65,22.9,M,41.2,M,,*62
$GPGSA,A,3,30,07,09,20,,,,,,,,,8.16,4.65,6.71*05
$GPGSV,1,1,04,07,42,051,38,09,19,101,39,20,60,239,33,30,78,028,45*73
$GPGLL,4049.65195,N,01414.93790,E,163325.00,A,A*6A
$GPGST,163325.00,10,,,,5.6,5.7,10*78
!AIVDM,1,1,,A,13ca`>004<114GdGEr09EWJ`0624,0*26
!AIVDM,1,1,,A,E@2FhNPTVa1Qh97VRP0000000000LSI8;uuO000000N010,4*71
$GPRMC,163326.00,A,4049.65174,N,01414.93815,E,0.269,333.33,280921,3.72,E,A*30
$GPVTG,333.33,T,329.60,M,0.269,N,0.499,K,A*27
$GPGGA,163326.00,4049.65174,N,01414.93815,E,1,04,4.65,23.5,M,41.2,M,,*61
$GPGSA,A,3,30,07,09,20,,,,,,,,,8.16,4.65,6.71*05
$GPGSV,1,1,04,07,42,051,38,09,19,101,40,20,60,239,33,30,78,028,45*7D
$GPGLL,4049.65174,N,01414.93815,E,163326.00,A,A*64
$GPGST,163326.00,10,,,,5.6,5.7,10*7B
!AIVDM,1,1,,B,13cVdE0P0i11BQtGGaT<g?vb0<0v,0*62
!AIVDM,1,1,,B,B3ctfQP008@Srt5llvgQ3wcQnDw:,0*6D
!AIVDM,1,1,,A,13cmfm0P0011C;PGGeB1rgvd00RC,0*69
!AIVDM,1,1,,B,18VSV8000211AL8GFv9do:Jf0L9h,0*0E
$GPRMC,163327.00,A,4049.65153,N,01414.93844,E,0.302,333.33,280921,3.72,E,A*3C
$GPVTG,333.33,T,329.60,M,0.302,N,0.559,K,A*26
$GPGGA,163327.00,4049.65153,N,01414.93844,E,1,04,4.65,24.2,M,41.2,M,,*61
$GPGSA,A,3,30,07,09,20,,,,,,,,,8.16,4.65,6.71*05
$GPGSV,1,1,04,07,42,051,38,09,19,101,40,20,60,239,34,30,78,028,45*7A
$GPGLL,4049.65153,N,01414.93844,E,163327.00,A,A*64
$GPGST,163327.00,8.8,,,,5.6,5.7,10*55
!AIVDM,1,1,,B,13ca`>004<114GdGEr09EWJ`0D1P,0*30
!AIVDM,2,1,3,B,53cvbD02;RJPT<I800184HH4DhF19D85A@Tpt00v2RP@:6NT0?2E43Ch0000,0*7F
!AIVDM,2,2,3,B,00000000000,2*24
$GPRMC,163328.00,A,4049.65136,N,01414.93869,E,0.312,333.33,280921,3.72,E,A*3E
$GPVTG,333.33,T,329.60,M,0.312,N,0.578,K,A*24
$GPGGA,163328.00,4049.65136,N,01414.93869,E,1,04,4.65,24.7,M,41.2,M,,*67
$GPGSA,A,3,30,07,09,20,,,,,,,,,8.16,4.65,6.71*05
$GPGSV,1,1,04,07,42,051,38,09,19,101,40,20,60,239,34,30,78,028,45*7A
$GPGLL,4049.65136,N,01414.93869,E,163328.00,A,A*67
$GPGST,163328.00,8.7,,,,5.5,5.7,10*56
!AIVDM,1,1,,B,13cf4V0P00Q2?k<GBGG8`gvf0<1L,0*70
!AIVDM,1,1,,B,13c`==0P0011C?pGGhr9Tgvl00S1,0*20
!AIVDM,1,1,,A,13cWA30OlA113nhGEiERUR6l0624,0*24
!AIVDM,1,1,,B,33cvbD5P0011B>BGGaB7w?vh0000,0*0F
$GPRMC,163329.00,A,4049.65121,N,01414.93892,E,0.297,333.33,280921,3.72,E,A*31
$GPVTG,333.33,T,329.60,M,0.297,N,0.550,K,A*22
!AIVDM,1,1,,B,33cmw`0OiP12@eDGBJ3W9mjjH0S1,0*7D
$GPGGA,163329.00,4049.65121,N,01414.93892,E,1,04,4.65,25.2,M,41.2,M,,*60
$GPGSA,A,3,30,07,09,20,,,,,,,,,8.16,4.65,6.71*05
$GPGSV,1,1,04,07,42,051,37,09,19,101,40,20,60,239,34,30,78,028,45*75
$GPGLL,4049.65121,N,01414.93892,E,163329.00,A,A*64
$GPGST,163329.00,9.1,,,,5.5,5.7,10*50
!AIVDM,1,1,,A,13ciE<0P0011Be6GGdE@0?vj0H?F,0*55
!AIVDM,1,1,,B,13cVCE002A10tBPGEJ:RiR8j0624,0*49
$GPRMC,163330.00,A,4049.65111,N,01414.93911,E,0.278,333.33,280921,3.72,E,A*31
$GPVTG,333.33,T,329.60,M,0.278,N,0.514,K,A*23
$GPGGA,163330.00,4049.65111,N,01414.93911,E,1,04,4.65,25.6,M,41.2,M,,*65
$GPGSA,A,3,30,07,09,20,,,,,,,,,8.16,4.65,6.71*05
$GPGSV,1,1,04,07,42,051,37,09,19,101,40,20,60,239,34,30,78,028,45*75
$GPGLL,4049.65111,N,01414.93911,E,163330.00,A,A*65
$GPGST,163330.00,9.0,,,,5.5,5.8,10*56
!AIVDM,1,1,,A,13cVlR0P01Q1@D@GGPO1NOvl0<16,0*54
!AIVDM,1,1,,B,13cWA3004A113tJGEiTjUj4p00S9,0*5D
!AIVDM,1,1,,A,33cmw`0OiN12@eDGBIt7;EjlH000,0*0A
!AIVDM,1,1,,B,33cpSd5000Q1B70GGc@`c4@n0Dg:,0*32
$GPRMC,163331.00,A,4049.65107,N,01414.93927,E,0.271,333.33,280921,3.72,E,A*3B
$GPVTG,333.33,T,329.60,M,0.271,N,0.502,K,A*2D
$GPGGA,163331.00,4049.65107,N,01414.93927,E,1,04,4.65,25.9,M,41.2,M,,*69
$GPGSA,A,3,30,07,09,20,,,,,,,,,8.16,4.65,6.71*05
$GPGSV,1,1,04,07,42,051,37,09,19,101,40,20,60,239,34,30,78,028,44*74
$GPGLL,4049.65107,N,01414.93927,E,163331.00,A,A*66
$GPGST,163331.00,9.2,,,,5.6,5.8,10*56
!AIVDM,1,1,,B,13ca`>004<1147hGEq@aEWJj0<1P,0*15
$GPRMC,163332.00,A,4049.65103,N,01414.93943,E,0.283,333.33,280921,3.72,E,A*33
$GPVTG,333.33,T,329.60,M,0.283,N,0.524,K,A*24
$GPGGA,163332.00,4049.65103,N,01414.93943,E,1,04,4.65,26.2,M,41.2,M,,*64
$GPGSA,A,3,30,07,09,20,,,,,,,,,8.16,4.65,6.71*05
$GPGSV,1,1,04,07,42,051,36,09,19,101,40,20,60,238,35,30,78,028,44*75
$GPGLL,4049.65103,N,01414.93943,E,163332.00,A,A*63
$GPGST,163332.00,8.7,,,,5.6,5.8,10*51
!AIVDM,1,1,,A,13ci>S0P00Q1CmnGGh@f4?vr2<1i,0*14
!AIVDM,1,1,,A,13cVaV0P0011B7HGGdfP2gvn0624,0*64
$GPRMC,163333.00,A,4049.65106,N,01414.93950,E,0.285,333.33,280921,3.72,E,A*33
$GPVTG,333.33,T,329.60,M,0.285,N,0.528,K,A*2E
$GPGGA,163333.00,4049.65106,N,01414.93950,E,1,04,4.65,26.3,M,41.2,M,,*63
$GPGSA,A,3,30,07,09,20,,,,,,,,,8.16,4.65,6.71*05
$GPGSV,1,1,04,07,42,051,36,09,19,101,40,20,60,238,34,30,78,028,44*74
$GPGLL,4049.65106,N,01414.93950,E,163333.00,A,A*65
$GPGST,163333.00,9.6,,,,5.6,5.8,10*50
$GPRMC,163334.00,A,4049.65110,N,01414.93959,E,0.266,333.33,280921,3.72,E,A*37
$GPVTG,333.33,T,329.60,M,0.266,N,0.493,K,A*22
$GPGGA,163334.00,4049.65110,N,01414.93959,E,1,04,4.65,26.5,M,41.2,M,,*6C
$GPGSA,A,3,30,07,09,20,,,,,,,,,8.16,4.65,6.71*05
$GPGSV,1,1,04,07,42,051,36,09,19,101,40,20,60,238,34,30,78,028,45*75
$GPGLL,4049.65110,N,01414.93959,E,163334.00,A,A*6C
$GPGST,163334.00,9.6,,,,5.7,5.9,10*57
!AIVDM,1,1,,A,13c`;@0P0011C9VGGfIh0?vt08BC,0*53
!AIVDM,1,1,,B,402FhOQvFN@QO11BePGGgg700<1C,0*0D
!AIVDM,1,1,,B,13cWA3004A1147jGEj42UB500624,0*01
!AIVDM,1,1,,B,13d4a80P0011C;2GGI:P0?vt08BQ,0*31
$GPRMC,163335.00,A,4049.65115,N,01414.93969,E,0.247,333.33,280921,3.72,E,A*33
$GPVTG,333.33,T,329.60,M,0.247,N,0.457,K,A*29
$GPGGA,163335.00,4049.65115,N,01414.93969,E,1,04,4.65,26.7,M,41.2,M,,*69
$GPGSA,A,3,30,07,09,20,,,,,,,,,8.16,4.65,6.71*05
$GPGSV,1,1,04,07,42,051,36,09,19,101,40,20,60,238,35,30,78,028,45*74
$GPGLL,4049.65115,N,01414.93969,E,163335.00,A,A*6B
$GPGST,163335.00,8.7,,,,5.7,5.9,10*56
!AIVDM,1,1,,A,13cW@b0P3RQ1L@4GAELPgOvv0D1R,0*0B
!AIVDM,1,1,,A,13cmw`001O12@e0GBIKW=5lvH0Rm,0*50
!AIVDM,1,1,,A,17f6F1P00011Ef`GGhWM:Ua20<0p,0*26
$GPRMC,163336.00,A,4049.65126,N,01414.93971,E,0.230,333.33,280921,3.72,E,A*39
$GPVTG,333.33,T,329.60,M,0.230,N,0.426,K,A*2F
$GPGGA,163336.00,4049.65126,N,01414.93971,E,1,04,4.65,26.7,M,41.2,M,,*63
$GPGSA,A,3,30,07,09,20,,,,,,,,,8.16,4.65,6.71*05
$GPGSV,1,1,04,07,42,051,36,09,19,101,40,20,60,238,35,30,78,028,44*75
$GPGLL,4049.65126,N,01414.93971,E,163336.00,A,A*61
$GPGST,163336.00,8.7,,,,5.7,5.9,10*55
!AIVDM,1,1,,B,13cmfm0P0011C;PGGeB1rgvv08CP,0*72
!AIVDM,1,1,,A,33cVdE0P0e11BP4GGawdq?vv06aC,0*39
!AIVDM,1,1,,A,13cWA3004A114=LGEjCjTR340HCd,0*4D
$GPRMC,163337.00,A,4049.65140,N,01414.93974,E,0.240,333.33,280921,3.72,E,A*3A
$GPVTG,333.33,T,329.60,M,0.240,N,0.444,K,A*2C
$GPGGA,163337.00,4049.65140,N,01414.93974,E,1,04,4.65,26.6,M,41.2,M,,*66
$GPGSA,A,3,30,07,09,20,,,,,,,,,8.16,4.65,6.71*05
$GPGSV,1,1,04,07,42,051,36,09,19,101,40,20,60,238,35,30,78,028,44*75
$GPGLL,4049.65140,N,01414.93974,E,163337.00,A,A*65
$GPGST,163337.00,8.7,,,,5.8,5.9,10*5B
!AIVDM,1,1,,A,18VSV8000211AL8GFv8dv:K20HD3,0*62
$GPRMC,163338.00,A,4049.65159,N,01414.93972,E,0.198,333.33,280921,3.72,E,A*3D
$GPVTG,333.33,T,329.60,M,0.198,N,0.366,K,A*2D
$GPGGA,163338.00,4049.65159,N,01414.93972,E,1,04,4.65,26.5,M,41.2,M,,*64
$GPGSA,A,3,30,07,09,20,,,,,,,,,8.16,4.65,6.71*05
!AIVDM,1,1,,B,14i80v0P00117FFGG7ujrOw60<1c,0*6A
$GPGSV,1,1,04,07,42,051,36,09,19,101,40,20,60,238,35,30,78,028,44*75
!AIVDM,1,1,,A,13c`==0P0011C?pGGhr9H?w608DU,0*47
$GPGLL,4049.65159,N,01414.93972,E,163338.00,A,A*64
$GPGST,163338.00,8.7,,,,5.8,5.9,10*54
!AIVDM,1,1,,B,13cWA3004A114C4GEjT2T2380@Du,0*75
$GPRMC,163339.00,A,4049.65180,N,01414.93970,E,0.182,333.33,280921,3.72,E,A*31
$GPVTG,333.33,T,329.60,M,0.182,N,0.338,K,A*2D
$GPGGA,163339.00,4049.65180,N,01414.93970,E,1,04,4.65,26.4,M,41.2,M,,*62
$GPGSA,A,3,30,07,09,20,,,,,,,,,8.16,4.65,6.71*05
$GPGSV,1,1,04,07,42,051,36,09,19,101,41,20,60,238,35,30,78,028,44*74
$GPGLL,4049.65180,N,01414.93970,E,163339.00,A,A*63
$GPGST,163339.00,8.8,,,,5.8,5.9,10*5A
!AIVDM,1,1,,A,13cW@b0P3RQ1LC<GAFHhf?w60D1R,0*0F
!AIVDM,1,1,,B,13cVlR0P00Q1@DBGGPOAmOw80HEK,0*2F
!AIVDM,1,1,,B,13ca`>004<113jlGEp39EWI40L1Q,0*4D
!AIVDM,1,1,,B,13ciE<0P0011Be6GGdE@0?w60<13,0*04
$GPRMC,163340.00,A,4049.65201,N,01414.93967,E,0.167,333.33,280921,3.72,E,A*38
$GPVTG,333.33,T,329.60,M,0.167,N,0.310,K,A*2C
$GPGGA,163340.00,4049.65201,N,01414.93967,E,1,04,4.65,26.2,M,41.2,M,,*66
$GPGSA,A,3,30,07,09,20,,,,,,,,,8.16,4.65,6.71*05
$GPGSV,1,1,04,07,42,051,36,09,19,101,41,20,60,238,35,30,78,028,45*75
$GPGLL,4049.65201,N,01414.93967,E,163340.00,A,A*61
$GPGST,163340.00,8.8,,,,5.9,5.9,10*55
$GPRMC,163341.00,A,4049.65222,N,01414.93962,E,0.180,333.33,280921,3.72,E,A*34
$GPVTG,333.33,T,329.60,M,0.180,N,0.334,K,A*23
$GPGGA,163341.00,4049.65222,N,01414.93962,E,1,04,4.65,26.0,M,41.2,M,,*61
$GPGSA,A,3,30,07,09,20,,,,,,,,,8.16,4.65,6.71*05
$GPGSV,1,1,04,07,42,051,36,09,19,101,40,20,60,238,35,30,78,028,45*74
$GPGLL,4049.65222,N,01414.93962,E,163341.00,A,A*64
$GPGST,163341.00,8.8,,,,5.9,6.0,11*5F
!AIVDM,1,1,,B,13cVaV0P0011B7HGGdfP2gw80<0u,0*79
!AIVDM,1,1,,A,13ca`>004<113c0GEoU9EWI80624,0*72
$GPRMC,163342.00,A,4049.65243,N,01414.93954,E,0.162,333.33,280921,3.72,E,A*39
$GPVTG,333.33,T,329.60,M,0.162,N,0.300,K,A*28
$GPGGA,163342.00,4049.65243,N,01414.93954,E,1,04,4.65,25.6,M,41.2,M,,*65
$GPGSA,A,3,30,07,09,20,,,,,,,,,8.16,4.65,6.71*05
$GPGSV,1,1,04,07,42,051,36,09,19,101,40,20,60,238,34,30,77,028,44*7B
$GPGLL,4049.65243,N,01414.93954,E,163342.00,A,A*65
$GPGST,163342.00,9.6,,,,5.9,6.0,11*53
!AIVDM,1,1,,B,13cWA3004A114NHGEk4RRj5@08G>,0*15
!AIVDM,1,1,,B,13ci>S0P00Q1CmdGGhA>4?w>28GA,0*53
!AIVDM,2,1,4,A,53csFV82AOthTa0G:21<:1059@Dpu0D62222221@5hB846MjN:2E3PD88888,0*53
!AIVDM,2,2,4,A,88888888880,2*20
$GPRMC,163343.00,A,4049.65271,N,01414.93942,E,0.128,333.33,280921,3.72,E,A*30
$GPVTG,333.33,T,329.60,M,0.128,N,0.238,K,A*2C
$GPGGA,163343.00,4049.65271,N,01414.93942,E,1,04,4.65,25.2,M,41.2,M,,*66
$GPGSA,A,3,30,07,09,20,,,,,,,,,8.16,4.65,6.71*05
$GPGSV,1,1,04,07,42,051,37,09,19,101,40,20,60,238,34,30,77,028,44*7A
$GPGLL,4049.65271,N,01414.93942,E,163343.00,A,A*62
$GPGST,163343.00,9.1,,,,5.9,6.0,11*55
!AIVDM,1,1,,A,13cc0q3P00Q1C:tGGf<Agww>0<1B,0*56
$GPRMC,163344.00,A,4049.65293,N,01414.93935,E,0.108,333.33,280921,3.72,E,A*39
$GPVTG,333.33,T,329.60,M,0.108,N,0.201,K,A*24
$GPGGA,163344.00,4049.65293,N,01414.93935,E,1,04,4.65,24.9,M,41.2,M,,*67
$GPGSA,A,3,30,07,09,20,,,,,,,,,8.16,4.65,6.71*05
$GPGSV,1,1,04,07,42,051,37,09,19,101,41,20,60,238,34,30,77,028,44*7B
$GPGLL,4049.65293,N,01414.93935,E,163344.00,A,A*69
$GPGST,163344.00,9.0,,,,5.9,6.0,11*53
!AIVDM,1,1,,A,402FhOQvFN@Qa11BePGGgg700<1B,0*21
!AIVDM,1,1,,A,13cWA3004B114T8GEkDjS25D0@HN,0*6D
!AIVDM,1,1,,A,13cv2N5vj7Q1FBbGF=gWi6=@8HHR,0*11
!AIVDM,1,1,,A,13d4a80P0011C;2GGI:P0?wB0D0u,0*2F
$GPRMC,163345.00,A,4049.65323,N,01414.93917,E,0.098,333.33,280921,3.72,E,A*3A
$GPVTG,333.33,T,329.60,M,0.098,N,0.182,K,A*24
$GPGGA,163345.00,4049.65323,N,01414.93917,E,1,04,4.65,24.4,M,41.2,M,,*61
!AIVDM,1,1,,B,13c`;@0P0011C9VGGfIh0?w@08Hb,0*4E
$GPGSA,A,3,30,07,09,20,,,,,,,,,8.16,4.65,6.71*05
$GPGSV,1,1,04,07,42,051,38,09,19,101,41,20,60,238,34,30,77,028,44*74
$GPGLL,4049.65323,N,01414.93917,E,163345.00,A,A*62
$GPGST,163345.00,8.7,,,,5.8,6.0,11*55
!AIVDM,1,1,,A,ENjOsr0tg@6a9Qh;2W4QRP000000L;g4<wpI000000N010,4*29
!AIVDM,1,1,,B,17f6F1P00011EfPGGhTu:UaD00Sf,0*21
!AIVDM,1,1,,B,13cVdE0P0b11BNlGGbCe0gw>0HHw,0*7C
!AIVDM,1,1,,B,13cVq>0P1h11<a4GF1RRMgw?8PRw,0*12
$GPRMC,163346.00,A,4049.65351,N,01414.93898,E,0.085,333.33,280921,3.72,E,A*36
$GPVTG,333.33,T,329.60,M,0.085,N,0.158,K,A*2F
$GPGGA,163346.00,4049.65351,N,01414.93898,E,1,04,4.65,23.8,M,41.2,M,,*6A
$GPGSA,A,3,30,07,09,20,,,,,,,,,8.16,4.65,6.71*05
$GPGSV,1,1,04,07,42,051,39,09,19,101,41,20,60,238,34,30,77,028,44*75
$GPGLL,4049.65351,N,01414.93898,E,163346.00,A,A*62
$GPGST,163346.00,8.5,,,,5.6,6.0,10*5B
!AIVDM,1,1,,A,13cmfm0P0011C;lGGeB1rgwB0<1a,0*3F
!AIVDM,1,1,,A,13cmw`001P12@chGBHC7?moDH0S=,0*42
$GPRMC,163347.00,A,4049.65363,N,01414.93893,E,0.089,333.33,280921,3.72,E,A*31
$GPVTG,333.33,T,329.60,M,0.089,N,0.165,K,A*2D
$GPGGA,163347.00,4049.65363,N,01414.93893,E,1,04,4.65,23.7,M,41.2,M,,*6E
$GPGSA,A,3,30,07,09,20,,,,,,,,,8.16,4.65,6.71*05
!AIVDM,1,1,,A,14i80v0P00117FLGG7uBrOwH0D1c,0*4D
$GPGSV,1,1,04,07,42,051,39,09,19,101,41,20,60,238,34,30,77,028,44*75
$GPGLL,4049.65363,N,01414.93893,E,163347.00,A,A*69
$GPGST,163347.00,8.4,,,,5.5,5.9,10*52
!AIVDM,1,1,,B,13cqIV?uh0Q179BGG6MJA:GF0624,0*5F
!AIVDM,1,1,,B,13c`==0P0011C?pGGhr9d?wJ0<1b,0*52
!AIVDM,1,1,,B,18VSV8000211AL8GFv8dpJKH00S0,0*01
$GPRMC,163348.00,A,4049.65363,N,01414.93896,E,0.084,333.33,280921,3.72,E,A*36
$GPVTG,333.33,T,329.60,M,0.084,N,0.156,K,A*20
$GPGGA,163348.00,4049.65363,N,01414.93896,E,1,04,4.65,23.8,M,41.2,M,,*6B
$GPGSA,A,3,30,07,09,20,,,,,,,,,8.16,4.65,6.71*05
$GPGSV,1,1,04,07,42,051,39,09,19,101,41,20,60,238,33,30,77,028,44*72
$GPGLL,4049.65363,N,01414.93896,E,163348.00,A,A*63
$GPGST,163348.00,9.5,,,,5.4,5.9,10*5C
!AIVDM,1,1,,A,13cWA3004C114gfGEklBSj5L00SB,0*36
!AIVDM,1,1,,A,13ciE<0P0011Be8GGdE@0?wJ0624,0*7B
$GPRMC,163349.00,A,4049.65349,N,01414.93908,E,0.085,333.33,280921,3.72,E,A*38
$GPVTG,333.33,T,329.60,M,0.085,N,0.158,K,A*2F
$GPGGA,163349.00,4049.65349,N,01414.93908,E,1,04,4.65,24.3,M,41.2,M,,*68
$GPGSA,A,3,30,07,09,20,,,,,,,,,8.16,4.65,6.71*05
$GPGSV,1,1,04,07,42,051,39,09,19,101,41,20,60,238,34,30,77,028,44*75
$GPGLL,4049.65349,N,01414.93908,E,163349.00,A,A*6C
$GPGST,163349.00,8.5,,,,5.3,5.9,10*5B
!AIVDM,1,1,,A,13cVlR0P00Q1@DBGGPNimOwL00S>,0*6A
!AIVDM,1,1,,A,ENjOWwk2psHr@1Pab2V67h2CTaQPOuhE;alu`10888N0022@@0,4*55
$GPRMC,163350.00,A,4049.65329,N,01414.93924,E,0.150,333.33,280921,3.72,E,A*31
$GPVTG,333.33,T,329.60,M,0.150,N,0.278,K,A*27
$GPGGA,163350.00,4049.65329,N,01414.93924,E,1,04,4.65,25.0,M,41.2,M,,*6A
$GPGSA,A,3,30,07,09,20,,,,,,,,,8.16,4.65,6.71*05
$GPGSV,1,1,04,07,42,051,40,09,19,101,41,20,60,238,35,30,77,028,45*7B
$GPGLL,4049.65329,N,01414.93924,E,163350.00,A,A*6C
$GPGST,163350.00,7.6,,,,5.2,5.9,10*5E
!AIVDM,1,1,,B,13cWA3004D114mPGEl4BT25P0<21,0*0C
$GPRMC,163351.00,A,4049.65324,N,01414.93927,E,0.090,333.33,280921,3.72,E,A*33
$GPVTG,333.33,T,329.60,M,0.090,N,0.167,K,A*27
$GPGGA,163351.00,4049.65324,N,01414.93927,E,1,04,4.65,25.3,M,41.2,M,,*66
$GPGSA,A,3,30,07,09,20,,,,,,,,,8.16,4.65,6.71*05
$GPGSV,1,1,04,07,42,051,36,09,19,101,41,20,60,238,37,30,77,028,44*79
$GPGLL,4049.65324,N,01414.93927,E,163351.00,A,A*63
$GPGST,163351.00,7.6,,,,5.3,5.8,10*5F
!AIVDM,1,1,,B,13ca`>004=113C@GEn=aC7GL0624,0*0D
!AIVDM,1,1,,A,ENjO`0C2psIH@1P`7h6TaRW7P000P?lb;bc2`10888N000,4*2E
$GPRMC,163352.00,A,4049.65313,N,01414.93933,E,0.131,333.33,280921,3.72,E,A*3B
$GPVTG,333.33,T,329.60,M,0.131,N,0.242,K,A*29
$GPGGA,163352.00,4049.65313,N,01414.93933,E,1,04,4.65,25.8,M,41.2,M,,*6F
$GPGSA,A,3,30,07,09,20,,,,,,,,,8.16,4.65,6.71*05
$GPGSV,1,1,04,07,42,051,36,09,19,101,40,20,60,238,38,30,77,028,44*77
$GPGLL,4049.65313,N,01414.93933,E,163352.00,A,A*61
$GPGST,163352.00,7.2,,,,5.3,5.7,9.9*78
!AIVDM,1,1,,B,13cmw`001Q12@c8GBGc7AmoPH8MM,0*33
!AIVDM,1,1,,A,13cVaV0P0011B7HGGdfP2gwP0<0v,0*11
!AIVDM,1,1,,A,13cWA3004D114s>GElD2T25T08M7,0*06
!AIVDM,2,1,5,B,59NSTc42@Q3PCEM3H00L5<<PDn098DlDp000001IAPI>>6N40DjE3PD00000,0*4F
!AIVDM,2,2,5,B,00000000000,2*22
$GPRMC,163353.00,A,4049.65285,N,01414.93959,E,0.122,333.33,280921,3.72,E,A*3A
$GPVTG,333.33,T,329.60,M,0.122,N,0.226,K,A*29
$GPGGA,163353.00,4049.65285,N,01414.93959,E,1,04,4.65,26.8,M,41.2,M,,*6F
$GPGSA,A,3,30,07,09,20,,,,,,,,,8.16,4.65,6.71*05
$GPGSV,2,1,05,07,42,051,38,09,19,101,41,14,,,34,20,60,238,38*41
$GPGSV,2,2,05,30,77,028,45*44
$GPGLL,4049.65285,N,01414.93959,E,163353.00,A,A*62
$GPGST,163353.00,6.0,,,,5.3,5.5,9.8*79
!AIVDM,1,1,,A,13ci>S0P00Q1CmhGGhA>4?wT2<1i,0*6C
!AIVDM,1,1,,A,13ca`>004=113>@GEmqaC7GP0<1Q,0*4C
!AIVDM,1,1,,A,13c`;@0P0011C9VGGfIh0?wR08Mc,0*5B
$GPRMC,163354.00,A,4049.65257,N,01414.93982,E,0.155,333.33,280921,3.72,E,A*34
$GPVTG,333.33,T,329.60,M,0.155,N,0.287,K,A*22
$GPGGA,163354.00,4049.65257,N,01414.93982,E,1,04,4.65,27.7,M,41.2,M,,*6F
$GPGSA,A,3,30,07,09,20,,,,,,,,,8.16,4.65,6.71*05
$GPGSV,2,1,05,07,42,051,38,09,19,101,39,14,,,37,20,60,238,37*42
$GPGSV,2,2,05,30,77,028,45*44
$GPGLL,4049.65257,N,01414.93982,E,163354.00,A,A*6C
$GPGST,163354.00,6.7,,,,5.3,5.5,9.7*76
!AIVDM,1,1,,B,402FhOQvFN@Qk11BePGGgg700624,0*57
!AIVDM,1,1,,B,13cWA3004C1150pGElT2Sj5`0<21,0*08
!AIVDM,1,1,,A,13cVq>0P1i11<ltGF20RRgwS8pNp,0*74
!AIVDM,1,1,,B,33d4a80P0011C;2GGI:P0?wV05Dk,0*21
!AIVDM,1,1,,B,13cv2N5028Q1F=VGF<EGhF=T80RE,0*6B
$GPRMC,163355.00,A,4049.65226,N,01414.94004,E,0.159,333.33,280921,3.72,E,A*3F
$GPVTG,333.33,T,329.60,M,0.159,N,0.295,K,A*2D
$GPGGA,163355.00,4049.65226,N,01414.94004,E,1,04,4.65,28.6,M,41.2,M,,*66
$GPGSA,A,3,30,07,09,20,,,,,,,,,8.16,4.65,6.71*05
$GPGSV,2,1,05,07,42,051,38,09,19,101,38,14,,,37,20,60,238,36*42
$GPGSV,2,2,05,30,77,028,45*44
$GPGLL,4049.65226,N,01414.94004,E,163355.00,A,A*6B
$GPGST,163355.00,7.5,,,,5.3,5.5,9.7*74
!AIVDM,1,1,,A,17f6F1P00011EfNGGhSu:Uab0@O2,0*25
$GPRMC,163356.00,A,4049.65196,N,01414.94023,E,0.205,333.33,280921,3.72,E,A*3B
$GPVTG,333.33,T,329.60,M,0.205,N,0.380,K,A*22
!AIVDM,1,1,,B,13cmfm0P0011C<6GGeB1rgwV0HO6,0*28
$GPGGA,163356.00,4049.65196,N,01414.94023,E,1,04,4.65,29.3,M,41.2,M,,*6C
$GPGSA,A,3,30,07,09,20,,,,,,,,,8.16,4.65,6.71*05
$GPGSV,2,1,05,07,42,051,38,09,19,101,38,14,,,36,20,60,238,36*43
$GPGSV,2,2,05,30,77,028,46*47
$GPGLL,4049.65196,N,01414.94023,E,163356.00,A,A*65
$GPGST,163356.00,7.6,,,,5.3,5.5,9.7*74
!AIVDM,1,1,,A,13cqIV?v@0Q179BGG6MF<JGb0<19,0*56
!AIVDM,1,1,,A,13cWA3004C1156TGElkRTB7d0<21,0*5F
!AIVDM,1,1,,B,14i80v0P00117F<GG7r2rOwd0L1c,0*6D
$GPRMC,163357.00,A,4049.65177,N,01414.94036,E,0.245,333.33,280921,3.72,E,A*35
$GPVTG,333.33,T,329.60,M,0.245,N,0.455,K,A*29
$GPGGA,163357.00,4049.65177,N,01414.94036,E,1,04,4.65,29.7,M,41.2,M,,*62
$GPGSA,A,3,30,07,09,20,,,,,,,,,8.16,4.65,6.71*05
$GPGSV,2,1,05,07,42,051,37,09,19,101,39,14,,,36,20,60,238,35*4E
$GPGSV,2,2,05,30,77,028,47*46
$GPGLL,4049.65177,N,01414.94036,E,163357.00,A,A*6F
$GPGST,163357.00,8.5,,,,5.4,5.5,9.7*7E
!AIVDM,1,1,,A,13ca`>004=1133`GEm?9C7GV0@Oo,0*4D
!AIVDM,1,1,,A,13crNF001<Q1JT2GBMnh3K;`0t2Q,0*36
!AIVDM,1,1,,A,13c`==0P0011C?pGGhr:2gwf0<1b,0*70
!AIVDM,1,1,,A,38VSV8000211AL<GFv9<mrMd008k,0*62
$GPRMC,163358.00,A,4049.65165,N,01414.94042,E,0.209,333.33,280921,3.72,E,A*32
$GPVTG,333.33,T,329.60,M,0.209,N,0.388,K,A*26
$GPGGA,163358.00,4049.65165,N,01414.94042,E,1,04,4.65,29.8,M,41.2,M,,*62
$GPGSA,A,3,30,07,09,20,,,,,,,,,8.16,4.65,6.71*05
$GPGSV,2,1,05,07,42,051,35,09,19,101,40,14,,,35,20,60,238,35*41
$GPGSV,2,2,05,30,77,028,46*47
$GPGLL,4049.65165,N,01414.94042,E,163358.00,A,A*60
$GPGST,163358.00,9.7,,,,5.5,5.6,9.8*7F
!AIVDM,1,1,,B,13caBF000012A0dGB?22iaoV0@PK,0*57
!AIVDM,1,1,,A,13cf4V0P00Q2?k<GBGG8Sgwb0624,0*34
!AIVDM,1,1,,B,13cVlR0P00Q1@D>GGPNimOwf0624,0*52
!AIVDM,2,1,6,A,58VSV842;t8iTaD7F204q@58V22222222222221690?496MS092E83PD8888,0*76
!AIVDM,2,2,6,A,88888888880,2*22
$GPRMC,163359.00,A,4049.65143,N,01414.94057,E,0.220,333.33,280921,3.72,E,A*38
$GPVTG,333.33,T,329.60,M,0.220,N,0.407,K,A*2D
$GPGGA,163359.00,4049.65143,N,01414.94057,E,1,04,4.65,30.3,M,41.2,M,,*60
$GPGSA,A,3,30,07,09,20,,,,,,,,,8.16,4.65,6.71*05
$GPGSV,2,1,05,07,42,051,37,09,19,101,39,14,,,34,20,60,238,35*4C
$GPGSV,2,2,05,30,77,028,45*44
$GPGLL,4049.65143,N,01414.94057,E,163359.00,A,A*61
$GPGST,163359.00,8.6,,,,5.5,5.6,9.9*7F
!AIVDM,1,1,,B,13ca`>004>112vDGEls9C7Gb0D1Q,0*10
!AIVDM,1,1,,A,13cVCE002A10u0LGEKW2dR5f0HQ4,0*38
$GPRMC,163400.00,A,4049.65126,N,01414.94065,E,0.209,333.33,280921,3.72,E,A*3A
$GPVTG,333.33,T,329.60,M,0.209,N,0.388,K,A*26
$GPGGA,163400.00,4049.65126,N,01414.94065,E,1,04,4.65,30.7,M,41.2,M,,*6D
$GPGSA,A,3,30,07,09,20,,,,,,,,,8.16,4.65,6.71*05
$GPGSV,2,1,05,07,42,051,37,09,19,101,39,14,,,34,20,60,238,35*4C
$GPGSV,2,2,05,30,77,028,45*44
$GPGLL,4049.65126,N,01414.94065,E,163400.00,A,A*68
$GPGST,163400.00,8.6,,,,5.6,5.6,10*58
!AIVDM,1,1,,B,13ciE<0P0011Be8GGdE00?wh00S<,0*45
$GPRMC,163401.00,A,4049.65104,N,01414.94089,E,0.293,333.33,280921,3.72,E,A*3A
$GPVTG,333.33,T,329.60,M,0.293,N,0.542,K,A*25
$GPGGA,163401.00,4049.65104,N,01414.94089,E,1,04,4.65,31.4,M,41.2,M,,*6C
$GPGSA,A,3,30,07,09,20,,,,,,,,,8.16,4.65,6.71*05
$GPGSV,2,1,05,07,42,051,40,09,19,101,41,14,,,30,20,60,238,25*46
$GPGSV,2,2,05,30,77,028,44*45
$GPGLL,4049.65104,N,01414.94089,E,163401.00,A,A*6B
$GPGST,163401.00,24,,,,5.5,5.7,10*7D
!AIVDM,1,1,,A,13ca`>004>112q0GElW9C7Gf0624,0*54
$GPRMC,163402.00,A,4049.65096,N,01414.94097,E,0.214,333.33,280921,3.72,E,A*33
$GPVTG,333.33,T,329.60,M,0.214,N,0.396,K,A*25
$GPGGA,163402.00,4049.65096,N,01414.94097,E,1,04,4.65,31.6,M,41.2,M,,*68
$GPGSA,A,3,30,07,09,20,,,,,,,,,8.16,4.65,6.71*05
$GPGSV,2,1,05,07,42,051,38,09,19,101,37,14,,,33,20,60,238,31*4E
$GPGSV,2,2,05,30,77,028,45*44
$GPGLL,4049.65096,N,01414.94097,E,163402.00,A,A*6D
$GPGST,163402.00,13,,,,5.5,5.8,10*75
!AIVDM,2,1,7,A,53cm>k02A`UTT<pF220HuE:1<eV222222222221BIpbAK6M=0D2E3PD?ORE3,0*59
!AIVDM,2,2,7,A,PD888888880,2*37
!AIVDM,1,1,,B,13cVaV0P0011B7HGGdfP2gwl00R=,0*0B
$GPRMC,163403.00,A,4049.65102,N,01414.94098,E,0.248,333.33,280921,3.72,E,A*38
$GPVTG,333.33,T,329.60,M,0.248,N,0.459,K,A*28
$GPGGA,163403.00,4049.65102,N,01414.94098,E,1,04,4.65,31.6,M,41.2,M,,*6A
$GPGSA,A,3,30,07,09,20,,,,,,,,,8.16,4.65,6.71*05
$GPGSV,2,1,05,07,42,051,38,09,19,101,36,14,,,34,20,60,238,32*4B
$GPGSV,2,2,05,30,77,028,45*44
$GPGLL,4049.65102,N,01414.94098,E,163403.00,A,A*6F
$GPGST,163403.00,12,,,,5.5,5.9,10*74
!AIVDM,1,1,,B,B3pteV000H@D8d5mkkkQ2bP5oP06,0*2D
$GPRMC,163404.00,A,4049.65109,N,01414.94092,E,0.176,333.33,280921,3.72,E,A*30
$GPVTG,333.33,T,329.60,M,0.176,N,0.326,K,A*29
$GPGGA,163404.00,4049.65109,N,01414.94092,E,1,04,4.65,31.4,M,41.2,M,,*6E
$GPGSA,A,3,30,07,09,20,,,,,,,,,8.16,4.65,6.71*05
$GPGSV,2,1,05,07,42,051,36,09,19,101,37,14,,,33,20,60,238,33*42
$GPGSV,2,2,05,30,77,028,45*44
$GPGLL,4049.65109,N,01414.94092,E,163404.00,A,A*69
$GPGST,163404.00,11,,,,5.5,5.9,10*70
!AIVDM,1,1,,B,13c`;@0P0011C9VGGfIh0?wn0624,0*42
!AIVDM,1,1,,A,13cv2N5vj8Q1F9<GF;5ohn=n8D2M,0*49
!AIVDM,1,1,,A,402FhOQvFN@R111BePGGgg700628,0*01
!AIVDM,1,1,,B,13ci>S0P00Q1CmvGGhAf4?v220R;,0*73
!AIVDM,1,1,,A,13d4a80P0011C;2GGI:P0?v20628,0*63
$GPRMC,163405.00,A,4049.65106,N,01414.94095,E,0.224,333.33,280921,3.72,E,A*3D
$GPVTG,333.33,T,329.60,M,0.224,N,0.416,K,A*29
$GPGGA,163405.00,4049.65106,N,01414.94095,E,1,04,4.65,31.5,M,41.2,M,,*66
$GPGSA,A,3,30,07,09,20,,,,,,,,,8.16,4.65,6.71*05
$GPGSV,2,1,05,07,42,051,32,09,19,101,38,14,,,38,20,60,238,33*42
$GPGSV,2,2,05,30,77,028,44*45
$GPGLL,4049.65106,N,01414.94095,E,163405.00,A,A*60
$GPGST,163405.00,16,,,,5.7,6.0,10*7E
!AIVDM,2,1,8,B,53caBF82=S10Ta1H001HE=EHTv0`E@00000000151pS45uri03lklchhD;kP,0*7A
!AIVDM,2,2,8,B,D;hsDm0@R@0,2*00
!AIVDM,1,1,,B,13cVdE0P0T11BM@GGc0eG?wl0<0l,0*7D
!AIVDM,1,1,,B,13cVq>0P1i11=3DGF2SRWgv38`1Q,0*50
!AIVDM,1,1,,B,17f6F1P00011EfPGGhSu:U`60628,0*6C
$GPRMC,163406.00,A,4049.65102,N,01414.94102,E,0.207,333.33,280921,3.72,E,A*34
$GPVTG,333.33,T,329.60,M,0.207,N,0.384,K,A*24
$GPGGA,163406.00,4049.65102,N,01414.94102,E,1,04,4.65,31.7,M,41.2,M,,*6C
$GPGSA,A,3,30,07,09,20,,,,,,,,,8.16,4.65,6.71*05
$GPGSV,2,1,05,07,42,051,31,09,19,101,38,14,,,36,20,60,238,32*4E
$GPGSV,2,2,05,30,77,028,44*45
$GPGLL,4049.65102,N,01414.94102,E,163406.00,A,A*68
$GPGST,163406.00,18,,,,6.0,6.1,11*77
!AIVDM,1,1,,A,13cmfm0P0011C;lGGeDQrgv20L1a,0*58
!AIVDM,1,1,,B,13cWA30PDB115S@GEn0jU2280<21,0*75
!AIVDM,1,1,,B,D02FhOP2LN?b<`N00m8v000,2*3C
!AIVDM,1,1,,A,14i80v0P00117FDGG7qRrOv8082;,0*07
$GPRMC,163407.00,A,4049.65102,N,01414.94104,E,0.202,333.33,280921,3.72,E,A*36
$GPVTG,333.33,T,329.60,M,0.202,N,0.373,K,A*29
$GPGGA,163407.00,4049.65102,N,01414.94104,E,1,04,4.65,31.7,M,41.2,M,,*6B
$GPGSA,A,3,30,07,09,20,,,,,,,,,8.16,4.65,6.71*05
$GPGSV,2,1,05,07,42,051,31,09,19,101,38,14,,,33,20,60,238,32*4B
$GPGSV,2,2,05,30,77,028,44*45
$GPGLL,4049.65102,N,01414.94104,E,163407.00,A,A*6F
$GPGST,163407.00,15,,,,6.1,6.2,11*79
!AIVDM,1,1,,B,34`bt45000Q1B30GGOLdmkH48Dvr,0*21
$GPRMC,163408.00,A,4049.65129,N,01414.94093,E,0.254,333.33,280921,3.72,E,A*3C
$GPVTG,333.33,T,329.60,M,0.254,N,0.470,K,A*2E
$GPGGA,163408.00,4049.65129,N,01414.94093,E,1,04,4.65,31.3,M,41.2,M,,*66
$GPGSA,A,3,30,07,09,20,,,,,,,,,8.16,4.65,6.71*05
$GPGSV,2,1,05,07,42,051,37,09,19,101,37,14,,,32,20,60,238,31*40
$GPGSV,2,2,05,30,77,028,45*44
$GPGLL,4049.65129,N,01414.94093,E,163408.00,A,A*66
$GPGST,163408.00,13,,,,6.2,6.3,11*72
!AIVDM,1,1,,B,18VSV8000211AL<GFv9e;bL80L9k,0*5C
!AIVDM,1,1,,B,13c`==0P0011C?pGGhr9ugv<0628,0*3F
!AIVDM,1,1,,A,13ciE<0P0011Be8GGdE00?v:0628,0*76
$GPRMC,163409.00,A,4049.65141,N,01414.94092,E,0.251,333.33,280921,3.72,E,A*37
$GPVTG,333.33,T,329.60,M,0.251,N,0.465,K,A*2F
$GPGGA,163409.00,4049.65141,N,01414.94092,E,1,04,4.65,31.1,M,41.2,M,,*6A
$GPGSA,A,3,30,07,09,20,,,,,,,,,8.16,4.65,6.71*05
$GPGSV,2,1,05,07,42,051,34,09,19,101,39,14,,,31,20,60,238,31*4E
$GPGSV,2,2,05,30,77,028,44*45
$GPGLL,4049.65141,N,01414.94092,E,163409.00,A,A*68
$GPGST,163409.00,14,,,,6.3,6.5,11*73
!AIVDM,1,1,,B,13cVCE002A10uAbGEL<RdR4:083b,0*71
!AIVDM,1,1,,A,13ca`>004?112aHGEkc9@WH4083i,0*62
!AIVDM,2,1,9,B,54`a1J42:Ccp?I`WT01<EHDr1<D5>0p5HTL5@u8t42=??6L>0BkPD31Dp888,0*4C
!AIVDM,2,2,9,B,88000000000,2*2E
$GPRMC,163410.00,A,4049.65152,N,01414.94087,E,0.175,333.33,280921,3.72,E,A*3C
$GPVTG,333.33,T,329.60,M,0.175,N,0.324,K,A*28
$GPGGA,163410.00,4049.65152,N,01414.94087,E,1,04,4.65,31.0,M,41.2,M,,*65
$GPGSA,A,3,30,07,09,20,,,,,,,,,8.16,4.65,6.71*05
$GPGSV,2,1,05,07,42,051,33,09,19,101,37,14,,,36,20,60,238,31*40
$GPGSV,2,2,05,30,77,028,45*44
$GPGLL,4049.65152,N,01414.94087,E,163410.00,A,A*66
$GPGST,163410.00,15,,,,6.5,6.6,11*7F
!AIVDM,1,1,,B,13cWA3004B115fRGEnPjS22@00S4,0*34
!AIVDM,1,1,,A,13cmw`001Q12@`0GBEhWHEr<H0Rt,0*2C
$GPRMC,163411.00,A,4049.65163,N,01414.94078,E,0.167,333.33,280921,3.72,E,A*3C
$GPVTG,333.33,T,329.60,M,0.167,N,0.309,K,A*24
$GPGGA,163411.00,4049.65163,N,01414.94078,E,1,04,4.65,30.7,M,41.2,M,,*60
$GPGSA,A,3,30,07,09,20,,,,,,,,,8.16,4.65,6.71*05
$GPGSV,2,1,05,07,42,051,32,09,19,101,38,14,,,36,20,60,238,31*4E
$GPGSV,2,2,05,30,77,028,46*47
$GPGLL,4049.65163,N,01414.94078,E,163411.00,A,A*65
$GPGST,163411.00,16,,,,6.8,6.8,11*7E
$GPRMC,163412.00,A,4049.65186,N,01414.94054,E,0.111,333.33,280921,3.72,E,A*3B
$GPVTG,333.33,T,329.60,M,0.111,N,0.206,K,A*2B
$GPGGA,163412.00,4049.65186,N,01414.94054,E,1,04,4.65,30.2,M,41.2,M,,*63
$GPGSA,A,3,30,07,09,20,,,,,,,,,8.16,4.65,6.71*05
$GPGSV,2,1,05,07,42,051,33,09,19,101,41,14,,,38,20,60,238,35*4B
$GPGSV,2,2,05,30,77,028,46*47
$GPGLL,4049.65186,N,01414.94054,E,163412.00,A,A*63
$GPGST,163412.00,11,,,,6.9,6.8,12*78
!AIVDM,1,1,,B,13cc0q3P00Q1C8bGGfMm3wv@0H5a,0*64
!AIVDM,1,1,,A,13cVaV0P0011B7HGGdfP2gv@085m,0*1A
$GPRMC,163413.00,A,4049.65228,N,01414.94022,E,0.103,333.33,280921,3.72,E,A*3F
$GPVTG,333.33,T,329.60,M,0.103,N,0.191,K,A*25
$GPGGA,163413.00,4049.65228,N,01414.94022,E,1,04,4.65,29.2,M,41.2,M,,*6C
$GPGSA,A,3,30,07,09,20,,,,,,,,,8.16,4.65,6.71*05
$GPGSV,2,1,05,07,42,051,35,09,19,101,41,14,,,37,20,60,238,34*43
$GPGSV,2,2,05,30,77,028,46*47
$GPGLL,4049.65228,N,01414.94022,E,163413.00,A,A*64
$GPGST,163413.00,11,,,,7.1,6.8,12*70
!AIVDM,1,1,,A,13ca`>004@112L@GEjna@WH<0D1Q,0*22
!AIVDM,1,1,,B,13cv2N5vB9Q1F48GF9bWhF<B80Sf,0*3C
$GPRMC,163414.00,A,4049.65258,N,01414.93996,E,0.129,333.33,280921,3.72,E,A*36
$GPVTG,333.33,T,329.60,M,0.129,N,0.239,K,A*2C
$GPGGA,163414.00,4049.65258,N,01414.93996,E,1,04,4.65,28.5,M,41.2,M,,*6B
$GPGSA,A,3,30,07,09,20,,,,,,,,,8.16,4.65,6.71*05
$GPGSV,2,1,05,07,42,051,34,09,19,101,40,14,,,36,20,60,238,32*44
$GPGSV,2,2,05,30,77,028,46*47
$GPGLL,4049.65258,N,01414.93996,E,163414.00,A,A*65
$GPGST,163414.00,13,,,,7.2,6.9,12*77
!AIVDM,1,1,,A,13ci>S0P00Q1Cn2GGhB>4?vF2L1i,0*55
!AIVDM,1,1,,B,402FhOQvFN@R;11BePGGgg700<1B,0*7B
!AIVDM,1,1,,B,13cWA30OlA115qlGEo02S26H0@6m,0*40
!AIVDM,1,1,,A,17f6F1P00011EfTGGhTM:U`F0<0p,0*64
!AIVDM,1,1,,A,13c`;@0P0011C9VGGfIh0?vD0H6t,0*50
!AIVDM,1,1,,A,13cVq>0P1i11=<4GF2m2b?vA8l1?,0*0F
$GPRMC,163415.00,A,4049.65291,N,01414.93961,E,0.047,333.33,280921,3.72,E,A*33
$GPVTG,333.33,T,329.60,M,0.047,N,0.088,K,A*2D
$GPGGA,163415.00,4049.65291,N,01414.93961,E,1,04,4.65,27.6,M,41.2,M,,*6B
!AIVDM,1,1,,B,13d4a80P0011C;2GGI:P0?vF0<12,0*17
$GPGSA,A,3,30,07,09,20,,,,,,,,,8.16,4.65,6.71*05
$GPGSV,2,1,05,07,42,051,34,09,19,101,40,14,,,36,20,60,238,32*44
$GPGSV,2,2,05,30,77,028,46*47
$GPGLL,4049.65291,N,01414.93961,E,163415.00,A,A*69
$GPGST,163415.00,13,,,,7.2,7.0,12*7E
!AIVDM,1,1,,B,13cmfm0P0011C;PGGeDQrgvD0<1b,0*62
!AIVDM,2,1,0,B,53@KJb02<ErHA0Dd001LTD8dD00000000000001?2R4::6MW0ARE83PD0000,0*69
!AIVDM,2,2,0,B,00000000000,2*27
!AIVDM,1,1,,A,13cVdE0P0Q11BM@GGcIe`gvD087`,0*5B
$GPRMC,163416.00,A,4049.65315,N,01414.93932,E,0.066,333.33,280921,3.72,E,A*38
$GPVTG,333.33,T,329.60,M,0.066,N,0.121,K,A*2C
$GPGGA,163416.00,4049.65315,N,01414.93932,E,1,04,4.65,26.9,M,41.2,M,,*6D
$GPGSA,A,3,30,07,09,20,,,,,,,,,8.16,4.65,6.71*05
$GPGSV,2,1,05,07,42,051,33,09,19,101,40,14,,,36,20,60,238,32*43
$GPGSV,2,2,05,30,77,028,46*47
$GPGLL,4049.65315,N,01414.93932,E,163416.00,A,A*61
$GPGST,163416.00,14,,,,7.4,7.1,12*7D
!AIVDM,1,1,,A,13cqIV?u00Q179DGG6M1gJDH0<19,0*26
!AIVDM,1,1,,B,33cjgK5P00Q2?m8GCI3>4?vJ2000,0*19
$GPRMC,163417.00,A,4049.65463,N,01414.93831,E,0.216,333.33,280921,3.72,E,A*38
$GPVTG,333.33,T,329.60,M,0.216,N,0.399,K,A*28
$GPGGA,163417.00,4049.65463,N,01414.93831,E,1,04,4.65,23.5,M,41.2,M,,*61
$GPGSA,A,3,30,07,09,20,,,,,,,,,8.16,4.65,6.71*05
$GPGSV,2,1,05,07,42,051,39,09,19,101,41,14,,,35,20,60,238,32*4B
$GPGSV,2,2,05,30,77,028,44*45
$GPGLL,4049.65463,N,01414.93831,E,163417.00,A,A*64
$GPGST,163417.00,11,,,,7.1,7.1,12*7C
!AIVDM,1,1,,A,13c`==0P0011C?pGGhr9kgvL0@8C,0*55
!AIVDM,1,1,,A,13ca`>004@112?8GEj79@WHF0L1Q,0*5A
!AIVDM,1,1,,A,18VSV8000211AL>GFv9eBbLL0<9j,0*21
!AIVDM,1,1,,A,13cf4V0P00Q2?k<GBGD`B?vJ0<1N,0*7C
$GPRMC,163418.00,A,4049.65501,N,01414.93793,E,0.228,333.33,280921,3.72,E,A*38
$GPVTG,333.33,T,329.60,M,0.228,N,0.423,K,A*23
$GPGGA,163418.00,4049.65501,N,01414.93793,E,1,04,4.65,22.4,M,41.2,M,,*6C
$GPGSA,A,3,30,07,09,20,,,,,,,,,8.16,4.65,6.71*05
$GPGSV,2,1,05,07,42,051,35,09,19,101,39,14,,,35,20,60,238,31*4B
$GPGSV,2,2,05,30,77,028,45*44
$GPGLL,4049.65501,N,01414.93793,E,163418.00,A,A*69
$GPGST,163418.00,13,,,,7.1,7.2,12*72
!AIVDM,1,1,,B,14i80v0P00117FLGG7r2rOvP0895,0*02
!AIVDM,1,1,,B,13cWA3004A1165>GEoNBTj6P089?,0*1E
$GPRMC,163419.00,A,4049.65528,N,01414.93755,E,0.239,333.33,280921,3.72,E,A*38
$GPVTG,333.33,T,329.60,M,0.239,N,0.442,K,A*24
$GPGGA,163419.00,4049.65528,N,01414.93755,E,1,04,4.65,21.4,M,41.2,M,,*6F
$GPGSA,A,3,30,07,09,20,,,,,,,,,8.16,4.65,6.71*05
$GPGSV,2,1,05,07,42,051,35,09,19,101,39,14,,,34,20,60,238,32*49
$GPGSV,2,2,05,30,77,028,45*44
$GPGLL,4049.65528,N,01414.93755,E,163419.00,A,A*69
$GPGST,163419.00,12,,,,7.1,7.3,12*73
!AIVDM,1,1,,A,13cVCE002A10uOdGELe2b22N0H9W,0*18
!AIVDM,1,1,,B,13ca`>004@1129lGEik9@WHL0@9g,0*6C
!AIVDM,1,1,,B,13ciE<0P0011Be8GGdE@0?vP0@9n,0*44
$GPRMC,163420.00,A,4049.65555,N,01414.93718,E,0.261,333.33,280921,3.72,E,A*3C
$GPVTG,333.33,T,329.60,M,0.261,N,0.483,K,A*24
$GPGGA,163420.00,4049.65555,N,01414.93718,E,1,04,4.65,20.5,M,41.2,M,,*66
$GPGSA,A,3,30,07,09,20,,,,,,,,,8.16,4.65,6.71*05
$GPGSV,2,1,05,07,42,051,35,09,19,101,39,14,,,34,20,60,238,32*49
$GPGSV,2,2,05,30,77,028,45*44
$GPGLL,4049.65555,N,01414.93718,E,163420.00,A,A*60
$GPGST,163420.00,12,,,,7.1,7.3,12*79
!AIVDM,1,1,,B,13cVlR0P00Q1@D:GGPN83gvR0D12,0*33
$GPRMC,163421.00,A,4049.65584,N,01414.93676,E,0.277,333.33,280921,3.72,E,A*3F
$GPVTG,333.33,T,329.60,M,0.277,N,0.513,K,A*2B
$GPGGA,163421.00,4049.65584,N,01414.93676,E,1,04,4.65,19.5,M,41.2,M,,*68
$GPGSA,A,3,30,07,09,20,,,,,,,,,8.16,4.65,6.71*05
$GPGSV,2,1,05,07,42,051,35,09,19,101,39,14,,,33,20,60,238,33*4F
$GPGSV,2,2,05,30,77,028,46*47
$GPGLL,4049.65584,N,01414.93676,E,163421.00,A,A*64
$GPGST,163421.00,11,,,,7.1,7.4,13*7D
!AIVDM,1,1,,B,B4hn0`0008@Fe=Umqh7Q3wuUoP06,0*49
!AIVDM,2,1,1,A,53cVdE41pefLU@4f2218u<60B049Dp@v222222151Ht576NE082E3PD82E2D,0*17
!AIVDM,2,2,1,A,hp888888880,2*3D
!AIVDM,1,1,,A,13cc0q3P01Q1C:0GGfAt3OvT00T8,0*4F
$GPRMC,163422.00,A,4049.65609,N,01414.93637,E,0.279,333.33,280921,3.72,E,A*31
$GPVTG,333.33,T,329.60,M,0.279,N,0.516,K,A*20
$GPGGA,163422.00,4049.65609,N,01414.93637,E,1,04,4.65,18.5,M,41.2,M,,*69
$GPGSA,A,3,30,07,09,20,,,,,,,,,8.16,4.65,6.71*05
$GPGSV,2,1,05,07,42,051,35,09,19,101,39,14,,,33,20,60,238,33*4F
$GPGSV,2,2,05,30,77,028,46*47
$GPGLL,4049.65609,N,01414.93637,E,163422.00,A,A*64
$GPGST,163422.00,11,,,,7.1,7.4,13*7E
!AIVDM,1,1,,A,D02FhOQRHN?b<`N01ptv000,2*0A
!AIVDM,1,1,,B,13cWA30PDA116@`GEot2V24`00S7,0*6D
$GPRMC,163423.00,A,4049.65637,N,01414.93597,E,0.319,333.33,280921,3.72,E,A*33
$GPVTG,333.33,T,329.60,M,0.319,N,0.591,K,A*28
$GPGGA,163423.00,4049.65637,N,01414.93597,E,1,04,4.65,17.6,M,41.2,M,,*60
$GPGSA,A,3,30,07,09,20,,,,,,,,,8.16,4.65,6.71*05
$GPGSV,2,1,05,07,42,051,35,09,19,101,40,14,,,33,20,60,238,33*41
$GPGSV,2,2,05,30,77,028,46*47
!AIVDM,1,1,,A,13cmw`001C12@V8GBDUWH5rVH0Rf,0*34
$GPGLL,4049.65637,N,01414.93597,E,163423.00,A,A*61
$GPGST,163423.00,11,,,,7.2,7.4,13*7C
!AIVDM,1,1,,B,13ca`>004A111vpGEi;9C7JT0L1R,0*25
!AIVDM,1,1,,B,13c`;@0P0011C9VGGfIh0?vV0<1?,0*79
!AIVDM,1,1,,B,13ci>S0P00Q1Cn6GGhCf4?v`2<1j,0*5E
$GPRMC,163424.00,A,4049.65658,N,01414.93566,E,0.305,333.33,280921,3.72,E,A*3E
$GPVTG,333.33,T,329.60,M,0.305,N,0.564,K,A*2F
$GPGGA,163424.00,4049.65658,N,01414.93566,E,1,04,4.65,16.9,M,41.2,M,,*6E
$GPGSA,A,3,30,07,09,20,,,,,,,,,8.16,4.65,6.71*05
$GPGSV,2,1,05,07,42,051,35,09,19,101,39,14,,,33,20,60,238,33*4F
$GPGSV,2,2,05,30,77,028,45*44
$GPGLL,4049.65658,N,01414.93566,E,163424.00,A,A*61
$GPGST,163424.00,11,,,,7.2,7.4,13*7B
!AIVDM,1,1,,B,13cVq>0P1i11=IPGF3C2b?vW8PT1,0*73
!AIVDM,1,1,,A,402FhOQvFN@RE11BePGGgg7008<Q,0*1C
!AIVDM,1,1,,A,13d4a80P0011C;4GGI:P0?v`0H<b,0*1D
!AIVDM,1,1,,B,17f6F1P00011Ef`GGhT=:U`d0D0p,0*79
!AIVDM,1,1,,A,13cmfm0P0011C;<GGeDQrgv`0@<q,0*4B
$GPRMC,163425.00,A,4049.65673,N,01414.93538,E,0.312,333.33,280921,3.72,E,A*3B
$GPVTG,333.33,T,329.60,M,0.312,N,0.577,K,A*2B
$GPGGA,163425.00,4049.65673,N,01414.93538,E,1,04,4.65,16.3,M,41.2,M,,*67
$GPGSA,A,3,30,07,09,20,,,,,,,,,8.16,4.65,6.71*05
$GPGSV,2,1,05,07,42,051,35,09,19,101,39,14,,,33,20,60,238,33*4F
$GPGSV,2,2,05,30,77,028,46*47
$GPGLL,4049.65673,N,01414.93538,E,163425.00,A,A*62
$GPGST,163425.00,11,,,,7.2,7.4,13*7A
!AIVDM,1,1,,A,13ca`>004A111o4GEhe9C7J`00S4,0*68
$GPRMC,163426.00,A,4049.65695,N,01414.93502,E,0.314,333.33,280921,3.72,E,A*3F
$GPVTG,333.33,T,329.60,M,0.314,N,0.582,K,A*27
$GPGGA,163426.00,4049.65695,N,01414.93502,E,1,04,4.65,15.5,M,41.2,M,,*60
$GPGSA,A,3,30,07,09,20,,,,,,,,,8.16,4.65,6.71*05
$GPGSV,2,1,05,07,42,051,36,09,19,101,38,14,,,33,20,60,238,33*4D
$GPGSV,2,2,05,30,77,028,45*44
$GPGLL,4049.65695,N,01414.93502,E,163426.00,A,A*60
$GPGST,163426.00,11,,,,7.1,7.4,13*7A
!AIVDM,1,1,,B,13cVdE0P0O11BMTGGch=m?vb08=U,0*67
!AIVDM,1,1,,B,18VSV8000211ALDGFv9=O:Lf0H=l,0*09
!AIVDM,1,1,,B,13cWA3004@116KrGEpJjUj4h0<22,0*27
$GPRMC,163427.00,A,4049.65729,N,01414.93462,E,0.446,333.33,280921,3.72,E,A*3F
$GPVTG,333.33,T,329.60,M,0.446,N,0.825,K,A*27
$GPGGA,163427.00,4049.65729,N,01414.93462,E,1,04,4.65,14.5,M,41.2,M,,*61
$GPGSA,A,3,30,07,09,20,,,,,,,,,8.16,4.65,6.71*05
$GPGSV,2,1,05,07,42,051,37,09,19,101,39,14,,,34,20,60,238,32*4B
$GPGSV,2,2,05,30,77,028,46*47
$GPGLL,4049.65729,N,01414.93462,E,163427.00,A,A*60
$GPGST,163427.00,12,,,,7.0,7.5,13*78
!AIVDM,1,1,,A,14i80v0P00117FTGG7sBrOvj0@>>,0*26
!AIVDM,1,1,,B,13ca`>004A111ihGEhI9C7Jd0@>B,0*72
!AIVDM,1,1,,B,34WJCr500011H0`GGa240F6f0lPb,0*3C
$GPRMC,163428.00,A,4049.65753,N,01414.93429,E,0.365,333.33,280921,3.72,E,A*34
$GPVTG,333.33,T,329.60,M,0.365,N,0.676,K,A*29
$GPGGA,163428.00,4049.65753,N,01414.93429,E,1,05,2.68,13.6,M,41.2,M,,*62
$GPGSA,A,3,30,14,07,09,20,,,,,,,,5.29,2.68,4.57*0C
$GPGSV,2,1,05,07,42,051,38,09,19,101,37,14,43,155,33,20,60,238,24*7C
$GPGSV,2,2,05,30,77,028,45*44
$GPGLL,4049.65753,N,01414.93429,E,163428.00,A,A*6D
$GPGST,163428.00,25,,,,6.4,7.2,12*70
!AIVDM,1,1,,B,13c`==0P0011C?pGGhr9M?vl0<1a,0*5F
!AIVDM,1,1,,A,13cWA3004>116QLGEpc2Tj6l00S4,0*63
$GPRMC,163429.00,A,4049.65763,N,01414.93411,E,0.337,333.33,280921,3.72,E,A*3A
$GPVTG,333.33,T,329.60,M,0.337,N,0.624,K,A*29
$GPGGA,163429.00,4049.65763,N,01414.93411,E,1,05,2.68,13.2,M,41.2,M,,*6F
$GPGSA,A,3,30,14,07,09,20,,,,,,,,5.29,2.68,4.56*0D
$GPGSV,2,1,05,07,42,051,36,09,19,101,38,14,43,155,34,20,60,238,26*78
$GPGSV,2,2,05,30,77,028,45*44
$GPGLL,4049.65763,N,01414.93411,E,163429.00,A,A*64
$GPGST,163429.00,19,,,,6.3,7.4,12*7F
!AIVDM,1,1,,A,13ciE<0P0011Be8GGdE00?vj0D0t,0*1A
!AIVDM,1,1,,B,13cVCE002A10ug0GEMERb22h00RU,0*11
$GPRMC,163430.00,A,4049.65768,N,01414.93392,E,0.337,333.33,280921,3.72,E,A*35
$GPVTG,333.33,T,329.60,M,0.337,N,0.624,K,A*29
$GPGGA,163430.00,4049.65768,N,01414.93392,E,1,05,2.68,12.8,M,41.2,M,,*6B
$GPGSA,A,3,30,14,07,09,20,,,,,,,,5.29,2.68,4.56*0D
$GPGSV,2,1,05,07,42,051,37,09,19,101,38,14,43,155,34,20,60,238,28*77
$GPGSV,2,2,05,30,77,028,44*45
$GPGLL,4049.65768,N,01414.93392,E,163430.00,A,A*6B
$GPGST,163430.00,16,,,,6.1,7.5,12*7B
!AIVDM,1,1,,A,13cVlR0P00Q1@D>GGPN`3gvl08?r,0*60
!AIVDM,1,1,,B,13cWA30Ol=116W4GEpr2Tj6p0<22,0*5C
$GPRMC,163431.00,A,4049.65769,N,01414.93376,E,0.326,333.33,280921,3.72,E,A*3F
$GPVTG,333.33,T,329.60,M,0.326,N,0.603,K,A*2C
$GPGGA,163431.00,4049.65769,N,01414.93376,E,1,05,2.68,12.5,M,41.2,M,,*6C
$GPGSA,A,3,30,14,07,09,20,,,,,,,,5.29,2.68,4.56*0D
$GPGSV,2,1,05,07,42,051,29,09,19,101,41,14,43,155,29,20,60,238,33*70
$GPGSV,2,2,05,30,77,028,43*42
$GPGLL,4049.65769,N,01414.93376,E,163431.00,A,A*61
$GPGST,163431.00,21,,,,6.2,7.5,12*7D
!AIVDM,2,1,2,B,53d4a842<N`4TTpv221=E0E:0`EB22222222220`2hG096P`034klcCPD888,0*12
!AIVDM,2,2,2,B,88888888888,2*2D
!AIVDM,1,1,,B,35E3lN500111LGtGGBjVwT<n0P00,0*63
$GPRMC,163432.00,A,4049.65767,N,01414.93373,E,0.286,333.33,280921,3.72,E,A*3C
$GPVTG,333.33,T,329.60,M,0.286,N,0.530,K,A*24
$GPGGA,163432.00,4049.65767,N,01414.93373,E,1,05,2.68,12.3,M,41.2,M,,*62
$GPGSA,A,3,30,14,07,09,20,,,,,,,,5.29,2.68,4.56*0D
$GPGSV,2,1,05,07,42,051,36,09,19,102,40,14,43,155,31,20,60,238,32*74
$GPGSV,2,2,05,30,77,028,44*45
$GPGLL,4049.65767,N,01414.93373,E,163432.00,A,A*69
$GPGST,163432.00,19,,,,6.3,7.6,12*77
!AIVDM,1,1,,A,13ci>S0P00Q1Cn0GGhB>4?vr28AD,0*4A
!AIVDM,1,1,,A,13cVaV0P0011B7HGGdfP2gvp00RV,0*7E
$GPRMC,163433.00,A,4049.65742,N,01414.93398,E,0.255,333.33,280921,3.72,E,A*31
$GPVTG,333.33,T,329.60,M,0.255,N,0.472,K,A*2D
$GPGGA,163433.00,4049.65742,N,01414.93398,E,1,05,2.68,13.0,M,41.2,M,,*63
$GPGSA,A,3,30,14,07,09,20,,,,,,,,5.29,2.68,4.56*0D
$GPGSV,2,1,05,07,42,051,39,09,19,102,40,14,43,155,32,20,60,238,31*7B
$GPGSV,2,2,05,30,77,028,43*42
$GPGLL,4049.65742,N,01414.93398,E,163433.00,A,A*6A
$GPGST,163433.00,15,,,,6.3,7.7,12*7B
!AIVDM,1,1,,B,ENjOss@ps?@6a9Qh7V14PP000000Ei5<;eEl000000N010,4*2D
$GPRMC,163434.00,A,4049.65696,N,01414.93432,E,0.279,333.33,280921,3.72,E,A*37
$GPVTG,333.33,T,329.60,M,0.279,N,0.518,K,A*2E
$GPGGA,163434.00,4049.65696,N,01414.93432,E,1,05,2.68,14.1,M,41.2,M,,*6D
$GPGSA,A,3,30,14,07,09,20,,,,,,,,5.29,2.68,4.56*0D
$GPGSV,2,1,05,07,42,051,39,09,19,102,39,14,43,155,32,20,60,238,28*7D
$GPGSV,2,2,05,30,77,028,45*44
$GPGLL,4049.65696,N,01414.93432,E,163434.00,A,A*62
$GPGST,163434.00,18,,,,6.3,7.8,13*7F
!AIVDM,1,1,,A,13c`;@0P0011C9VGGfIh0?vt0628,0*56
!AIVDM,1,1,,B,402FhOQvFN@RO11BePGGgg7008BH,0*72
!AIVDM,1,1,,B,13cWA30Ol=116jHGEqGBV29000SC,0*50
!AIVDM,1,1,,B,13d4a80P0011C;4GGI:P0?vt0628,0*20
!AIVDM,1,1,,B,13cv2N502:Q1Eq`GF6cGi6<v8628,0*75
$GPRMC,163435.00,A,4049.65614,N,01414.93468,E,0.202,333.33,280921,3.72,E,A*3F
$GPVTG,333.33,T,329.60,M,0.202,N,0.374,K,A*2E
$GPGGA,163435.00,4049.65614,N,01414.93468,E,1,05,2.68,15.6,M,41.2,M,,*6F
$GPGSA,A,3,30,14,07,09,20,,,,,,,,5.28,2.68,4.56*0C
$GPGSV,2,1,05,07,42,051,39,09,19,102,40,14,43,155,31,20,60,238,30*79
$GPGSV,2,2,05,30,77,028,45*44
$GPGLL,4049.65614,N,01414.93468,E,163435.00,A,A*66
$GPGST,163435.00,16,,,,6.1,7.8,12*73
!AIVDM,1,1,,B,13ca`>004A111O0GEgEaC7Ht08Bu,0*76
!AIVDM,1,1,,A,ENjOss0pqg@6a9Qh1PSV4Pa4P000Dlb0;>2OP00000N010,4*65
!AIVDM,1,1,,A,17f6F1P00011EfdGGhT=:Ua008CD,0*10
$GPRMC,163436.00,A,4049.65535,N,01414.93513,E,0.129,333.33,280921,3.72,E,A*3B
$GPVTG,333.33,T,329.60,M,0.129,N,0.238,K,A*2D
$GPGGA,163436.00,4049.65535,N,01414.93513,E,1,05,2.68,17.3,M,41.2,M,,*66
$GPGSA,A,3,30,14,07,09,20,,,,,,,,5.28,2.68,4.56*0C
$GPGSV,2,1,05,07,42,051,39,09,19,102,42,14,43,155,31,20,60,238,28*72
$GPGSV,2,2,05,30,77,028,45*44
$GPGLL,4049.65535,N,01414.93513,E,163436.00,A,A*68
$GPGST,163436.00,18,,,,5.9,7.9,13*75
!AIVDM,1,1,,B,13cmfm0P0011C;<GGeDQrgvv0628,0*6F
!AIVDM,1,1,,A,13cVdE0P0L11BN<GGd1P0?vv08C`,0*3D
!AIVDM,1,1,,A,13cWA3004?116p@GEqUBVj;40D22,0*4C
$GPRMC,163437.00,A,4049.65499,N,01414.93535,E,0.058,333.33,280921,3.72,E,A*3E
$GPVTG,333.33,T,329.60,M,0.058,N,0.108,K,A*2A
$GPGGA,163437.00,4049.65499,N,01414.93535,E,1,05,2.68,18.2,M,41.2,M,,*6A
$GPGSA,A,3,30,14,07,09,20,,,,,,,,5.28,2.68,4.55*0F
$GPGSV,2,1,05,07,42,051,38,09,19,102,41,14,43,155,32,20,60,238,28*73
$GPGSV,2,2,05,30,77,028,46*47
$GPGLL,4049.65499,N,01414.93535,E,163437.00,A,A*6A
$GPGST,163437.00,18,,,,5.8,8.0,13*73
!AIVDM,1,1,,A,18VSV8000111ALFGFv8eLbM20D9j,0*52
$GPRMC,163438.00,A,4049.65499,N,01414.93535,E,0.000,333.33,280921,3.72,E,A*3C
$GPVTG,333.33,T,329.60,M,0.000,N,0.000,K,A*2E
$GPGGA,163438.00,4049.65499,N,01414.93535,E,1,05,2.68,18.2,M,41.2,M,,*65
$GPGSA,A,3,30,14,07,09,20,,,,,,,,5.28,2.68,4.55*0F
!AIVDM,1,1,,B,14i80v0P00117FdGG7tBrOw608DT,0*27
$GPGSV,2,1,05,07,42,051,37,09,19,102,39,14,43,155,31,20,60,238,26*7E
$GPGSV,2,2,05,30,77,028,46*47
!AIVDM,1,1,,A,13c`==0P0011C?pGGhr9Jgw60628,0*08
$GPGLL,4049.65499,N,01414.93535,E,163438.00,A,A*65
$GPGST,163438.00,22,,,,5.8,8.2,13*77
!AIVDM,1,1,,A,ENjOsq0s?@6a9Qh10a4P00000000VVf@;i7s000000N010,4*2E
!AIVDM,1,1,,B,33crd1500011C;>GGdTo4c340Dwb,0*4C
!AIVDM,1,1,,B,33cm>k100011Tq@GF<Q:?;520000,0*4F
!AIVDM,1,1,,B,13cWA3004?116v0GEqkBWj;80<22,0*72
$GPRMC,163439.00,A,4049.65499,N,01414.93535,E,0.000,333.33,280921,3.72,E,A*3D
$GPVTG,333.33,T,329.60,M,0.000,N,0.000,K,A*2E
$GPGGA,163439.00,4049.65499,N,01414.93535,E,1,05,2.68,18.2,M,41.2,M,,*64
$GPGSA,A,3,30,14,07,09,20,,,,,,,,5.28,2.68,4.55*0F
$GPGSV,2,1,05,07,42,051,37,09,19,102,39,14,43,155,32,20,60,238,23*78
$GPGSV,2,2,05,30,77,028,46*47
$GPGLL,4049.65499,N,01414.93535,E,163439.00,A,A*64
$GPGST,163439.00,34,,,,5.7,8.4,13*78
!AIVDM,1,1,,B,13cVlR0P00Q1@D:GGPO83gw80D16,0*5D
!AIVDM,1,1,,B,13ciE<0P0011Be:GGdE@0?w608EQ,0*1A
!AIVDM,1,1,,A,ENjOsphrg@6a9Qh92SSTWh1PV0Q0Slm@:r;8000000N014R@@0,4*23
$GPRMC,163440.00,A,4049.65499,N,01414.93535,E,0.000,333.33,280921,3.72,E,A*33
$GPVTG,333.33,T,329.60,M,0.000,N,0.000,K,A*2E
$GPGGA,163440.00,4049.65499,N,01414.93535,E,1,05,2.67,18.2,M,41.2,M,,*65
$GPGSA,A,3,30,14,07,09,20,,,,,,,,5.28,2.67,4.55*00
$GPGSV,2,1,05,07,42,051,37,09,19,102,39,14,43,155,30,20,60,238,21*78
$GPGSV,2,2,05,30,77,028,45*44
$GPGLL,4049.65499,N,01414.93535,E,163440.00,A,A*6A
$GPGST,163440.00,36,,,,5.6,8.7,13*76
!AIVDM,1,1,,A,13cWA3004@1173pGEr1Ra2;<0D22,0*51
!AIVDM,1,1,,B,33cmw`0Oi312@StGBCC7J638H0Ti,0*7D
$GPRMC,163441.00,A,4049.65499,N,01414.93535,E,0.000,333.33,280921,3.72,E,A*32
$GPVTG,333.33,T,329.60,M,0.000,N,0.000,K,A*2E
$GPGGA,163441.00,4049.65499,N,01414.93535,E,1,05,2.67,18.2,M,41.2,M,,*64
$GPGSA,A,3,30,14,07,09,20,,,,,,,,5.28,2.67,4.55*00
$GPGSV,2,1,05,07,42,051,36,09,19,102,40,14,43,155,30,20,60,238,20*76
$GPGSV,2,2,05,30,77,028,45*44
$GPGLL,4049.65499,N,01414.93535,E,163441.00,A,A*6B
!AIVDM,1,1,,B,13cVaV0P0011B7HGGdfP2gw608FF,0*36
$GPGST,163441.00,37,,,,5.6,8.9,14*7F
!AIVDM,1,1,,A,13ca`>004A111<@GEf?aC7I800S6,0*1A
!AIVDM,1,1,,A,ENjOsp@qg@6a9Qh1Tc4b0c2QQT4PKwS4;tmkP00000N010@,2*04
$GPRMC,163442.00,A,4049.65499,N,01414.93535,E,0.000,333.33,280921,3.72,E,A*31
$GPVTG,333.33,T,329.60,M,0.000,N,0.000,K,A*2E
$GPGGA,163442.00,4049.65499,N,01414.93535,E,1,05,2.67,18.2,M,41.2,M,,*67
$GPGSA,A,3,30,14,07,09,20,,,,,,,,5.27,2.67,4.55*0F
$GPGSV,2,1,05,07,42,051,36,09,19,102,40,14,43,155,30,20,60,238,19*7C
$GPGSV,2,2,05,30,77,028,46*47
$GPGLL,4049.65499,N,01414.93535,E,163442.00,A,A*68
$GPGST,163442.00,38,,,,5.6,9.2,14*79
!AIVDM,1,1,,B,13cWA3004@1179`GEr?BaR9@0628,0*30
!AIVDM,1,1,,A,H02FhOPp50hE>0U@<L000000000,2*5C
!AIVDM,1,1,,B,13ci>S0P00Q1CmrGGhAf4?w>2628,0*1F
$GPRMC,163443.00,A,4049.65499,N,01414.93535,E,0.000,333.33,280921,3.72,E,A*30
$GPVTG,333.33,T,329.60,M,0.000,N,0.000,K,A*2E
$GPGGA,163443.00,4049.65499,N,01414.93535,E,1,05,2.67,18.2,M,41.2,M,,*66
$GPGSA,A,3,30,14,07,09,20,,,,,,,,5.27,2.67,4.55*0F
$GPGSV,2,1,05,07,42,051,36,09,19,102,40,14,43,155,30,20,60,237,18*72
$GPGSV,2,2,05,30,77,028,46*47
$GPGLL,4049.65499,N,01414.93535,E,163443.00,A,A*69
$GPGST,163443.00,41,,,,5.6,9.4,14*70
!AIVDM,1,1,,A,13cc0q3P00Q1C9lGGfIc>gw>08GS,0*30
!AIVDM,1,1,,B,13ca`>004@1119hGEf5aC7G:0<1Q,0*3A
