$GPRMC,044713.00,A,4049.56799,N,01413.44883,E,0.000,0.00,280722,3.80,E,A*3F
$GPVTG,0.00,T,356.20,M,0.000,N,0.000,K,A*21
$GPGGA,044713.00,4049.56799,N,01413.44883,E,1,11,0.90,10.8,M,41.2,M,,*67
$GPGSA,A,3,31,02,22,20,25,26,05,29,11,12,18,,1.47,0.90,1.16*0A
$GPGSV,3,1,12,02,21,043,36,04,00,330,,05,17,092,26,11,09,037,35*78
$GPGSV,3,2,12,12,17,110,26,18,43,182,38,20,15,057,31,22,08,247,26*7F
$GPGSV,3,3,12,25,56,103,41,26,23,304,37,29,73,009,41,31,52,280,37*77
$GPGLL,4049.56799,N,01413.44883,E,044713.00,A,A*65
$GPGST,044713.00,18,,,,1.3,1.1,2.4*5F
!AIVDM,1,1,,B,13cVTr0P52Q1Cp0GFTOBm?vJ04Rt,0*24
!AIVDM,1,1,,B,13f?cT000011;5BGG=dFQBjH088:,0*21
$GPRMC,044714.00,A,4049.56799,N,01413.44883,E,0.000,0.00,280722,3.80,E,A*38
$GPVTG,0.00,T,356.20,M,0.000,N,0.000,K,A*21
$GPGGA,044714.00,4049.56799,N,01413.44883,E,1,11,0.90,10.8,M,41.2,M,,*60
$GPGSA,A,3,31,02,22,20,25,26,05,29,11,12,18,,1.47,0.90,1.16*0A
$GPGSV,3,1,12,02,21,043,36,04,00,330,,05,17,092,27,11,09,037,35*79
$GPGSV,3,2,12,12,17,110,26,18,43,182,38,20,15,057,31,22,08,247,26*7F
$GPGSV,3,3,12,25,56,103,41,26,23,304,37,29,73,009,41,31,52,280,37*77
$GPGLL,4049.56799,N,01413.44883,E,044714.00,A,A*62
$GPGST,044714.00,18,,,,1.3,1.1,2.4*58
$GPRMC,044715.00,A,4049.56799,N,01413.44883,E,0.000,0.00,280722,3.80,E,A*39
$GPVTG,0.00,T,356.20,M,0.000,N,0.000,K,A*21
$GPGGA,044715.00,4049.56799,N,01413.44883,E,1,11,0.90,10.8,M,41.2,M,,*61
$GPGSA,A,3,31,02,22,20,25,26,05,29,11,12,18,,1.47,0.90,1.16*0A
$GPGSV,3,1,12,02,21,043,34,04,00,330,,05,17,092,37,11,09,037,35*7A
$GPGSV,3,2,12,12,17,110,33,18,43,182,40,20,15,057,26,22,08,247,27*73
$GPGSV,3,3,12,25,56,103,44,26,23,304,37,29,73,009,41,31,52,280,37*72
$GPGLL,4049.56799,N,01413.44883,E,044715.00,A,A*63
$GPGST,044715.00,18,,,,1.3,1.1,2.4*59
!AIVDM,1,1,,A,13cVTr0P52Q1CsPGFTVBm?vL088u,0*3C
$GPRMC,044716.00,A,4049.56799,N,01413.44883,E,0.000,0.00,280722,3.80,E,A*3A
$GPVTG,0.00,T,356.20,M,0.000,N,0.000,K,A*21
$GPGGA,044716.00,4049.56799,N,01413.44883,E,1,11,0.82,10.8,M,41.2,M,,*61
$GPGSA,A,3,31,02,22,20,25,26,05,29,11,12,18,,1.39,0.82,1.12*04
$GPGSV,3,1,12,02,21,043,39,04,00,330,,05,17,092,35,11,09,037,33*73
$GPGSV,3,2,12,12,17,110,33,18,43,182,41,20,15,057,30,22,08,247,26*74
$GPGSV,3,3,12,25,56,103,40,26,23,304,38,29,73,009,42,31,52,280,38*75
$GPGLL,4049.56799,N,01413.44883,E,044716.00,A,A*60
$GPGST,044716.00,22,,,,1.3,1.1,2.4*53
!AIVDM,2,1,2,A,53P=9L8000038L@cF2098U=@thT4r2222222220T4H27100Ht9SPD31Dp888,0*64
!AIVDM,2,2,2,A,88888888880,2*26
$GPRMC,044717.00,A,4049.56799,N,01413.44883,E,0.000,0.00,280722,3.80,E,A*3B
$GPVTG,0.00,T,356.20,M,0.000,N,0.000,K,A*21
$GPGGA,044717.00,4049.56799,N,01413.44883,E,1,11,0.82,10.8,M,41.2,M,,*60
$GPGSA,A,3,31,02,22,20,25,26,05,29,11,12,18,,1.39,0.82,1.12*04
$GPGSV,3,1,12,02,21,043,35,04,00,330,,05,17,092,35,11,09,037,33*7F
$GPGSV,3,2,12,12,17,110,30,18,43,182,35,20,15,056,28,22,08,247,27*7D
$GPGSV,3,3,12,25,56,103,43,26,23,304,38,29,73,009,42,31,52,280,39*77
$GPGLL,4049.56799,N,01413.44883,E,044717.00,A,A*61
$GPGST,044717.00,21,,,,1.3,1.1,2.4*51
!AIVDM,1,1,,B,13cVTr0P53Q1D2TGFTkjm?vR00S;,0*5A
!AIVDM,1,1,,A,13cf8P0P0111D@HGGcmsR?vT0<21,0*59
$GPRMC,044718.00,A,4049.56799,N,01413.44883,E,0.000,0.00,280722,3.80,E,A*34
$GPVTG,0.00,T,356.20,M,0.000,N,0.000,K,A*21
$GPGGA,044718.00,4049.56799,N,01413.44883,E,1,11,0.82,10.8,M,41.2,M,,*6F
$GPGSA,A,3,31,02,22,20,25,26,05,29,11,12,18,,1.39,0.82,1.12*04
$GPGSV,3,1,12,02,21,043,35,04,00,330,,05,17,092,35,11,09,037,34*78
$GPGSV,3,2,12,12,17,110,29,18,43,182,40,20,15,056,27,22,08,247,29*76
$GPGSV,3,3,12,25,56,103,42,26,23,304,38,29,73,009,42,31,52,280,39*76
$GPGLL,4049.56799,N,01413.44883,E,044718.00,A,A*6E
$GPGST,044718.00,19,,,,1.3,1.1,2.4*55
!AIVDM,1,1,,A,34hc`T5000117TfGG8GV9bIp0ltb,0*1F
!AIVDM,2,1,3,A,54hc`T40?CAq`P9SR21<thTp@62222222222220U1pS365udN8kADQiC32CP,0*3E
!AIVDM,2,2,3,A,H8888888880,2*57
$GPRMC,044719.00,A,4049.56799,N,01413.44883,E,0.000,0.00,280722,3.80,E,A*35
$GPVTG,0.00,T,356.20,M,0.000,N,0.000,K,A*21
$GPGGA,044719.00,4049.56799,N,01413.44883,E,1,11,0.82,10.8,M,41.2,M,,*6E
$GPGSA,A,3,31,02,22,20,25,26,05,29,11,12,18,,1.39,0.82,1.12*04
$GPGSV,3,1,12,02,21,043,38,04,00,330,,05,17,092,38,11,09,037,37*7B
$GPGSV,3,2,12,12,17,110,34,18,43,182,42,20,15,056,28,22,07,246,30*71
$GPGSV,3,3,12,25,56,103,45,26,23,304,37,29,73,009,39,31,52,280,39*72
$GPGLL,4049.56799,N,01413.44883,E,044719.00,A,A*6F
$GPGST,044719.00,15,,,,1.3,1.1,2.3*5F
!AIVDM,1,1,,A,13cpIR000011;T2GFwS`0BVT0<22,0*48
$GPRMC,044720.00,A,4049.56799,N,01413.44883,E,0.000,0.00,280722,3.80,E,A*3F
$GPVTG,0.00,T,356.20,M,0.000,N,0.000,K,A*21
$GPGGA,044720.00,4049.56799,N,01413.44883,E,1,11,0.82,10.8,M,41.2,M,,*64
$GPGSA,A,3,31,02,22,20,25,26,05,29,11,12,18,,1.39,0.82,1.12*04
$GPGSV,3,1,12,02,21,043,36,04,00,330,,05,17,092,37,11,09,037,36*7B
$GPGSV,3,2,12,12,17,110,36,18,43,182,42,20,15,056,27,22,07,246,31*7D
$GPGSV,3,3,12,25,56,103,45,26,23,304,36,29,73,009,39,31,52,280,39*73
$GPGLL,4049.56799,N,01413.44883,E,044720.00,A,A*65
$GPGST,044720.00,15,,,,1.3,1.1,2.3*55
!AIVDM,1,1,,A,13dm>P0P0011;qpGG72>4?v`00Sb,0*0E
$GPRMC,044721.00,A,4049.56799,N,01413.44883,E,0.000,0.00,280722,3.80,E,A*3E
$GPVTG,0.00,T,356.20,M,0.000,N,0.000,K,A*21
$GPGGA,044721.00,4049.56799,N,01413.44883,E,1,11,0.82,10.8,M,41.2,M,,*65
$GPGSA,A,3,31,02,22,20,25,26,05,29,11,12,18,,1.39,0.82,1.12*04
$GPGSV,3,1,12,02,21,043,34,04,00,330,,05,17,092,37,11,09,037,36*79
$GPGSV,3,2,12,12,17,110,33,18,43,182,41,20,15,056,27,22,07,246,31*7B
$GPGSV,3,3,12,25,56,103,43,26,23,304,37,29,73,009,43,31,52,280,39*79
$GPGLL,4049.56799,N,01413.44883,E,044721.00,A,A*64
$GPGST,044721.00,15,,,,1.2,1.1,2.3*55
!AIVDM,1,1,,B,13cVTr0P53Q1DD6GFUFjl?vd08<U,0*5C
$GPRMC,044722.00,A,4049.56799,N,01413.44883,E,0.000,0.00,280722,3.80,E,A*3D
$GPVTG,0.00,T,356.20,M,0.000,N,0.000,K,A*21
$GPGGA,044722.00,4049.56799,N,01413.44883,E,1,11,0.82,10.8,M,41.2,M,,*66
$GPGSA,A,3,31,02,22,20,25,26,05,29,11,12,18,,1.39,0.82,1.12*04
$GPGSV,3,1,12,02,21,043,36,04,00,330,,05,17,092,37,11,09,037,34*79
$GPGSV,3,2,12,12,17,110,34,18,43,182,42,20,15,056,26,22,07,246,31*7E
$GPGSV,3,3,12,25,56,104,44,26,23,304,37,29,73,009,42,31,52,280,38*79
$GPGLL,4049.56799,N,01413.44883,E,044722.00,A,A*67
$GPGST,044722.00,15,,,,1.2,1.1,2.3*56
$GPRMC,044723.00,A,4049.56799,N,01413.44883,E,0.000,0.00,280722,3.80,E,A*3C
$GPVTG,0.00,T,356.20,M,0.000,N,0.000,K,A*21
$GPGGA,044723.00,4049.56799,N,01413.44883,E,1,11,0.82,10.8,M,41.2,M,,*67
$GPGSA,A,3,31,02,22,20,25,26,05,29,11,12,18,,1.39,0.82,1.12*04
$GPGSV,3,1,12,02,21,043,37,04,00,330,,05,17,092,36,11,09,037,35*78
$GPGSV,3,2,12,12,17,110,35,18,43,182,42,20,15,056,26,22,07,246,31*7F
$GPGSV,3,3,12,25,56,104,44,26,23,304,37,29,73,009,43,31,52,280,39*79
$GPGLL,4049.56799,N,01413.44883,E,044723.00,A,A*66
$GPGST,044723.00,15,,,,1.2,1.0,2.2*57
!AIVDM,1,1,,A,13cVTr0P53Q1DGVGFUMjkwvf0<0i,0*4E
$GPRMC,044724.00,A,4049.56799,N,01413.44883,E,0.000,0.00,280722,3.80,E,A*3B
$GPVTG,0.00,T,356.20,M,0.000,N,0.000,K,A*21
$GPGGA,044724.00,4049.56799,N,01413.44883,E,1,11,0.82,10.8,M,41.2,M,,*60
$GPGSA,A,3,31,02,22,20,25,26,05,29,11,12,18,,1.39,0.82,1.12*04
$GPGSV,3,1,12,02,21,043,38,04,00,330,,05,17,092,36,11,09,037,35*77
$GPGSV,3,2,12,12,17,110,35,18,43,182,43,20,15,056,27,22,07,246,32*7C
!AIVDM,2,1,4,B,54hQoT42CkV5`L=SN20=85aV0lF222222222220U38I555v007SPD31Dp888,0*67
!AIVDM,2,2,4,B,88888888880,2*23
$GPGSV,3,3,12,25,56,104,44,26,23,304,37,29,73,009,43,31,52,280,40*77
!AIVDM,1,1,,A,34hRJf5000117RLGG8D=3bHf0000,0*25
$GPGLL,4049.56799,N,01413.44883,E,044724.00,A,A*61
$GPGST,044724.00,14,,,,1.2,1.0,2.2*51
$GPRMC,044725.00,A,4049.56799,N,01413.44883,E,0.000,0.00,280722,3.80,E,A*3A
$GPVTG,0.00,T,356.20,M,0.000,N,0.000,K,A*21
$GPGGA,044725.00,4049.56799,N,01413.44883,E,1,11,0.82,10.8,M,41.2,M,,*61
$GPGSA,A,3,31,02,22,20,25,26,05,29,11,12,18,,1.39,0.82,1.12*04
$GPGSV,3,1,12,02,21,043,38,04,00,330,,05,17,092,36,11,09,037,35*77
$GPGSV,3,2,12,12,17,110,36,18,43,182,43,20,15,056,28,22,07,246,32*70
$GPGSV,3,3,12,25,56,104,44,26,23,304,37,29,73,009,43,31,52,280,39*79
$GPGLL,4049.56799,N,01413.44883,E,044725.00,A,A*60
$GPGST,044725.00,13,,,,1.2,1.0,2.2*57
!AIVDM,1,1,,B,13cVTr0P52Q1DNRGFUdjk?vj0@>i,0*5E
!AIVDM,1,1,,A,34hQoT1s0011:i6GFueCNQWp0lub,0*25
!AIVDM,1,1,,A,13f?cT03@011;5FGG=cVQBlh0D2d,0*4C
$GPRMC,044726.00,A,4049.56799,N,01413.44883,E,0.000,0.00,280722,3.80,E,A*39
$GPVTG,0.00,T,356.20,M,0.000,N,0.000,K,A*21
$GPGGA,044726.00,4049.56799,N,01413.44883,E,1,11,0.82,10.8,M,41.2,M,,*62
$GPGSA,A,3,31,02,22,20,25,26,05,29,11,12,18,,1.39,0.82,1.12*04
$GPGSV,3,1,12,02,21,043,35,04,00,330,,05,17,092,36,11,09,037,34*7B
$GPGSV,3,2,12,12,17,110,33,18,43,182,42,20,15,056,27,22,07,246,32*7B
$GPGSV,3,3,12,25,56,104,44,26,23,304,36,29,73,010,43,31,52,280,39*70
$GPGLL,4049.56799,N,01413.44883,E,044726.00,A,A*63
$GPGST,044726.00,15,,,,1.2,1.0,2.2*52
$GPRMC,044727.00,A,4049.56799,N,01413.44883,E,0.000,0.00,280722,3.80,E,A*38
$GPVTG,0.00,T,356.20,M,0.000,N,0.000,K,A*21
$GPGGA,044727.00,4049.56799,N,01413.44883,E,1,11,0.82,10.8,M,41.2,M,,*63
$GPGSA,A,3,31,02,22,20,25,26,05,29,11,12,18,,1.39,0.82,1.12*04
$GPGSV,3,1,12,02,21,043,39,04,00,330,,05,17,092,35,11,09,037,34*74
$GPGSV,3,2,12,12,17,110,35,18,43,182,41,20,15,056,25,22,07,246,30*7E
$GPGSV,3,3,12,25,56,104,44,26,23,304,36,29,73,010,40,31,52,280,38*72
$GPGLL,4049.56799,N,01413.44883,E,044727.00,A,A*62
$GPGST,044727.00,17,,,,1.1,1.0,2.2*52
!AIVDM,1,1,,A,13cVTr0P51Q1DUJGFUt2iwvn04Rt,0*5E
$GPRMC,044728.00,A,4049.56799,N,01413.44883,E,0.000,0.00,280722,3.80,E,A*37
$GPVTG,0.00,T,356.20,M,0.000,N,0.000,K,A*21
$GPGGA,044728.00,4049.56799,N,01413.44883,E,1,11,0.82,10.8,M,41.2,M,,*6C
$GPGSA,A,3,31,02,22,20,25,26,05,29,11,12,18,,1.39,0.82,1.12*04
$GPGSV,3,1,12,02,21,043,34,04,00,330,,05,17,092,37,11,09,037,34*7B
$GPGSV,3,2,12,12,17,110,35,18,43,182,40,20,15,056,23,22,07,246,30*79
!AIVDM,1,1,,B,34h@Ga5000117SHGG80Eer8p0DPJ,0*79
$GPGSV,3,3,12,25,56,104,43,26,23,304,35,29,73,010,41,31,52,279,39*70
$GPGLL,4049.56799,N,01413.44883,E,044728.00,A,A*6D
$GPGST,044728.00,18,,,,1.1,1.0,2.2*52
!AIVDM,1,1,,B,13cpIR000011;T2GFwS`4j`n00Sh,0*5C
$GPRMC,044729.00,A,4049.56799,N,01413.44883,E,0.000,0.00,280722,3.80,E,A*36
$GPVTG,0.00,T,356.20,M,0.000,N,0.000,K,A*21
$GPGGA,044729.00,4049.56799,N,01413.44883,E,1,11,0.82,10.8,M,41.2,M,,*6D
$GPGSA,A,3,31,02,22,20,25,26,05,29,11,12,18,,1.39,0.82,1.12*04
$GPGSV,3,1,12,02,21,043,37,04,00,330,,05,17,092,37,11,09,037,34*78
$GPGSV,3,2,12,12,17,110,33,18,43,182,42,20,15,056,23,22,07,246,29*75
$GPGSV,3,3,12,25,56,104,42,26,23,304,36,29,73,010,41,31,52,279,39*72
$GPGLL,4049.56799,N,01413.44883,E,044729.00,A,A*6C
$GPGST,044729.00,18,,,,1.1,1.0,2.2*53
!AIVDM,1,1,,B,13cVTr0P51Q1Dd>GFV<2h?vr0<0i,0*71
$GPRMC,044730.00,A,4049.56799,N,01413.44883,E,0.000,0.00,280722,3.80,E,A*3E
$GPVTG,0.00,T,356.20,M,0.000,N,0.000,K,A*21
$GPGGA,044730.00,4049.56799,N,01413.44883,E,1,11,0.82,10.8,M,41.2,M,,*65
$GPGSA,A,3,31,02,22,20,25,26,05,29,11,12,18,,1.39,0.82,1.12*04
$GPGSV,3,1,12,02,21,043,40,04,00,330,,05,17,092,35,11,09,037,35*7B
$GPGSV,3,2,12,12,17,110,34,18,43,182,43,20,15,056,26,22,07,246,29*76
$GPGSV,3,3,12,25,56,104,43,26,23,304,35,29,73,010,41,31,52,279,38*71
$GPGLL,4049.56799,N,01413.44883,E,044730.00,A,A*64
$GPGST,044730.00,16,,,,1.1,1.0,2.2*55
!AIVDM,2,1,5,B,53cadr02=<q4T8E22204hT=D@V0n22222222221@AhRI65s6bIRE3PD88888,0*73
!AIVDM,2,2,5,B,88888888880,2*22
$GPRMC,044731.00,A,4049.56799,N,01413.44883,E,0.000,0.00,280722,3.80,E,A*3F
$GPVTG,0.00,T,356.20,M,0.000,N,0.000,K,A*21
$GPGGA,044731.00,4049.56799,N,01413.44883,E,1,11,0.82,10.8,M,41.2,M,,*64
$GPGSA,A,3,31,02,22,20,25,26,05,29,11,12,18,,1.39,0.82,1.12*04
$GPGSV,3,1,12,02,21,043,40,04,00,330,,05,17,092,35,11,09,037,35*7B
$GPGSV,3,2,12,12,17,110,33,18,43,182,43,20,15,056,27,22,07,246,27*7E
$GPGSV,3,3,12,25,56,104,43,26,23,304,35,29,73,010,41,31,52,279,37*7E
$GPGLL,4049.56799,N,01413.44883,E,044731.00,A,A*65
$GPGST,044731.00,17,,,,1.1,1.0,2.1*56
!AIVDM,1,1,,A,13cVTr0P50Q1DnHGFVUBeOvv0@BD,0*4C
!AIVDM,1,1,,B,13dm>P0P0111;r<GG72>4?vv0@BU,0*03
$GPRMC,044732.00,A,4049.56799,N,01413.44883,E,0.000,0.00,280722,3.80,E,A*3C
$GPVTG,0.00,T,356.20,M,0.000,N,0.000,K,A*21
$GPGGA,044732.00,4049.56799,N,01413.44883,E,1,11,0.82,10.8,M,41.2,M,,*67
$GPGSA,A,3,31,02,22,20,25,26,05,29,11,12,18,,1.39,0.82,1.12*04
$GPGSV,3,1,12,02,21,043,40,04,00,330,,05,17,092,34,11,09,037,34*7B
$GPGSV,3,2,12,12,17,110,33,18,43,182,43,20,15,056,27,22,07,246,28*71
$GPGSV,3,3,12,25,56,104,43,26,23,304,35,29,73,010,41,31,52,279,37*7E
$GPGLL,4049.56799,N,01413.44883,E,044732.00,A,A*66
$GPGST,044732.00,17,,,,1.1,1.0,2.1*55
$GPRMC,044733.00,A,4049.56799,N,01413.44883,E,0.000,0.00,280722,3.80,E,A*3D
$GPVTG,0.00,T,356.20,M,0.000,N,0.000,K,A*21
$GPGGA,044733.00,4049.56799,N,01413.44883,E,1,11,0.82,10.8,M,41.2,M,,*66
$GPGSA,A,3,31,02,22,20,25,26,05,29,11,12,18,,1.39,0.82,1.12*04
$GPGSV,3,1,12,02,21,043,37,04,00,330,,05,17,092,35,11,09,037,33*7D
$GPGSV,3,2,12,12,17,110,32,18,43,182,42,20,15,056,28,22,07,246,29*7F
$GPGSV,3,3,12,25,56,104,43,26,23,304,38,29,73,010,43,31,52,279,35*73
!AIVDM,1,1,,B,13cVTr0P50Q1Du:GFVnBcww204Rt,0*32
$GPGLL,4049.56799,N,01413.44883,E,044733.00,A,A*67
$GPGST,044733.00,16,,,,1.1,1.0,2.1*55
$GPRMC,044734.00,A,4049.56799,N,01413.44883,E,0.000,0.00,280722,3.80,E,A*3A
$GPVTG,0.00,T,356.20,M,0.000,N,0.000,K,A*21
$GPGGA,044734.00,4049.56799,N,01413.44883,E,1,11,0.82,10.8,M,41.2,M,,*61
$GPGSA,A,3,31,02,22,20,25,26,05,29,11,12,18,,1.39,0.82,1.12*04
$GPGSV,3,1,12,02,21,043,36,04,00,330,,05,17,092,31,11,09,037,32*79
$GPGSV,3,2,12,12,17,110,36,18,43,182,44,20,15,056,27,22,07,246,28*73
$GPGSV,3,3,12,25,56,104,43,26,23,304,37,29,73,010,42,31,52,279,34*7C
$GPGLL,4049.56799,N,01413.44883,E,044734.00,A,A*60
$GPGST,044734.00,18,,,,1.1,1.0,2.1*5C
!AIVDM,1,1,,B,13f?cT02h011;5FGG=c6QBm200ST,0*78
!AIVDM,2,1,6,A,57f6DuD27LPpGEG?7G@T<F0h4AV222222222220U2PG34utdN:l;SADQiC32,0*5D
!AIVDM,2,2,6,A,CPH88888880,2*41
$GPRMC,044735.00,A,4049.56799,N,01413.44883,E,0.000,0.00,280722,3.80,E,A*3B
$GPVTG,0.00,T,356.20,M,0.000,N,0.000,K,A*21
$GPGGA,044735.00,4049.56799,N,01413.44883,E,1,11,0.82,10.8,M,41.2,M,,*60
$GPGSA,A,3,31,02,22,20,25,26,05,29,11,12,18,,1.39,0.82,1.12*04
$GPGSV,3,1,12,02,21,043,34,04,00,330,,05,17,092,35,11,09,037,31*7C
$GPGSV,3,2,12,12,17,110,35,18,43,182,44,20,15,056,27,22,07,246,28*70
$GPGSV,3,3,12,25,56,104,44,26,23,304,37,29,73,010,43,31,52,279,35*7B
!AIVDM,1,1,,A,13cVTr0P4wQ1E3nGFW7RbOw608DW,0*28
$GPGLL,4049.56799,N,01413.44883,E,044735.00,A,A*61
$GPGST,044735.00,17,,,,1.1,1.1,2.1*53
$GPRMC,044736.00,A,4049.56799,N,01413.44883,E,0.000,0.00,280722,3.80,E,A*38
$GPVTG,0.00,T,356.20,M,0.000,N,0.000,K,A*21
$GPGGA,044736.00,4049.56799,N,01413.44883,E,1,11,0.84,10.8,M,41.2,M,,*65
$GPGSA,A,3,31,02,22,20,25,26,05,29,11,12,18,,1.41,0.84,1.13*0C
$GPGSV,3,1,12,02,21,043,27,04,00,330,,05,17,092,32,11,09,037,35*7D
$GPGSV,3,2,12,12,17,110,34,18,43,182,44,20,15,056,38,22,07,246,28*7F
$GPGSV,3,3,12,25,56,104,44,26,23,304,37,29,73,010,43,31,52,279,36*78
$GPGLL,4049.56799,N,01413.44883,E,044736.00,A,A*62
$GPGST,044736.00,19,,,,1.1,1.1,2.2*5D
!AIVDM,1,1,,A,13cf8P0P0011D@>GGcmslww:0L23,0*45
!AIVDM,1,1,,A,13=eiH001c11BBVGA6iFRm?40<3M,0*00
$GPRMC,044737.00,A,4049.56799,N,01413.44883,E,0.000,0.00,280722,3.80,E,A*39
$GPVTG,0.00,T,356.20,M,0.000,N,0.000,K,A*21
$GPGGA,044737.00,4049.56799,N,01413.44883,E,1,11,0.82,10.8,M,41.2,M,,*62
$GPGSA,A,3,31,02,22,20,25,26,05,29,11,12,18,,1.39,0.82,1.12*04
$GPGSV,3,1,12,02,21,043,41,04,00,330,,05,17,092,32,11,09,037,35*7D
$GPGSV,3,2,12,12,17,110,34,18,43,182,44,20,15,056,35,22,07,246,28*72
$GPGSV,3,3,12,25,56,104,45,26,23,304,37,29,73,010,42,31,52,279,41*78
$GPGLL,4049.56799,N,01413.44883,E,044737.00,A,A*63
$GPGST,044737.00,14,,,,1.1,1.1,2.2*51
!AIVDM,1,1,,B,13cVTr0P4wQ1E:TGFWIBaOw:0D0i,0*4F
!AIVDM,1,1,,A,ENjOsr@pp?@6a9Qh:94Rab2P0000OPw<=3tD000000N010,4*74
$GPRMC,044738.00,A,4049.56799,N,01413.44883,E,0.000,0.00,280722,3.80,E,A*36
$GPVTG,0.00,T,356.20,M,0.000,N,0.000,K,A*21
$GPGGA,044738.00,4049.56799,N,01413.44883,E,1,11,0.82,10.8,M,41.2,M,,*6D
$GPGSA,A,3,31,02,22,20,25,26,05,29,11,12,18,,1.39,0.82,1.12*04
$GPGSV,3,1,12,02,21,043,39,04,00,330,,05,17,092,34,11,09,037,35*74
$GPGSV,3,2,12,12,17,110,36,18,43,182,43,20,15,056,33,22,07,246,29*70
$GPGSV,3,3,12,25,56,104,45,26,23,304,32,29,73,010,41,31,52,279,38*70
$GPGLL,4049.56799,N,01413.44883,E,044738.00,A,A*6C
$GPGST,044738.00,14,,,,1.1,1.1,2.2*5E
!AIVDM,1,1,,A,13cpIR000011;T2GFwSWija804Rt,0*7B
$GPRMC,044739.00,A,4049.56799,N,01413.44883,E,0.000,0.00,280722,3.80,E,A*37
$GPVTG,0.00,T,356.20,M,0.000,N,0.000,K,A*21
$GPGGA,044739.00,4049.56799,N,01413.44883,E,1,11,0.82,10.8,M,41.2,M,,*6C
$GPGSA,A,3,31,02,22,20,25,26,05,29,11,12,18,,1.39,0.82,1.12*04
!AIVDM,2,1,7,A,555dRj8236?=KA=;B21A8u0QV1LTHF222222221J28A445tAN6CPD3k2H888,0*22
!AIVDM,2,2,7,A,88888888880,2*23
$GPGSV,3,1,12,02,21,043,38,04,00,330,,05,17,092,33,11,09,037,35*72
$GPGSV,3,2,12,12,17,110,36,18,43,182,43,20,15,056,34,22,07,246,30*7F
$GPGSV,3,3,12,25,56,104,44,26,23,304,33,29,73,010,43,31,52,279,27*7C
$GPGLL,4049.56799,N,01413.44883,E,044739.00,A,A*6D
$GPGST,044739.00,18,,,,1.1,1.1,2.1*50
!AIVDM,1,1,,A,13cVTr0P4wQ1EA<GFWcBWww>04Rt,0*70
$GPRMC,044740.00,A,4049.56799,N,01413.44883,E,0.000,0.00,280722,3.80,E,A*39
$GPVTG,0.00,T,356.20,M,0.000,N,0.000,K,A*21
$GPGGA,044740.00,4049.56799,N,01413.44883,E,1,11,0.82,10.8,M,41.2,M,,*62
$GPGSA,A,3,31,02,22,20,25,26,05,29,11,12,18,,1.39,0.82,1.12*04
$GPGSV,3,1,12,02,21,043,40,04,00,330,,05,17,092,32,11,09,037,35*7C
$GPGSV,3,2,12,12,17,110,33,18,43,182,44,20,15,056,34,22,07,246,24*78
$GPGSV,3,3,12,25,56,104,44,26,23,304,38,29,73,010,42,31,52,279,33*73
$GPGLL,4049.56799,N,01413.44883,E,044740.00,A,A*63
$GPGST,044740.00,18,,,,1.1,1.1,2.1*5E
$GPRMC,044741.00,A,4049.56799,N,01413.44883,E,0.000,0.00,280722,3.80,E,A*38
$GPVTG,0.00,T,356.20,M,0.000,N,0.000,K,A*21
$GPGGA,044741.00,4049.56799,N,01413.44883,E,1,11,0.82,10.8,M,41.2,M,,*63
!AIVDM,1,1,,A,13cc0q3P00Q1C9dGGf02Ngw@0<2:,0*06
$GPGSA,A,3,31,02,22,20,25,26,05,29,11,12,18,,1.39,0.82,1.12*04
$GPGSV,3,1,12,02,21,043,40,04,00,330,,05,17,092,31,11,09,037,35*7F
$GPGSV,3,2,12,12,17,110,32,18,43,182,44,20,15,056,35,22,07,246,23*7F
$GPGSV,3,3,12,25,56,104,44,26,23,304,38,29,73,010,42,31,52,279,33*73
$GPGLL,4049.56799,N,01413.44883,E,044741.00,A,A*62
!AIVDM,1,1,,B,13cVTr0P4wQ1EGpGFWujVgwB08H8,0*30
$GPGST,044741.00,19,,,,1.1,1.1,2.1*5E
!AIVDM,1,1,,A,402FhOQvIv4ga11BePGGgg7008H?,0*54
!AIVDM,1,1,,A,13cVaV0P2711D8hGDiWP??w@0<2s,0*40
!AIVDM,1,1,,A,13dm>P0P0011;r<GG72>4?wB0D1=,0*2B
!AIVDM,1,1,,A,H3IOnt0T60u84p61T<580000000,2*7A
$GPRMC,044742.00,A,4049.56799,N,01413.44883,E,0.000,0.00,280722,3.80,E,A*3B
$GPVTG,0.00,T,356.20,M,0.000,N,0.000,K,A*21
$GPGGA,044742.00,4049.56799,N,01413.44883,E,1,11,0.82,10.8,M,41.2,M,,*60
$GPGSA,A,3,31,02,22,20,25,26,05,29,11,12,18,,1.39,0.82,1.12*04
$GPGSV,3,1,12,02,21,043,40,04,00,330,,05,17,092,31,11,09,037,35*7F
$GPGSV,3,2,12,12,17,110,32,18,43,182,44,20,15,056,35,22,07,246,23*7F
$GPGSV,3,3,12,25,56,104,44,26,23,304,39,29,73,010,42,31,52,279,34*75
$GPGLL,4049.56799,N,01413.44883,E,044742.00,A,A*61
$GPGST,044742.00,18,,,,1.0,1.1,2.1*5D
$GPRMC,044743.00,A,4049.56799,N,01413.44883,E,0.000,0.00,280722,3.80,E,A*3A
$GPVTG,0.00,T,356.20,M,0.000,N,0.000,K,A*21
$GPGGA,044743.00,4049.56799,N,01413.44883,E,1,11,0.82,10.8,M,41.2,M,,*61
$GPGSA,A,3,31,02,22,20,25,26,05,29,11,12,18,,1.39,0.82,1.12*04
$GPGSV,3,1,12,02,21,043,40,04,00,330,,05,17,092,30,11,09,037,35*7E
$GPGSV,3,2,12,12,17,110,31,18,43,182,44,20,15,056,35,22,07,246,24*7B
$GPGSV,3,3,12,25,56,104,44,26,23,304,39,29,73,010,42,31,52,279,34*75
$GPGLL,4049.56799,N,01413.44883,E,044743.00,A,A*60
$GPGST,044743.00,18,,,,1.0,1.1,2.1*5C
!AIVDM,1,1,,A,13cVTr0P4wQ1ENPGF`@BUgwF0D0i,0*62
!AIVDM,1,1,,A,13f?cT0uh011;5JGG=bFQBkD00SQ,0*34
$GPRMC,044744.00,A,4049.56799,N,01413.44883,E,0.000,0.00,280722,3.80,E,A*3D
$GPVTG,0.00,T,356.20,M,0.000,N,0.000,K,A*21
$GPGGA,044744.00,4049.56799,N,01413.44883,E,1,11,0.82,10.8,M,41.2,M,,*66
$GPGSA,A,3,31,02,22,20,25,26,05,29,11,12,18,,1.39,0.82,1.12*04
$GPGSV,3,1,12,02,21,043,40,04,00,330,,05,17,092,30,11,09,037,35*7E
$GPGSV,3,2,12,12,17,110,31,18,43,182,44,20,15,056,36,22,07,246,23*7F
$GPGSV,3,3,12,25,56,104,44,26,23,304,38,29,73,010,42,31,52,279,34*74
$GPGLL,4049.56799,N,01413.44883,E,044744.00,A,A*67
$GPGST,044744.00,19,,,,1.0,1.1,2.1*5A
$GPRMC,044745.00,A,4049.56799,N,01413.44883,E,0.000,0.00,280722,3.80,E,A*3C
$GPVTG,0.00,T,356.20,M,0.000,N,0.000,K,A*21
$GPGGA,044745.00,4049.56799,N,01413.44883,E,1,11,0.82,10.8,M,41.2,M,,*67
!AIVDM,1,1,,B,13cVTr0P4wQ1EU6GF`S2TOwJ04Rt,0*55
$GPGSA,A,3,31,02,22,20,25,26,05,29,11,12,18,,1.39,0.82,1.12*04
$GPGSV,3,1,12,02,21,043,40,04,00,330,,05,17,092,31,11,09,037,35*7F
$GPGSV,3,2,12,12,17,110,31,18,43,182,44,20,15,056,36,22,07,246,22*7E
$GPGSV,3,3,12,25,56,104,44,26,23,304,38,29,73,010,42,31,52,279,34*74
$GPGLL,4049.56799,N,01413.44883,E,044745.00,A,A*66
$GPGST,044745.00,19,,,,1.0,1.1,2.1*5B
!AIVDM,1,1,,A,13cvGu0000Q1C9jGGgPRS;;H0HJh,0*57
$GPRMC,044746.00,A,4049.56799,N,01413.44883,E,0.000,0.00,280722,3.80,E,A*3F
$GPVTG,0.00,T,356.20,M,0.000,N,0.000,K,A*21
$GPGGA,044746.00,4049.56799,N,01413.44883,E,1,11,0.82,10.8,M,41.2,M,,*64
$GPGSA,A,3,31,02,22,20,25,26,05,29,11,12,18,,1.39,0.82,1.12*04
$GPGSV,3,1,12,02,21,043,42,04,00,330,,05,17,092,34,11,09,037,36*7B
$GPGSV,3,2,12,12,17,110,26,18,43,182,42,20,15,056,36,22,07,246,22*7E
$GPGSV,3,3,12,25,56,104,43,26,23,304,38,29,73,010,41,31,52,279,34*70
$GPGLL,4049.56799,N,01413.44883,E,044746.00,A,A*65
$GPGST,044746.00,21,,,,1.0,1.1,2.1*53
!AIVDM,1,1,,B,13cf8P0P0111D@LGGcp;fOwN08KK,0*53
$GPRMC,044747.00,A,4049.56799,N,01413.44883,E,0.000,0.00,280722,3.80,E,A*3E
$GPVTG,0.00,T,356.20,M,0.000,N,0.000,K,A*21
$GPGGA,044747.00,4049.56799,N,01413.44883,E,1,11,0.82,10.8,M,41.2,M,,*65
!AIVDM,1,1,,A,13cVTr0P4wQ1EcdGF`nRSOwN0@KV,0*23
$GPGSA,A,3,31,02,22,20,25,26,05,29,11,12,18,,1.39,0.82,1.12*04
$GPGSV,3,1,12,02,21,043,41,04,00,330,,05,17,092,34,11,09,037,36*78
$GPGSV,3,2,12,12,17,110,28,18,43,182,43,20,15,056,36,22,07,246,21*72
$GPGSV,3,3,12,25,56,104,44,26,23,304,38,29,73,010,41,31,52,279,35*76
$GPGLL,4049.56799,N,01413.44883,E,044747.00,A,A*64
$GPGST,044747.00,25,,,,1.0,1.1,2.1*56
$GPRMC,044748.00,A,4049.56799,N,01413.44883,E,0.000,0.00,280722,3.80,E,A*31
$GPVTG,0.00,T,356.20,M,0.000,N,0.000,K,A*21
$GPGGA,044748.00,4049.56799,N,01413.44883,E,1,11,0.82,10.8,M,41.2,M,,*6A
$GPGSA,A,3,31,02,22,20,25,26,05,29,11,12,18,,1.39,0.82,1.12*04
$GPGSV,3,1,12,02,21,043,39,04,00,330,,05,17,092,37,11,09,037,36*74
$GPGSV,3,2,12,12,17,110,33,18,43,182,40,20,15,056,30,22,07,246,21*7D
$GPGSV,3,3,12,25,56,104,43,26,23,304,36,29,73,010,40,31,52,279,40*7C
$GPGLL,4049.56799,N,01413.44883,E,044748.00,A,A*6B
$GPGST,044748.00,19,,,,1.0,1.1,2.1*56
$GPRMC,044749.00,A,4049.56799,N,01413.44883,E,0.000,0.00,280722,3.80,E,A*30
$GPVTG,0.00,T,356.20,M,0.000,N,0.000,K,A*21
$GPGGA,044749.00,4049.56799,N,01413.44883,E,1,11,0.82,10.8,M,41.2,M,,*6B
!AIVDM,1,1,,B,14hFF40000117KFGG7TUUrEN0l0s,0*43
$GPGSA,A,3,31,02,22,20,25,26,05,29,11,12,18,,1.39,0.82,1.12*04
$GPGSV,3,1,12,02,21,043,39,04,00,330,,05,17,092,37,11,09,037,35*77
$GPGSV,3,2,12,12,17,110,33,18,43,182,42,20,15,056,34,22,07,246,20*7A
$GPGSV,3,3,12,25,56,104,45,26,23,304,35,29,73,010,39,31,52,279,36*76
$GPGLL,4049.56799,N,01413.44883,E,044749.00,A,A*6A
$GPGST,044749.00,24,,,,1.0,1.1,2.1*59
!AIVDM,1,1,,B,13cVTr0P4vQ1Ej<GFa:BQwwR0@Lp,0*32
!AIVDM,2,1,8,A,53f?cT42Am3CTSWGG80h4AV0Tr08iDD00000000U2PE4465fN7H000000000,0*5D
!AIVDM,2,2,8,A,00000000000,2*2C
!AIVDM,1,1,,B,13cpIR000011;T2GFwSWkBaP0HM@,0*6D
$GPRMC,044750.00,A,4049.56799,N,01413.44883,E,0.000,0.00,280722,3.80,E,A*38
$GPVTG,0.00,T,356.20,M,0.000,N,0.000,K,A*21
$GPGGA,044750.00,4049.56799,N,01413.44883,E,1,11,0.82,10.8,M,41.2,M,,*63
$GPGSA,A,3,31,02,22,20,25,26,05,29,11,12,18,,1.39,0.82,1.12*04
$GPGSV,3,1,12,02,21,043,38,04,00,330,,05,17,092,36,11,09,037,34*76
$GPGSV,3,2,12,12,17,110,30,18,43,182,43,20,15,056,32,22,07,246,23*7D
$GPGSV,3,3,12,25,56,104,43,26,23,304,35,29,73,010,42,31,52,279,38*72
$GPGLL,4049.56799,N,01413.44883,E,044750.00,A,A*62
$GPGST,044750.00,18,,,,1.0,1.1,2.1*5E
$GPRMC,044751.00,A,4049.56799,N,01413.44883,E,0.000,0.00,280722,3.80,E,A*39
$GPVTG,0.00,T,356.20,M,0.000,N,0.000,K,A*21
$GPGGA,044751.00,4049.56799,N,01413.44883,E,1,11,0.82,10.8,M,41.2,M,,*62
$GPGSA,A,3,31,02,22,20,25,26,05,29,11,12,18,,1.39,0.82,1.12*04
$GPGSV,3,1,12,02,21,043,40,04,00,330,,05,17,092,35,11,09,037,34*7A
$GPGSV,3,2,12,12,17,110,31,18,43,182,43,20,15,056,35,22,07,246,25*7D
$GPGSV,3,3,12,25,56,104,44,26,23,304,34,29,73,010,42,31,52,279,37*7B
$GPGLL,4049.56799,N,01413.44883,E,044751.00,A,A*63
$GPGST,044751.00,16,,,,1.0,1.1,2.1*51
!AIVDM,1,1,,A,13cVTr0P4vQ1Ep`GFaO2OwwV0<0i,0*71
!AIVDM,1,1,,B,13dm>P0P0011;r<GG72>4?wV0<1>,0*47
$GPRMC,044752.00,A,4049.56799,N,01413.44883,E,0.000,0.00,280722,3.80,E,A*3A
$GPVTG,0.00,T,356.20,M,0.000,N,0.000,K,A*21
$GPGGA,044752.00,4049.56799,N,01413.44883,E,1,11,0.82,10.8,M,41.2,M,,*61
$GPGSA,A,3,31,02,22,20,25,26,05,29,11,12,18,,1.39,0.82,1.12*04
$GPGSV,3,1,12,02,21,043,40,04,00,330,,05,17,092,34,11,09,037,34*7B
$GPGSV,3,2,12,12,17,110,31,18,43,182,43,20,15,056,35,22,07,246,26*7E
$GPGSV,3,3,12,25,56,104,44,26,23,304,34,29,73,010,42,31,52,279,37*7B
$GPGLL,4049.56799,N,01413.44883,E,044752.00,A,A*60
$GPGST,044752.00,16,,,,1.0,1.1,2.1*52
$GPRMC,044753.00,A,4049.56799,N,01413.44883,E,0.000,0.00,280722,3.80,E,A*3B
$GPVTG,0.00,T,356.20,M,0.000,N,0.000,K,A*21
$GPGGA,044753.00,4049.56799,N,01413.44883,E,1,11,0.82,10.8,M,41.2,M,,*60
$GPGSA,A,3,31,02,22,20,25,26,05,29,11,12,18,,1.39,0.82,1.12*04
$GPGSV,3,1,12,02,21,043,40,04,00,330,,05,17,092,34,11,09,037,34*7B
$GPGSV,3,2,12,12,17,110,31,18,43,182,43,20,15,056,35,22,07,246,25*7D
$GPGSV,3,3,12,25,56,104,44,26,23,304,34,29,73,010,41,31,52,279,37*78
$GPGLL,4049.56799,N,01413.44883,E,044753.00,A,A*61
$GPGST,044753.00,17,,,,1.0,1.1,2.1*52
!AIVDM,1,1,,B,13cVTr0P4wQ1Ew6GFal2N?wb0@O;,0*2D
$GPRMC,044754.00,A,4049.56799,N,01413.44883,E,0.000,0.00,280722,3.80,E,A*3C
$GPVTG,0.00,T,356.20,M,0.000,N,0.000,K,A*21
$GPGGA,044754.00,4049.56799,N,01413.44883,E,1,11,0.82,10.8,M,41.2,M,,*67
$GPGSA,A,3,31,02,22,20,25,26,05,29,11,12,18,,1.39,0.82,1.12*04
$GPGSV,3,1,12,02,21,043,40,04,00,330,,05,17,092,34,11,09,037,34*7B
$GPGSV,3,2,12,12,17,110,31,18,43,182,43,20,15,056,35,22,07,246,26*7E
$GPGSV,3,3,12,25,56,104,44,26,23,304,34,29,73,010,41,31,52,279,37*78
$GPGLL,4049.56799,N,01413.44883,E,044754.00,A,A*66
$GPGST,044754.00,16,,,,1.0,1.1,2.1*54
$GPRMC,044755.00,A,4049.56799,N,01413.44883,E,0.000,0.00,280722,3.80,E,A*3D
$GPVTG,0.00,T,356.20,M,0.000,N,0.000,K,A*21
$GPGGA,044755.00,4049.56799,N,01413.44883,E,1,11,0.82,10.8,M,41.2,M,,*66
$GPGSA,A,3,31,02,22,20,25,26,05,29,11,12,18,,1.39,0.82,1.12*04
$GPGSV,3,1,12,02,21,043,40,04,00,330,,05,17,092,34,11,09,037,34*7B
!AIVDM,1,1,,A,13=eiH001c11BGTGA4TnRm=b0@PD,0*52
$GPGSV,3,2,12,12,17,110,30,18,43,182,43,20,15,056,35,22,07,246,26*7F
$GPGSV,3,3,12,25,56,104,44,26,23,304,34,29,73,010,41,31,52,279,36*79
$GPGLL,4049.56799,N,01413.44883,E,044755.00,A,A*67
$GPGST,044755.00,16,,,,1.0,1.1,2.1*55
!AIVDM,1,1,,A,19NScG0005116wrGAKbFR:op0`PH,0*77
!AIVDM,1,1,,A,13cVTr0P4wQ1F5RGFb9BLwwf0<0i,0*32
!AIVDM,1,1,,B,13f?cT0u@011;5LGG=anQBkd0@PV,0*66
$GPRMC,044756.00,A,4049.56799,N,01413.44883,E,0.000,0.00,280722,3.80,E,A*3E
$GPVTG,0.00,T,356.20,M,0.000,N,0.000,K,A*21
$GPGGA,044756.00,4049.56799,N,01413.44883,E,1,11,0.82,10.8,M,41.2,M,,*65
$GPGSA,A,3,31,02,22,20,25,26,05,29,11,12,18,,1.39,0.82,1.12*04
$GPGSV,3,1,12,02,21,043,40,04,00,330,,05,17,092,34,11,09,037,34*7B
$GPGSV,3,2,12,12,17,110,30,18,43,182,43,20,15,056,35,22,07,246,26*7F
$GPGSV,3,3,12,25,56,104,44,26,23,304,34,29,73,010,41,31,52,279,36*79
!AIVDM,1,1,,A,13cf8P0P0011D@NGGcp;bgwh08Pr,0*7B
$GPGLL,4049.56799,N,01413.44883,E,044756.00,A,A*64
$GPGST,044756.00,16,,,,1.0,1.1,2.1*56
$GPRMC,044757.00,A,4049.56799,N,01413.44883,E,0.000,0.00,280722,3.80,E,A*3F
$GPVTG,0.00,T,356.20,M,0.000,N,0.000,K,A*21
$GPGGA,044757.00,4049.56799,N,01413.44883,E,1,11,0.82,10.8,M,41.2,M,,*64
$GPGSA,A,3,31,02,22,20,25,26,05,29,11,12,18,,1.39,0.82,1.12*04
$GPGSV,3,1,12,02,21,043,39,04,00,330,,05,17,092,37,11,09,037,35*77
$GPGSV,3,2,12,12,17,110,33,18,43,182,40,20,15,056,34,22,07,246,26*7E
$GPGSV,3,3,12,25,56,104,43,26,23,304,35,29,73,010,41,31,52,279,37*7E
$GPGLL,4049.56799,N,01413.44883,E,044757.00,A,A*65
$GPGST,044757.00,14,,,,1.0,1.1,2.1*55
!AIVDM,1,1,,B,13cVTr0P4wQ1F;vGFbNRKwwj0@QQ,0*52
!AIVDM,1,1,,B,33P=9L5P00117IhGG74P0?wh0Dlr,0*67
$GPRMC,044758.00,A,4049.56799,N,01413.44883,E,0.000,0.00,280722,3.80,E,A*30
$GPVTG,0.00,T,356.20,M,0.000,N,0.000,K,A*21
$GPGGA,044758.00,4049.56799,N,01413.44883,E,1,11,0.82,10.8,M,41.2,M,,*6B
$GPGSA,A,3,31,02,22,20,25,26,05,29,11,12,18,,1.39,0.82,1.12*04
$GPGSV,3,1,12,02,21,043,40,04,00,330,,05,17,092,33,11,09,037,37*7F
$GPGSV,3,2,12,12,17,110,33,18,43,182,44,20,15,056,35,22,07,246,27*7A
$GPGSV,3,3,12,25,56,104,45,26,23,304,35,29,73,010,42,31,52,279,38*74
$GPGLL,4049.56799,N,01413.44883,E,044758.00,A,A*6A
$GPGST,044758.00,14,,,,1.0,1.1,2.1*5A
!AIVDM,2,1,9,A,53cvGu02>=RDT<4v2221<:0HhDM8D6222222221I8`D775rW0:3PD3k2H888,0*15
!AIVDM,2,2,9,A,88888888880,2*2D
$GPRMC,044759.00,A,4049.56799,N,01413.44883,E,0.000,0.00,280722,3.80,E,A*31
$GPVTG,0.00,T,356.20,M,0.000,N,0.000,K,A*21
$GPGGA,044759.00,4049.56799,N,01413.44883,E,1,11,0.82,10.8,M,41.2,M,,*6A
!AIVDM,1,1,,A,13cpIR000011;T2GFwSWv2aj00SB,0*5D
$GPGSA,A,3,31,02,22,20,25,26,05,29,11,12,18,,1.39,0.82,1.12*04
$GPGSV,3,1,12,02,21,043,39,04,00,330,,05,17,092,34,11,09,037,37*76
$GPGSV,3,2,12,12,17,110,31,18,43,182,46,20,15,056,34,22,07,246,27*7B
$GPGSV,3,3,12,25,56,104,46,26,23,304,34,29,73,010,40,31,52,279,36*7A
$GPGLL,4049.56799,N,01413.44883,E,044759.00,A,A*6B
$GPGST,044759.00,16,,,,1.0,1.1,2.1*59
!AIVDM,1,1,,A,13cVTr0P4wQ1FBDGFblRJOwn04Rt,0*57
!AIVDM,1,1,,B,33lPw:5000117LBGG7gEvbB00lUr,0*60
!AIVDM,1,1,,A,14hFF40000117KFGG7TWFbEj0PSd,0*2D
$GPRMC,044800.00,A,4049.56799,N,01413.44883,E,0.000,0.00,280722,3.80,E,A*32
$GPVTG,0.00,T,356.20,M,0.000,N,0.000,K,A*21
$GPGGA,044800.00,4049.56799,N,01413.44883,E,1,11,0.82,10.8,M,41.2,M,,*69
$GPGSA,A,3,31,02,22,20,25,26,05,29,11,12,18,,1.39,0.82,1.12*04
$GPGSV,3,1,12,02,21,043,39,04,00,330,,05,17,092,34,11,09,037,37*76
$GPGSV,3,2,12,12,17,110,32,18,43,182,45,20,15,056,33,22,07,246,28*73
$GPGSV,3,3,12,25,56,104,46,26,23,304,33,29,73,010,39,31,52,279,36*73
$GPGLL,4049.56799,N,01413.44883,E,044800.00,A,A*68
$GPGST,044800.00,15,,,,1.0,1.1,2.1*59
!AIVDM,1,1,,B,H3HP;e105A8T4>LP00000000000,2*25
$GPRMC,044801.00,A,4049.56799,N,01413.44883,E,0.000,0.00,280722,3.80,E,A*33
$GPVTG,0.00,T,356.20,M,0.000,N,0.000,K,A*21
$GPGGA,044801.00,4049.56799,N,01413.44883,E,1,11,0.82,10.8,M,41.2,M,,*68
$GPGSA,A,3,31,02,22,20,25,26,05,29,11,12,18,,1.39,0.82,1.12*04
!AIVDM,1,1,,A,13dm>P0P0111;r<GG72>4?v20H0b,0*09
$GPGSV,3,1,12,02,21,043,39,04,00,330,,05,17,092,34,11,09,037,37*76
$GPGSV,3,2,12,12,17,110,33,18,43,182,45,20,15,056,33,22,07,246,29*73
$GPGSV,3,3,12,25,56,104,46,26,23,304,32,29,73,010,39,31,52,279,37*73
$GPGLL,4049.56799,N,01413.44883,E,044801.00,A,A*69
$GPGST,044801.00,15,,,,1.0,1.1,2.1*58
$GPRMC,044802.00,A,4049.56799,N,01413.44883,E,0.000,0.00,280722,3.80,E,A*30
$GPVTG,0.00,T,356.20,M,0.000,N,0.000,K,A*21
$GPGGA,044802.00,4049.56799,N,01413.44883,E,1,11,0.82,10.8,M,41.2,M,,*6B
$GPGSA,A,3,31,02,22,20,25,26,05,29,11,12,18,,1.39,0.82,1.12*04
$GPGSV,3,1,12,02,21,043,39,04,00,330,,05,17,092,34,11,09,037,37*76
$GPGSV,3,2,12,12,17,110,32,18,43,182,45,20,15,056,33,22,07,246,30*7A
$GPGSV,3,3,12,25,56,104,46,26,23,304,33,29,73,010,39,31,52,279,37*72
$GPGLL,4049.56799,N,01413.44883,E,044802.00,A,A*6A
$GPGST,044802.00,14,,,,1.0,1.1,2.1*5A
$GPRMC,044803.00,A,4049.56799,N,01413.44883,E,0.000,0.00,280722,3.80,E,A*31
$GPVTG,0.00,T,356.20,M,0.000,N,0.000,K,A*21
$GPGGA,044803.00,4049.56799,N,01413.44883,E,1,11,0.82,10.8,M,41.2,M,,*6A
$GPGSA,A,3,31,02,22,20,25,26,05,29,11,12,18,,1.39,0.82,1.12*04
$GPGSV,3,1,12,02,21,043,39,04,00,330,,05,17,092,33,11,09,037,37*71
$GPGSV,3,2,12,12,17,110,31,18,43,182,45,20,15,056,33,22,07,246,29*71
$GPGSV,3,3,12,25,56,104,46,26,23,304,33,29,73,010,39,31,52,279,36*73
!AIVDM,1,1,,A,13cVTr0P50Q1FO:GFcPjHgv600S<,0*59
$GPGLL,4049.56799,N,01413.44883,E,044803.00,A,A*6B
$GPGST,044803.00,15,,,,1.0,1.1,2.1*5A
$GPRMC,044804.00,A,4049.56799,N,01413.44883,E,0.000,0.00,280722,3.80,E,A*36
$GPVTG,0.00,T,356.20,M,0.000,N,0.000,K,A*21
$GPGGA,044804.00,4049.56799,N,01413.44883,E,1,11,0.82,10.8,M,41.2,M,,*6D
$GPGSA,A,3,31,02,22,20,25,26,05,29,11,12,18,,1.39,0.82,1.12*04
$GPGSV,3,1,12,02,21,043,39,04,00,330,,05,17,092,34,11,09,037,36*77
$GPGSV,3,2,12,12,17,110,30,18,43,182,45,20,15,056,34,22,07,246,30*7F
$GPGSV,3,3,12,25,56,104,46,26,23,304,34,29,73,010,39,31,52,279,36*74
$GPGLL,4049.56799,N,01413.44883,E,044804.00,A,A*6C
$GPGST,044804.00,15,,,,1.0,1.2,2.1*5E
!AIVDM,1,1,,A,13f?cT0t@011;5PGG=anQBh604S0,0*38
$GPRMC,044805.00,A,4049.56799,N,01413.44883,E,0.000,0.00,280722,3.80,E,A*37
$GPVTG,0.00,T,356.20,M,0.000,N,0.000,K,A*21
$GPGGA,044805.00,4049.56799,N,01413.44883,E,1,11,0.82,10.8,M,41.2,M,,*6C
$GPGSA,A,3,31,02,22,20,25,26,05,29,11,12,18,,1.39,0.82,1.12*04
$GPGSV,3,1,12,02,21,043,38,04,00,330,,05,17,092,33,11,09,037,36*71
$GPGSV,3,2,12,12,17,110,30,18,43,182,45,20,15,056,34,22,07,246,30*7F
$GPGSV,3,3,12,25,56,104,46,26,23,304,33,29,73,010,39,31,52,279,36*73
!AIVDM,1,1,,B,13cVTr0P51Q1FU`GFcnRHgv:0@32,0*0F
$GPGLL,4049.56799,N,01413.44883,E,044805.00,A,A*6D
$GPGST,044805.00,16,,,,1.0,1.2,2.1*5C
$GPRMC,044806.00,A,4049.56799,N,01413.44883,E,0.000,0.00,280722,3.80,E,A*34
$GPVTG,0.00,T,356.20,M,0.000,N,0.000,K,A*21
$GPGGA,044806.00,4049.56799,N,01413.44883,E,1,11,0.82,10.8,M,41.2,M,,*6F
$GPGSA,A,3,31,02,22,20,25,26,05,29,11,12,18,,1.39,0.82,1.12*04
$GPGSV,3,1,12,02,21,043,38,04,00,330,,05,17,092,34,11,09,037,36*76
$GPGSV,3,2,12,12,17,110,29,18,43,182,45,20,15,056,34,22,07,246,30*77
$GPGSV,3,3,12,25,56,104,46,26,23,304,33,29,73,010,39,31,52,279,36*73
$GPGLL,4049.56799,N,01413.44883,E,044806.00,A,A*6E
$GPGST,044806.00,16,,,,1.0,1.2,2.2*5C
$GPRMC,044807.00,A,4049.56799,N,01413.44883,E,0.000,0.00,280722,3.80,E,A*35
$GPVTG,0.00,T,356.20,M,0.000,N,0.000,K,A*21
$GPGGA,044807.00,4049.56799,N,01413.44883,E,1,11,0.82,10.8,M,41.2,M,,*6E
$GPGSA,A,3,31,02,22,20,25,26,05,29,11,12,18,,1.39,0.82,1.12*04
!AIVDM,1,1,,A,13cVTr0P51Q1Fd6GFd<BHgv>04S0,0*3C
$GPGSV,3,1,12,02,21,043,38,04,00,330,,05,17,092,34,11,09,037,36*76
$GPGSV,3,2,12,12,17,110,28,18,43,182,45,20,15,056,34,22,07,246,30*76
$GPGSV,3,3,12,25,56,104,46,26,23,304,33,29,73,010,39,31,52,279,35*70
$GPGLL,4049.56799,N,01413.44883,E,044807.00,A,A*6F
$GPGST,044807.00,16,,,,1.0,1.2,2.2*5D
$GPRMC,044808.00,A,4049.56799,N,01413.44883,E,0.000,0.00,280722,3.80,E,A*3A
$GPVTG,0.00,T,356.20,M,0.000,N,0.000,K,A*21
$GPGGA,044808.00,4049.56799,N,01413.44883,E,1,11,0.82,10.8,M,41.2,M,,*61
$GPGSA,A,3,31,02,22,20,25,26,05,29,11,12,18,,1.39,0.82,1.12*04
$GPGSV,3,1,12,02,21,043,38,04,00,330,,05,17,092,34,11,09,037,36*76
$GPGSV,3,2,12,12,17,110,28,18,43,182,45,20,15,056,34,22,07,246,30*76
$GPGSV,3,3,12,25,56,104,46,26,23,304,33,29,73,010,39,31,52,279,35*70
$GPGLL,4049.56799,N,01413.44883,E,044808.00,A,A*60
$GPGST,044808.00,16,,,,1.0,1.2,2.2*52
$GPRMC,044809.00,A,4049.56799,N,01413.44883,E,0.000,0.00,280722,3.80,E,A*3B
$GPVTG,0.00,T,356.20,M,0.000,N,0.000,K,A*21
$GPGGA,044809.00,4049.56799,N,01413.44883,E,1,11,0.82,10.8,M,41.2,M,,*60
!AIVDM,1,1,,B,13cVTr0P52Q1FjRGFdRBHOvB0<0i,0*5E
$GPGSA,A,3,31,02,22,20,25,26,05,29,11,12,18,,1.39,0.82,1.12*04
$GPGSV,3,1,12,02,21,043,36,04,00,330,,05,17,092,38,11,09,037,36*74
$GPGSV,3,2,12,12,17,110,30,18,43,182,41,20,15,056,34,22,07,246,29*73
$GPGSV,3,3,12,25,56,104,46,26,23,304,33,29,73,010,38,31,52,279,30*74
$GPGLL,4049.56799,N,01413.44883,E,044809.00,A,A*61
$GPGST,044809.00,18,,,,1.1,1.2,2.2*5C
!AIVDM,1,1,,B,13cpIR000011;T2GFwSWr2b>0<20,0*12
$GPRMC,044810.00,A,4049.56799,N,01413.44883,E,0.000,0.00,280722,3.80,E,A*33
$GPVTG,0.00,T,356.20,M,0.000,N,0.000,K,A*21
$GPGGA,044810.00,4049.56799,N,01413.44883,E,1,11,0.82,10.8,M,41.2,M,,*68
$GPGSA,A,3,31,02,22,20,25,26,05,29,11,12,18,,1.38,0.82,1.12*05
$GPGSV,3,1,12,02,21,043,36,04,00,330,,05,17,092,39,11,09,037,36*75
$GPGSV,3,2,12,12,17,110,26,18,43,182,40,20,15,056,33,22,07,246,29*72
$GPGSV,3,3,12,25,56,104,44,26,23,304,33,29,73,010,38,31,52,279,37*71
$GPGLL,4049.56799,N,01413.44883,E,044810.00,A,A*69
$GPGST,044810.00,17,,,,1.1,1.2,2.2*5B
$GPRMC,044811.00,A,4049.56799,N,01413.44883,E,0.000,0.00,280722,3.80,E,A*32
$GPVTG,0.00,T,356.20,M,0.000,N,0.000,K,A*21
$GPGGA,044811.00,4049.56799,N,01413.44883,E,1,11,0.82,10.8,M,41.2,M,,*69
$GPGSA,A,3,31,02,22,20,25,26,05,29,11,12,18,,1.38,0.82,1.12*05
$GPGSV,3,1,12,02,21,043,39,04,00,330,,05,17,092,35,11,09,037,34*74
$GPGSV,3,2,12,12,17,110,24,18,43,182,43,20,15,056,34,22,07,246,29*74
!AIVDM,1,1,,A,13cVTr0P52Q1FprGFdpjGgvF0@6R,0*0F
$GPGSV,3,3,12,25,56,104,44,26,23,304,32,29,73,010,41,31,52,279,36*7F
$GPGLL,4049.56799,N,01413.44883,E,044811.00,A,A*68
$GPGST,044811.00,19,,,,1.1,1.2,2.2*54
!AIVDM,1,1,,B,H3HP;e4TC=D6d7E6;G<0002p0050,0*63
!AIVDM,1,1,,B,33dm>P0P0111;r<GG72>4?vF0CA3,0*57
$GPRMC,044812.00,A,4049.56799,N,01413.44883,E,0.000,0.00,280722,3.80,E,A*31
$GPVTG,0.00,T,356.20,M,0.000,N,0.000,K,A*21
$GPGGA,044812.00,4049.56799,N,01413.44883,E,1,10,0.91,10.8,M,41.2,M,,*69
$GPGSA,A,3,31,02,22,20,25,26,05,29,11,18,,,1.47,0.91,1.16*08
$GPGSV,3,1,12,02,21,043,39,04,00,329,,05,17,092,34,11,09,037,34*7D
$GPGSV,3,2,12,12,17,110,,18,43,182,43,20,15,056,36,22,07,246,30*78
$GPGSV,3,3,12,25,56,104,44,26,23,304,32,29,73,010,40,31,52,279,36*7E
$GPGLL,4049.56799,N,01413.44883,E,044812.00,A,A*6B
$GPGST,044812.00,13,,,,1.1,1.2,2.2*5D
$GPRMC,044813.00,A,4049.56799,N,01413.44883,E,0.000,0.00,280722,3.80,E,A*30
$GPVTG,0.00,T,356.20,M,0.000,N,0.000,K,A*21
$GPGGA,044813.00,4049.56799,N,01413.44883,E,1,11,0.91,10.8,M,41.2,M,,*69
$GPGSA,A,3,31,02,22,20,25,26,05,29,11,12,18,,1.47,0.91,1.16*0B
$GPGSV,3,1,12,02,21,043,39,04,00,329,,05,17,091,34,11,09,037,34*7E
$GPGSV,3,2,12,12,17,110,24,18,43,182,44,20,15,056,36,22,07,246,30*79
$GPGSV,3,3,12,25,56,104,44,26,23,304,32,29,73,010,40,31,52,279,36*7E
$GPGLL,4049.56799,N,01413.44883,E,044813.00,A,A*6A
$GPGST,044813.00,13,,,,1.1,1.2,2.2*5C
!AIVDM,1,1,,B,13f?cT0v@011;5TGG=bFQBfH04S0,0*66
$GPRMC,044814.00,A,4049.56799,N,01413.44883,E,0.000,0.00,280722,3.80,E,A*37
$GPVTG,0.00,T,356.20,M,0.000,N,0.000,K,A*21
$GPGGA,044814.00,4049.56799,N,01413.44883,E,1,11,0.82,10.8,M,41.2,M,,*6C
$GPGSA,A,3,31,02,22,20,25,26,05,29,11,12,18,,1.38,0.82,1.12*05
$GPGSV,3,1,12,02,21,043,39,04,00,329,,05,17,091,34,11,09,037,34*7E
$GPGSV,3,2,12,12,17,110,25,18,43,182,43,20,15,056,36,22,07,246,29*77
$GPGSV,3,3,12,25,56,104,44,26,23,304,32,29,73,010,40,31,52,279,36*7E
$GPGLL,4049.56799,N,01413.44883,E,044814.00,A,A*6D
$GPGST,044814.00,19,,,,1.1,1.2,2.2*51
$GPRMC,044815.00,A,4049.56799,N,01413.44883,E,0.000,0.00,280722,3.80,E,A*36
$GPVTG,0.00,T,356.20,M,0.000,N,0.000,K,A*21
$GPGGA,044815.00,4049.56799,N,01413.44883,E,1,11,0.82,10.8,M,41.2,M,,*6D
$GPGSA,A,3,31,02,22,20,25,26,05,29,11,12,18,,1.38,0.82,1.12*05
$GPGSV,3,1,12,02,21,043,39,04,00,329,,05,17,091,34,11,09,037,34*7E
$GPGSV,3,2,12,12,17,110,24,18,43,182,43,20,15,056,35,22,07,246,29*75
$GPGSV,3,3,12,25,56,104,44,26,23,304,33,29,73,010,40,31,52,279,36*7F
$GPGLL,4049.56799,N,01413.44883,E,044815.00,A,A*6C
$GPGST,044815.00,19,,,,1.1,1.2,2.2*50
$GPRMC,044816.00,A,4049.56799,N,01413.44883,E,0.000,0.00,280722,3.80,E,A*35
$GPVTG,0.00,T,356.20,M,0.000,N,0.000,K,A*21
$GPGGA,044816.00,4049.56799,N,01413.44883,E,1,10,0.91,10.8,M,41.2,M,,*6D
$GPGSA,A,3,31,02,22,20,25,26,05,29,11,18,,,1.47,0.91,1.16*08
$GPGSV,3,1,12,02,21,043,38,04,00,329,,05,17,091,34,11,09,037,34*7F
$GPGSV,3,2,12,12,17,110,,18,43,182,43,20,15,056,31,22,07,246,29*77
$GPGSV,3,3,12,25,56,104,43,26,23,304,33,29,73,010,40,31,52,279,37*79
$GPGLL,4049.56799,N,01413.44883,E,044816.00,A,A*6F
$GPGST,044816.00,14,,,,1.1,1.2,2.2*5E
!AIVDM,2,1,0,A,5779<G42Djh9I94G>20IF1PTpN0P4V2222222216C0LG95tC0I3PD31Dp888,0*36
!AIVDM,2,2,0,A,88888888880,2*24
$GPRMC,044817.00,A,4049.56799,N,01413.44883,E,0.000,0.00,280722,3.80,E,A*34
$GPVTG,0.00,T,356.20,M,0.000,N,0.000,K,A*21
$GPGGA,044817.00,4049.56799,N,01413.44883,E,1,10,0.91,10.8,M,41.2,M,,*6C
$GPGSA,A,3,31,02,22,20,25,26,05,29,11,18,,,1.47,0.91,1.16*08
$GPGSV,3,1,12,02,21,043,38,04,00,329,,05,17,091,34,11,09,037,35*7E
$GPGSV,3,2,12,12,17,110,,18,43,182,43,20,15,056,32,22,07,246,29*74
!AIVDM,2,1,1,A,54hWVh800001`=A;B205aD<5:22222222222220U3h:555tB003PD31Dp888,0*45
!AIVDM,2,2,1,A,88888888880,2*25
$GPGSV,3,3,12,25,56,104,43,26,23,304,32,29,73,010,40,31,52,279,37*78
$GPGLL,4049.56799,N,01413.44883,E,044817.00,A,A*6E
$GPGST,044817.00,14,,,,1.1,1.2,2.2*5F
$GPRMC,044818.00,A,4049.56799,N,01413.44883,E,0.000,0.00,280722,3.80,E,A*3B
$GPVTG,0.00,T,356.20,M,0.000,N,0.000,K,A*21
$GPGGA,044818.00,4049.56799,N,01413.44883,E,1,10,0.91,10.8,M,41.2,M,,*63
$GPGSA,A,3,31,02,22,20,25,26,05,29,11,18,,,1.47,0.91,1.16*08
$GPGSV,3,1,12,02,21,043,38,04,00,329,,05,17,091,34,11,09,037,34*7F
$GPGSV,3,2,12,12,17,110,,18,43,182,42,20,15,056,31,22,07,246,29*76
$GPGSV,3,3,12,25,56,104,43,26,23,304,32,29,73,010,39,31,52,279,37*76
$GPGLL,4049.56799,N,01413.44883,E,044818.00,A,A*61
$GPGST,044818.00,15,,,,1.1,1.2,2.2*51
$GPRMC,044819.00,A,4049.56799,N,01413.44883,E,0.000,0.00,280722,3.80,E,A*3A
$GPVTG,0.00,T,356.20,M,0.000,N,0.000,K,A*21
$GPGGA,044819.00,4049.56799,N,01413.44883,E,1,11,0.91,10.8,M,41.2,M,,*63
$GPGSA,A,3,31,02,22,20,25,26,05,29,11,12,18,,1.47,0.91,1.16*0B
$GPGSV,3,1,12,02,21,043,38,04,00,329,,05,17,091,34,11,09,037,34*7F
$GPGSV,3,2,12,12,17,110,23,18,43,182,42,20,15,056,33,22,07,246,29*75
$GPGSV,3,3,12,25,56,104,43,26,23,304,32,29,73,010,39,31,52,279,37*76
$GPGLL,4049.56799,N,01413.44883,E,044819.00,A,A*60
$GPGST,044819.00,14,,,,1.1,1.2,2.2*51
!AIVDM,1,1,,A,13cVTr0P52Q1GB>GFfEjCwvV00S@,0*44
!AIVDM,1,1,,A,34hWVh5001Q17OBGG7ckwJBV0EO:,0*68
!AIVDM,1,1,,A,13cpIR000011;T2GFwSWejbT08;d,0*6D
$GPRMC,044820.00,A,4049.56799,N,01413.44883,E,0.000,0.00,280722,3.80,E,A*30
$GPVTG,0.00,T,356.20,M,0.000,N,0.000,K,A*21
$GPGGA,044820.00,4049.56799,N,01413.44883,E,1,11,0.91,10.8,M,41.2,M,,*69
$GPGSA,A,3,31,02,22,20,25,26,05,29,11,12,18,,1.47,0.91,1.16*0B
$GPGSV,3,1,12,02,21,043,38,04,00,329,,05,17,091,33,11,09,037,35*79
$GPGSV,3,2,12,12,16,110,23,18,43,182,42,20,15,056,33,22,07,246,29*74
$GPGSV,3,3,12,25,56,104,43,26,23,304,32,29,73,010,39,31,52,279,37*76
$GPGLL,4049.56799,N,01413.44883,E,044820.00,A,A*6A
$GPGST,044820.00,14,,,,1.1,1.2,2.3*5A
$GPRMC,044821.00,A,4049.56799,N,01413.44883,E,0.000,0.00,280722,3.80,E,A*31
$GPVTG,0.00,T,356.20,M,0.000,N,0.000,K,A*21
$GPGGA,044821.00,4049.56799,N,01413.44883,E,1,11,0.82,10.8,M,41.2,M,,*6A
$GPGSA,A,3,31,02,22,20,25,26,05,29,11,12,18,,1.38,0.82,1.12*05
$GPGSV,3,1,12,02,21,043,37,04,00,329,,05,17,091,33,11,09,037,35*76
$GPGSV,3,2,12,12,16,110,22,18,43,182,42,20,15,056,31,22,07,246,29*77
$GPGSV,3,3,12,25,56,104,43,26,23,304,33,29,73,010,40,31,52,279,37*79
$GPGLL,4049.56799,N,01413.44883,E,044821.00,A,A*6B
$GPGST,044821.00,21,,,,1.1,1.2,2.3*5D
!AIVDM,1,1,,A,402FhOQvIv4hE11BePGGgg7008<Q,0*65
!AIVDM,1,1,,B,13cVTr0P53Q1GHRGFfeRC?vb04S0,0*30
$GPRMC,044822.00,A,4049.56799,N,01413.44883,E,0.000,0.00,280722,3.80,E,A*32
$GPVTG,0.00,T,356.20,M,0.000,N,0.000,K,A*21
$GPGGA,044822.00,4049.56799,N,01413.44883,E,1,10,0.91,10.8,M,41.2,M,,*6A
$GPGSA,A,3,31,02,22,20,25,26,05,29,11,18,,,1.47,0.91,1.16*08
$GPGSV,3,1,12,02,21,043,36,04,00,329,,05,17,091,33,11,09,037,35*77
$GPGSV,3,2,12,12,16,110,,18,43,182,42,20,15,056,29,22,07,246,29*7E
$GPGSV,3,3,12,25,56,104,43,26,23,304,33,29,73,010,40,31,52,279,37*79
$GPGLL,4049.56799,N,01413.44883,E,044822.00,A,A*68
$GPGST,044822.00,16,,,,1.1,1.2,2.3*5A
$GPRMC,044823.00,A,4049.56799,N,01413.44883,E,0.000,0.00,280722,3.80,E,A*33
$GPVTG,0.00,T,356.20,M,0.000,N,0.000,K,A*21
$GPGGA,044823.00,4049.56799,N,01413.44883,E,1,10,0.91,10.8,M,41.2,M,,*6B
$GPGSA,A,3,31,02,22,20,25,26,05,29,11,18,,,1.47,0.91,1.16*08
$GPGSV,3,1,12,02,21,043,37,04,00,329,,05,17,091,32,11,09,037,35*77
$GPGSV,3,2,12,12,16,110,,18,43,182,42,20,15,056,29,22,07,246,29*7E
$GPGSV,3,3,12,25,56,104,43,26,23,304,33,29,73,010,40,31,52,279,37*79
$GPGLL,4049.56799,N,01413.44883,E,044823.00,A,A*69
$GPGST,044823.00,16,,,,1.1,1.3,2.3*5A
!AIVDM,1,1,,A,13cVTr0P53Q1GNhGFg5jB?vf08=g,0*56
$GPRMC,044824.00,A,4049.56799,N,01413.44883,E,0.000,0.00,280722,3.80,E,A*34
$GPVTG,0.00,T,356.20,M,0.000,N,0.000,K,A*21
$GPGGA,044824.00,4049.56799,N,01413.44883,E,1,10,0.91,10.8,M,41.2,M,,*6C
$GPGSA,A,3,31,02,22,20,25,26,05,29,11,18,,,1.47,0.91,1.16*08
$GPGSV,3,1,12,02,21,043,37,04,00,329,,05,17,091,32,11,09,037,35*77
$GPGSV,3,2,12,12,16,110,,18,43,182,42,20,15,056,29,22,07,246,30*76
$GPGSV,3,3,12,25,56,104,43,26,23,304,32,29,73,010,40,31,52,279,37*78
$GPGLL,4049.56799,N,01413.44883,E,044824.00,A,A*6E
$GPGST,044824.00,16,,,,1.1,1.3,2.3*5D
$GPRMC,044825.00,A,4049.56799,N,01413.44883,E,0.000,0.00,280722,3.80,E,A*35
$GPVTG,0.00,T,356.20,M,0.000,N,0.000,K,A*21
$GPGGA,044825.00,4049.56799,N,01413.44883,E,1,11,0.91,10.8,M,41.2,M,,*6C
$GPGSA,A,3,31,02,22,20,25,26,05,29,11,12,18,,1.47,0.91,1.16*0B
$GPGSV,3,1,12,02,21,043,37,04,00,329,,05,17,091,32,11,09,037,35*77
$GPGSV,3,2,12,12,16,110,22,18,43,182,42,20,15,056,30,22,07,246,30*7E
$GPGSV,3,3,12,25,56,104,43,26,23,304,32,29,73,010,40,31,52,279,36*79
$GPGLL,4049.56799,N,01413.44883,E,044825.00,A,A*6F
$GPGST,044825.00,15,,,,1.1,1.3,2.3*5F
!AIVDM,1,1,,A,13f?cT0uh011;5bGG=anQBdh0@?4,0*6D
!AIVDM,1,1,,B,13cf8P0P0011D@RGGcoKgOvl0L1u,0*31
$GPRMC,044826.00,A,4049.56799,N,01413.44883,E,0.000,0.00,280722,3.80,E,A*36
$GPVTG,0.00,T,356.20,M,0.000,N,0.000,K,A*21
$GPGGA,044826.00,4049.56799,N,01413.44883,E,1,11,0.91,10.8,M,41.2,M,,*6F
$GPGSA,A,3,31,02,22,20,25,26,05,29,11,12,18,,1.47,0.91,1.16*0B
$GPGSV,3,1,12,02,21,043,38,04,00,329,,05,17,091,32,11,09,037,35*78
$GPGSV,3,2,12,12,16,110,23,18,44,182,42,20,15,056,32,22,07,246,31*7B
$GPGSV,3,3,12,25,56,104,43,26,23,304,32,29,73,010,40,31,52,279,36*79
$GPGLL,4049.56799,N,01413.44883,E,044826.00,A,A*6C
$GPGST,044826.00,14,,,,1.1,1.3,2.3*5D
$GPRMC,044827.00,A,4049.56799,N,01413.44883,E,0.000,0.00,280722,3.80,E,A*37
$GPVTG,0.00,T,356.20,M,0.000,N,0.000,K,A*21
$GPGGA,044827.00,4049.56799,N,01413.44883,E,1,11,0.82,10.8,M,41.2,M,,*6C
$GPGSA,A,3,31,02,22,20,25,26,05,29,11,12,18,,1.38,0.82,1.12*05
$GPGSV,3,1,12,02,21,043,38,04,00,329,,05,17,091,32,11,09,037,35*78
$GPGSV,3,2,12,12,16,110,23,18,44,182,43,20,15,056,32,22,07,246,32*79
$GPGSV,3,3,12,25,56,104,43,26,23,304,33,29,73,010,40,31,52,279,36*78
$GPGLL,4049.56799,N,01413.44883,E,044827.00,A,A*6D
$GPGST,044827.00,20,,,,1.1,1.3,2.3*5B
$GPRMC,044828.00,A,4049.56799,N,01413.44883,E,0.000,0.00,280722,3.80,E,A*38
$GPVTG,0.00,T,356.20,M,0.000,N,0.000,K,A*21
$GPGGA,044828.00,4049.56799,N,01413.44883,E,1,11,0.82,10.8,M,41.2,M,,*63
$GPGSA,A,3,31,02,22,20,25,26,05,29,11,12,18,,1.38,0.82,1.12*05
$GPGSV,3,1,12,02,21,043,38,04,00,329,,05,17,091,33,11,09,037,35*79
$GPGSV,3,2,12,12,16,110,23,18,44,182,42,20,15,056,32,22,07,246,32*78
$GPGSV,3,3,12,25,56,104,43,26,23,304,33,29,73,010,39,31,52,279,36*76
$GPGLL,4049.56799,N,01413.44883,E,044828.00,A,A*62
$GPGST,044828.00,19,,,,1.1,1.2,2.3*5F
$GPRMC,044829.00,A,4049.56799,N,01413.44883,E,0.000,0.00,280722,3.80,E,A*39
$GPVTG,0.00,T,356.20,M,0.000,N,0.000,K,A*21
$GPGGA,044829.00,4049.56799,N,01413.44883,E,1,11,0.82,10.8,M,41.2,M,,*62
$GPGSA,A,3,31,02,22,20,25,26,05,29,11,12,18,,1.38,0.82,1.12*05
$GPGSV,3,1,12,02,21,043,38,04,00,329,,05,17,091,33,11,09,037,35*79
$GPGSV,3,2,12,12,16,110,24,18,44,182,43,20,15,056,33,22,07,246,32*7F
$GPGSV,3,3,12,25,56,104,43,26,23,304,33,29,73,010,39,31,52,279,36*76
$GPGLL,4049.56799,N,01413.44883,E,044829.00,A,A*63
$GPGST,044829.00,18,,,,1.1,1.3,2.3*5E
!AIVDM,1,1,,B,13cpIR000011;T2GFwSWeRbp0@AQ,0*45
$GPRMC,044830.00,A,4049.56799,N,01413.44883,E,0.000,0.00,280722,3.80,E,A*31
$GPVTG,0.00,T,356.20,M,0.000,N,0.000,K,A*21
$GPGGA,044830.00,4049.56799,N,01413.44883,E,1,11,0.82,10.8,M,41.2,M,,*6A
$GPGSA,A,3,31,02,22,20,25,26,05,29,11,12,18,,1.38,0.82,1.12*05
$GPGSV,3,1,12,02,21,043,38,04,00,329,,05,17,091,33,11,09,037,35*79
$GPGSV,3,2,12,12,16,110,25,18,44,182,43,20,15,056,33,22,07,246,32*7E
$GPGSV,3,3,12,25,56,104,43,26,23,304,33,29,73,010,39,31,52,279,36*76
$GPGLL,4049.56799,N,01413.44883,E,044830.00,A,A*6B
$GPGST,044830.00,17,,,,1.1,1.3,2.3*59
!AIVDM,1,1,,A,3779<G500011GMnGGcW@q6Dv0Dfr,0*57
$GPRMC,044831.00,A,4049.56799,N,01413.44883,E,0.000,0.00,280722,3.80,E,A*30
$GPVTG,0.00,T,356.20,M,0.000,N,0.000,K,A*21
$GPGGA,044831.00,4049.56799,N,01413.44883,E,1,11,0.82,10.8,M,41.2,M,,*6B
$GPGSA,A,3,31,02,22,20,25,26,05,29,11,12,18,,1.38,0.82,1.12*05
$GPGSV,3,1,12,02,21,043,38,04,00,329,,05,17,091,34,11,09,037,35*7E
$GPGSV,3,2,12,12,16,110,25,18,44,182,43,20,15,056,33,22,07,246,32*7E
$GPGSV,3,3,12,25,56,104,42,26,23,304,33,29,73,010,39,31,52,279,36*77
$GPGLL,4049.56799,N,01413.44883,E,044831.00,A,A*6A
$GPGST,044831.00,17,,,,1.1,1.3,2.3*58
!AIVDM,1,1,,A,13cVTr0P52Q1Go`GFhV2@?vv0<0i,0*5F
$GPRMC,044832.00,A,4049.56799,N,01413.44883,E,0.000,0.00,280722,3.80,E,A*33
$GPVTG,0.00,T,356.20,M,0.000,N,0.000,K,A*21
$GPGGA,044832.00,4049.56799,N,01413.44883,E,1,11,0.82,10.8,M,41.2,M,,*68
$GPGSA,A,3,31,02,22,20,25,26,05,29,11,12,18,,1.38,0.82,1.12*05
$GPGSV,3,1,12,02,21,043,38,04,00,329,,05,17,091,34,11,09,037,35*7E
$GPGSV,3,2,12,12,16,110,25,18,44,182,43,20,15,056,33,22,07,246,32*7E
$GPGSV,3,3,12,25,56,104,42,26,23,304,33,29,73,010,39,31,52,279,36*77
$GPGLL,4049.56799,N,01413.44883,E,044832.00,A,A*69
$GPGST,044832.00,17,,,,1.1,1.2,2.3*5A
$GPRMC,044833.00,A,4049.56799,N,01413.44883,E,0.000,0.00,280722,3.80,E,A*32
$GPVTG,0.00,T,356.20,M,0.000,N,0.000,K,A*21
$GPGGA,044833.00,4049.56799,N,01413.44883,E,1,11,0.82,10.8,M,41.2,M,,*69
$GPGSA,A,3,31,02,22,20,25,26,05,29,11,12,18,,1.38,0.82,1.12*05
$GPGSV,3,1,12,02,21,043,38,04,00,329,,05,17,091,34,11,09,037,35*7E
$GPGSV,3,2,12,12,16,110,25,18,44,182,43,20,15,056,33,22,07,246,32*7E
$GPGSV,3,3,12,25,55,105,42,26,23,304,34,29,73,010,39,31,52,279,36*72
!AIVDM,1,1,,B,13cVTr0P51Q1GujGFhvj??w200S8,0*33
$GPGLL,4049.56799,N,01413.44883,E,044833.00,A,A*68
$GPGST,044833.00,16,,,,1.1,1.2,2.3*5A
$GPRMC,044834.00,A,4049.56799,N,01413.44883,E,0.000,0.00,280722,3.80,E,A*35
$GPVTG,0.00,T,356.20,M,0.000,N,0.000,K,A*21
$GPGGA,044834.00,4049.56799,N,01413.44883,E,1,11,0.82,10.8,M,41.2,M,,*6E
$GPGSA,A,3,31,02,22,20,25,26,05,29,11,12,18,,1.38,0.82,1.12*05
$GPGSV,3,1,12,02,21,043,38,04,00,329,,05,17,091,35,11,09,037,34*7E
$GPGSV,3,2,12,12,16,110,26,18,44,182,43,20,15,056,33,22,07,246,31*7E
$GPGSV,3,3,12,25,55,105,43,26,24,304,34,29,73,010,39,31,52,279,37*75
$GPGLL,4049.56799,N,01413.44883,E,044834.00,A,A*6F
$GPGST,044834.00,16,,,,1.1,1.2,2.3*5D
$GPRMC,044835.00,A,4049.56799,N,01413.44883,E,0.000,0.00,280722,3.80,E,A*34
$GPVTG,0.00,T,356.20,M,0.000,N,0.000,K,A*21
$GPGGA,044835.00,4049.56799,N,01413.44883,E,1,11,0.82,10.8,M,41.2,M,,*6F
!AIVDM,1,1,,B,13f?cT0vh011;5dGG=aVQBc20D2b,0*51
$GPGSA,A,3,31,02,22,20,25,26,05,29,11,12,18,,1.38,0.82,1.12*05
$GPGSV,3,1,12,02,21,043,38,04,00,329,,05,17,091,35,11,09,037,34*7E
$GPGSV,3,2,12,12,16,110,25,18,44,182,43,20,15,056,33,22,07,246,31*7D
$GPGSV,3,3,12,25,55,105,42,26,24,304,34,29,73,010,39,31,52,279,36*75
!AIVDM,1,1,,A,13cVTr0P51Q1H3rGFiGB>gw604S0,0*28
$GPGLL,4049.56799,N,01413.44883,E,044835.00,A,A*6E
$GPGST,044835.00,17,,,,1.1,1.2,2.3*5D
$GPRMC,044836.00,A,4049.56799,N,01413.44883,E,0.000,0.00,280722,3.80,E,A*37
$GPVTG,0.00,T,356.20,M,0.000,N,0.000,K,A*21
$GPGGA,044836.00,4049.56799,N,01413.44883,E,1,11,0.82,10.8,M,41.2,M,,*6C
$GPGSA,A,3,31,02,22,20,25,26,05,29,11,12,18,,1.38,0.82,1.12*05
$GPGSV,3,1,12,02,21,043,38,04,00,329,,05,17,091,35,11,09,037,34*7E
!AIVDM,1,1,,B,B3dPiQ@008@Ccu5mk9hJgwiUoP06,0*08
$GPGSV,3,2,12,12,16,110,26,18,44,182,43,20,15,056,34,22,07,246,31*79
$GPGSV,3,3,12,25,55,105,42,26,24,304,33,29,73,010,39,31,52,279,36*72
$GPGLL,4049.56799,N,01413.44883,E,044836.00,A,A*6D
$GPGST,044836.00,20,,,,1.1,1.2,2.3*5A
!AIVDM,1,1,,A,13cf8P0P0111D@JGGcncqww:0HEK,0*35
$GPRMC,044837.00,A,4049.56799,N,01413.44883,E,0.000,0.00,280722,3.80,E,A*36
$GPVTG,0.00,T,356.20,M,0.000,N,0.000,K,A*21
$GPGGA,044837.00,4049.56799,N,01413.44883,E,1,11,0.82,10.8,M,41.2,M,,*6D
$GPGSA,A,3,31,02,22,20,25,26,05,29,11,12,18,,1.38,0.82,1.12*05
$GPGSV,3,1,12,02,21,043,38,04,00,329,,05,17,091,36,11,09,037,34*7D
$GPGSV,3,2,12,12,16,110,27,18,44,182,43,20,15,056,34,22,07,246,31*78
$GPGSV,3,3,12,25,55,105,42,26,24,304,32,29,72,012,39,31,52,279,36*70
$GPGLL,4049.56799,N,01413.44883,E,044837.00,A,A*6C
$GPGST,044837.00,18,,,,1.1,1.2,2.3*50
!AIVDM,1,1,,A,H3IOnt4TC=D5E0H618pojk10413t,0*71
$GPRMC,044838.00,A,4049.56799,N,01413.44883,E,0.000,0.00,280722,3.80,E,A*39
$GPVTG,0.00,T,356.20,M,0.000,N,0.000,K,A*21
$GPGGA,044838.00,4049.56799,N,01413.44883,E,1,11,0.82,10.8,M,41.2,M,,*62
$GPGSA,A,3,31,02,22,20,25,26,05,29,11,12,18,,1.38,0.82,1.12*05
$GPGSV,3,1,12,02,21,043,38,04,00,329,,05,17,091,35,11,09,037,33*79
$GPGSV,3,2,12,12,16,110,26,18,44,182,43,20,15,056,34,22,07,246,31*79
$GPGSV,3,3,12,25,55,105,43,26,24,304,33,29,72,012,39,31,52,279,36*70
$GPGLL,4049.56799,N,01413.44883,E,044838.00,A,A*63
$GPGST,044838.00,17,,,,1.1,1.2,2.3*50
!AIVDM,1,1,,A,13cpIR000011;T2GFwSWHje800Si,0*46
$GPRMC,044839.00,A,4049.56799,N,01413.44883,E,0.000,0.00,280722,3.80,E,A*38
$GPVTG,0.00,T,356.20,M,0.000,N,0.000,K,A*21
$GPGGA,044839.00,4049.56799,N,01413.44883,E,1,11,0.82,10.8,M,41.2,M,,*63
$GPGSA,A,3,31,02,22,20,25,26,05,29,11,12,18,,1.38,0.82,1.12*05
$GPGSV,3,1,12,02,21,043,39,04,00,329,,05,17,091,34,11,09,037,34*7E
$GPGSV,3,2,12,12,16,110,26,18,44,182,43,20,15,056,35,22,07,246,30*79
$GPGSV,3,3,12,25,55,105,43,26,24,304,33,29,72,012,40,31,52,278,36*7F
$GPGLL,4049.56799,N,01413.44883,E,044839.00,A,A*62
$GPGST,044839.00,17,,,,1.1,1.2,2.3*51
$GPRMC,044840.00,A,4049.56799,N,01413.44883,E,0.000,0.00,280722,3.80,E,A*36
$GPVTG,0.00,T,356.20,M,0.000,N,0.000,K,A*21
$GPGGA,044840.00,4049.56799,N,01413.44883,E,1,11,0.82,10.8,M,41.2,M,,*6D
$GPGSA,A,3,31,02,22,20,25,26,05,29,11,12,18,,1.38,0.82,1.12*05
$GPGSV,3,1,12,02,21,043,38,04,00,329,,05,17,091,35,11,09,037,35*7F
$GPGSV,3,2,12,12,16,110,26,18,44,182,41,20,15,056,35,22,07,246,30*7B
$GPGSV,3,3,12,25,55,105,43,26,24,304,33,29,72,012,40,31,52,278,35*7C
$GPGLL,4049.56799,N,01413.44883,E,044840.00,A,A*6C
$GPGST,044840.00,16,,,,1.1,1.2,2.2*5F
!AIVDM,1,1,,B,H4hFNA1BuB1AE95DtU<D0000000,2*2A
$GPRMC,044841.00,A,4049.56799,N,01413.44883,E,0.000,0.00,280722,3.80,E,A*37
$GPVTG,0.00,T,356.20,M,0.000,N,0.000,K,A*21
$GPGGA,044841.00,4049.56799,N,01413.44883,E,1,11,0.82,10.8,M,41.2,M,,*6C
$GPGSA,A,3,31,02,22,20,25,26,05,29,11,12,18,,1.38,0.82,1.12*05
$GPGSV,3,1,12,02,21,043,36,04,00,329,,05,17,091,31,11,09,037,34*74
$GPGSV,3,2,12,12,16,110,35,18,44,182,36,20,15,056,35,22,07,246,29*71
$GPGSV,3,3,12,25,55,105,46,26,24,304,33,29,72,012,36,31,52,278,35*78
$GPGLL,4049.56799,N,01413.44883,E,044841.00,A,A*6D
$GPGST,044841.00,16,,,,1.2,1.2,2.3*5C
!AIVDM,1,1,,A,13cVaV0P2711DETGDr3PD?w<08HB,0*36
!AIVDM,1,1,,A,13dm>P0P01Q1;rPGG72>4?wB0@HE,0*23
!AIVDM,2,1,2,B,53cVaV01mhKLUE@N220A8T4@F22222222222220t000005bbe92Dhj2@H888,0*7B
!AIVDM,2,2,2,B,88888888880,2*25
$GPRMC,044842.00,A,4049.56799,N,01413.44883,E,0.000,0.00,280722,3.80,E,A*34
$GPVTG,0.00,T,356.20,M,0.000,N,0.000,K,A*21
$GPGGA,044842.00,4049.56799,N,01413.44883,E,1,11,0.82,10.8,M,41.2,M,,*6F
$GPGSA,A,3,31,02,22,20,25,26,05,29,11,12,18,,1.38,0.82,1.11*06
$GPGSV,3,1,12,02,21,043,37,04,00,329,,05,17,091,35,11,09,037,34*71
$GPGSV,3,2,12,12,16,110,31,18,44,182,40,20,15,056,36,22,07,246,28*76
$GPGSV,3,3,12,25,55,105,45,26,24,304,33,29,72,012,36,31,52,278,35*7B
$GPGLL,4049.56799,N,01413.44883,E,044842.00,A,A*6E
$GPGST,044842.00,15,,,,1.2,1.2,2.3*5C
!AIVDM,1,1,,A,B7f==R000H@BbbUmjFULswmUWP06,0*2D
$GPRMC,044843.00,A,4049.56799,N,01413.44883,E,0.000,0.00,280722,3.80,E,A*35
$GPVTG,0.00,T,356.20,M,0.000,N,0.000,K,A*21
$GPGGA,044843.00,4049.56799,N,01413.44883,E,1,11,0.82,10.8,M,41.2,M,,*6E
$GPGSA,A,3,31,02,22,20,25,26,05,29,11,12,18,,1.38,0.82,1.11*06
$GPGSV,3,1,12,02,21,043,36,04,00,329,,05,17,091,33,11,09,037,34*76
$GPGSV,3,2,12,12,16,110,33,18,44,182,41,20,15,056,38,22,07,246,29*7A
$GPGSV,3,3,12,25,55,105,44,26,24,304,33,29,72,012,38,31,52,278,35*74
$GPGLL,4049.56799,N,01413.44883,E,044843.00,A,A*6F
$GPGST,044843.00,14,,,,1.2,1.2,2.3*5C
$GPRMC,044844.00,A,4049.56799,N,01413.44883,E,0.000,0.00,280722,3.80,E,A*32
$GPVTG,0.00,T,356.20,M,0.000,N,0.000,K,A*21
$GPGGA,044844.00,4049.56799,N,01413.44883,E,1,10,0.86,10.8,M,41.2,M,,*6C
$GPGSA,A,3,31,22,20,25,26,05,29,11,12,18,,,1.41,0.86,1.12*0D
$GPGSV,3,1,12,02,21,043,,04,00,329,,05,17,091,39,11,09,037,30*7D
$GPGSV,3,2,12,12,16,110,28,18,44,182,43,20,15,056,39,22,07,246,29*73
$GPGSV,3,3,12,25,55,105,37,26,24,304,33,29,72,012,37,31,52,278,37*7D
$GPGLL,4049.56799,N,01413.44883,E,044844.00,A,A*68
$GPGST,044844.00,17,,,,1.2,1.2,2.3*58
!AIVDM,1,1,,A,13f?cT0t0011;5jGG=`nQBaF0D2c,0*48
$GPRMC,044845.00,A,4049.56799,N,01413.44883,E,0.000,0.00,280722,3.80,E,A*33
$GPVTG,0.00,T,356.20,M,0.000,N,0.000,K,A*21
$GPGGA,044845.00,4049.56799,N,01413.44883,E,1,11,0.82,10.8,M,41.2,M,,*68
!AIVDM,1,1,,B,13cVTr0P51Q1HO8GFk:R:?wH00SA,0*25
$GPGSA,A,3,31,02,22,20,25,26,05,29,11,12,18,,1.38,0.82,1.11*06
$GPGSV,3,1,12,02,21,043,35,04,00,329,,05,17,091,30,11,09,037,32*70
$GPGSV,3,2,12,12,16,110,36,18,44,182,45,20,15,056,41,22,07,246,28*74
$GPGSV,3,3,12,25,55,105,39,26,24,304,34,29,72,012,36,31,52,278,35*77
$GPGLL,4049.56799,N,01413.44883,E,044845.00,A,A*69
$GPGST,044845.00,18,,,,1.2,1.3,2.4*50
$GPRMC,044846.00,A,4049.56799,N,01413.44883,E,0.000,0.00,280722,3.80,E,A*30
$GPVTG,0.00,T,356.20,M,0.000,N,0.000,K,A*21
$GPGGA,044846.00,4049.56799,N,01413.44883,E,1,11,0.82,10.8,M,41.2,M,,*6B
$GPGSA,A,3,31,02,22,20,25,26,05,29,11,12,18,,1.38,0.82,1.11*06
$GPGSV,3,1,12,02,21,043,32,04,00,329,,05,17,091,38,11,09,037,35*78
$GPGSV,3,2,12,12,16,110,39,18,44,182,44,20,15,056,41,22,07,246,28*7A
$GPGSV,3,3,12,25,55,105,39,26,24,304,34,29,72,012,37,31,52,278,39*7A
$GPGLL,4049.56799,N,01413.44883,E,044846.00,A,A*6A
$GPGST,044846.00,14,,,,1.2,1.2,2.4*5E
!AIVDM,2,1,3,B,54hRJf00?Ike`=PF3F1LE8F0A8D4m>222222220U3@K545tj08CPD3k2H888,0*5A
!AIVDM,2,2,3,B,88888888880,2*24
!AIVDM,1,1,,B,13cf8P0P0011D@LGGcp;pwwN04S0,0*13
$GPRMC,044847.00,A,4049.56799,N,01413.44883,E,0.000,0.00,280722,3.80,E,A*31
$GPVTG,0.00,T,356.20,M,0.000,N,0.000,K,A*21
$GPGGA,044847.00,4049.56799,N,01413.44883,E,1,11,0.82,10.8,M,41.2,M,,*6A
!AIVDM,1,1,,A,13cVTr0P52Q1HU4GFkUB8wwL0<0i,0*45
$GPGSA,A,3,31,02,22,20,25,26,05,29,11,12,18,,1.38,0.82,1.11*06
$GPGSV,3,1,12,02,21,043,34,04,00,329,,05,17,091,33,11,09,037,35*75
$GPGSV,3,2,12,12,16,110,40,18,44,182,45,20,15,056,41,22,07,246,28*75
