$GPRMC,163607.00,V,,,,,,,210122,,,N*7A

$GPVTG,,,,,,,,,N*30

$GPGGA,163607.00,,,,,0,00,99.99,,,,,,*63

$GPGSA,A,1,,,,,,,,,,,,,99.99,99.99,99.99*30

$GPGSV,3,1,12,02,,,47,05,,,41,11,,,47,12,,,39*73

$GPGSV,3,2,12,16,,,22,18,,,22,20,,,46,24,,,39*79

$GPGSV,3,3,12,25,,,27,29,,,38,31,,,36,32,,,33*7E

$GPGLL,,,,,163607.00,V,N*4F

$GPGST,163607.00,0.0000,,,,3750000,3750000,3750000*53

!AIVDM,1,1,,B,D02FhS@0lN?b<`N00m4v000,2*1E

$GPRMC,163608.00,V,,,,,,,210122,,,N*75

$GPVTG,,,,,,,,,N*30

$GPGGA,163608.00,,,,,0,00,99.99,,,,,,*6C

$GPGSA,A,1,,,,,,,,,,,,,99.99,99.99,99.99*30

$GPGSV,3,1,12,02,,,47,05,,,35,11,,,48,12,,,42*73

$GPGSV,3,2,12,16,,,26,18,,,41,20,,,45,24,,,26*75

$GPGSV,3,3,12,25,,,40,29,,,28,31,,,38,32,,,36*75

$GPGLL,,,,,163608.00,V,N*40

$GPGST,163608.00,0.0000,,,,3750000,3750000,3750000*5C

$GPRMC,163606.00,V,,,,,,,210122,,,N*7B

$AITXT,01,01,13,UTC Time Valid*73

$GPVTG,,,,,,,,,N*30

$GPGGA,163606.00,,,,,0,00,99.99,,,,,,*62

$GPGSA,A,1,,,,,,,,,,,,,99.99,99.99,99.99*30

$GPGSV,3,1,12,02,,,48,05,,,39,11,,,45,12,,,34*7C

$GPGSV,3,2,12,16,,,25,18,,,33,20,,,42,24,,,31*72

$GPGSV,3,3,12,25,,,38,29,,,32,31,,,38,32,,,36*71

$GPGLL,,,,,163606.00,V,N*4E

$GPGST,163606.00,0.0000,,,,3750000,3750000,3750000*52

$GPRMC,163607.00,V,,,,,,,210122,,,N*7A

$GPVTG,,,,,,,,,N*30

$GPGGA,163607.00,,,,,0,00,99.99,,,,,,*63

$GPGSA,A,1,,,,,,,,,,,,,99.99,99.99,99.99*30

$GPGSV,3,1,12,02,,,45,05,,,39,11,,,42,12,,,39*7B

$GPGSV,3,2,12,16,,,24,18,,,29,20,,,43,24,,,34*7C

$GPGSV,3,3,12,25,,,24,29,,,38,31,,,43,32,,,34*78

$GPGLL,,,,,163607.00,V,N*4F

$GPGST,163607.00,0.0000,,,,3750000,3750000,3750000*53

$GPRMC,163608.00,V,,,,,,,210122,,,N*75

$GPVTG,,,,,,,,,N*30

$GPGGA,163608.00,,,,,0,00,99.99,,,,,,*6C

$GPGSA,A,1,,,,,,,,,,,,,99.99,99.99,99.99*30

$GPGSV,3,1,12,02,,,44,05,,,44,11,,,44,12,,,40*78

$GPGSV,3,2,12,16,,,24,18,,,43,20,,,45,24,,,34*76

$GPGSV,3,3,12,25,,,30,29,,,34,31,,,23,32,,,36*75

$GPGLL,,,,,163608.00,V,N*40

$GPGST,163608.00,0.0000,,,,3750000,3750000,3750000*5C

$GPRMC,163608.99,V,,,,,,,210122,,,N*75

$GPVTG,,,,,,,,,N*30

$GPGGA,163608.99,,,,,0,00,99.99,,,,,,*6C

$GPGSA,A,1,,,,,,,,,,,,,99.99,99.99,99.99*30

$GPGSV,3,1,12,02,,,48,05,,,39,11,,,45,12,,,41*7E

$GPGSV,3,2,12,16,,,24,18,,,40,20,,,43,24,,,31*76

$GPGSV,3,3,12,25,,,35,29,,,32,31,,,40,32,,,32*77

$GPGLL,,,,,163608.99,V,N*40

$GPGST,163608.99,0.0000,,,,3750000,3750000,3750000*5C

!AIVDM,1,1,,A,13caqf?P0fQ4UEFG5hk8ggvB285F,0*3F

$GPRMC,163609.99,V,,,,,,,210122,,,N*74

$GPVTG,,,,,,,,,N*30

$GPGGA,163609.99,,,,,0,00,99.99,,,,,,*6D

$GPGSA,A,1,,,,,,,,,,,,,99.99,99.99,99.99*30

$GPGSV,3,1,12,02,,,43,05,,,38,11,,,47,12,,,39*79

$GPGSV,3,2,12,16,,,23,18,,,38,20,,,48,24,,,26*73

$GPGSV,3,3,12,25,,,32,29,,,37,31,,,43,32,,,28*7D

$GPGLL,,,,,163609.99,V,N*41

$GPGST,163609.99,0.0000,,,,3750000,3750000,3750000*5D

$GPRMC,163611.01,V,,,,,,,210122,,,N*7C

$GPVTG,,,,,,,,,N*30

$GPGGA,163611.01,,,,,0,00,99.99,,,,,,*65

$GPGSA,A,1,,,,,,,,,,,,,99.99,99.99,99.99*30

$GPGSV,3,1,12,02,,,47,05,,,42,07,,,27,11,,,45*79

$GPGSV,3,2,12,12,,,43,16,,,24,18,,,42,20,,,44*73

$GPGSV,3,3,12,24,,,35,25,,,38,29,,,37,31,,,41*7E

$GPGLL,,,,,163611.01,V,N*49

$GPGST,163611.01,0.0000,,,,3750000,3750000,3750000*55

!AIVDM,1,1,,A,H39NEMTUD814PQj4:?@0001p5330,0*34

!AIVDM,1,1,,B,402FhSAvHJhT<14l9`G2AQ700<0g,0*52

$GPRMC,163612.00,V,,,,,,,210122,,,N*7E

$GPVTG,,,,,,,,,N*30

$GPGGA,163612.00,,,,,0,00,99.99,,,,,,*67

$GPGSA,A,1,,,,,,,,,,,,,99.99,99.99,99.99*30

$GPGSV,3,1,12,02,,,47,05,,,20,11,,,46,12,,,29*74

$GPGSV,3,2,12,16,,,23,18,,,28,20,,,44,24,,,39*70

$GPGSV,3,3,12,25,,,36,29,,,30,31,,,38,32,,,30*7B

$GPGLL,,,,,163612.00,V,N*4B

$GPGST,163612.00,0.0000,,,,3750000,3750000,3750000*57

$GPRMC,163613.00,V,,,,,,,210122,,,N*7F

$GPVTG,,,,,,,,,N*30

$GPGGA,163613.00,,,,,0,00,99.99,,,,,,*66

$GPGSA,A,1,,,,,,,,,,,,,99.99,99.99,99.99*30

$GPGSV,4,1,13,02,,,47,05,,,23,09,,,28,11,,,46*7A

$GPGSV,4,2,13,12,,,41,16,,,23,18,,,40,20,,,44*72

$GPGSV,4,3,13,24,,,35,25,,,38,29,,,40,31,,,42*7B

$GPGSV,4,4,13,32,,,33*7A

$GPGLL,,,,,163613.00,V,N*4A

$GPGST,163613.00,0.0000,,,,3750000,3750000,3750000*56

!AIVDM,1,1,,B,E@2FhNPTVa1Qh97VRP0000000000LSI8;uuO000000N010,4*72

$GPRMC,163614.00,V,,,,,,,210122,,,N*78

$GPVTG,,,,,,,,,N*30

$GPGGA,163614.00,,,,,0,00,99.99,,,,,,*61

$GPGSA,A,1,,,,,,,,,,,,,99.99,99.99,99.99*30

$GPGSV,4,1,13,02,,,45,05,,,26,09,,,26,11,,,43*76

$GPGSV,4,2,13,12,,,41,16,,,24,18,,,29,20,,,48*76

$GPGSV,4,3,13,24,,,43,25,,,40,29,,,34,31,,,32*71

$GPGSV,4,4,13,32,,,36*7F

$GPGLL,,,,,163614.00,V,N*4D

$GPGST,163614.00,0.0000,,,,3750000,3750000,3750000*51

$GPRMC,163615.00,V,,,,,,,210122,,,N*79

$GPVTG,,,,,,,,,N*30

$GPGGA,163615.00,,,,,0,00,99.99,,,,,,*60

$GPGSA,A,1,,,,,,,,,,,,,99.99,99.99,99.99*30

$GPGSV,4,1,14,02,,,47,05,,,27,09,,,25,11,,,43*71

$GPGSV,4,2,14,12,,,39,16,,,24,18,,,44,20,,,46*7B

$GPGSV,4,3,14,24,,,40,25,,,37,26,,,34,29,,,37*76

$GPGSV,4,4,14,31,,,40,32,,,38*70

$GPGLL,,,,,163615.00,V,N*4C

$GPGST,163615.00,0.0000,,,,3750000,3750000,3750000*50

$GPRMC,163616.00,V,,,,,,,210122,,,N*7A

$GPVTG,,,,,,,,,N*30

$GPGGA,163616.00,,,,,0,00,99.99,,,,,,*63

$GPGSA,A,1,,,,,,,,,,,,,99.99,99.99,99.99*30

$GPGSV,4,1,14,02,,,49,05,,,33,09,,,25,11,,,47*7E

$GPGSV,4,2,14,12,,,37,16,,,23,18,,,38,20,,,42*7D

$GPGSV,4,3,14,24,,,38,25,,,38,26,,,29,29,,,30*7D

$GPGSV,4,4,14,31,,,38,32,,,31*76

$GPGLL,,,,,163616.00,V,N*4F

$GPGST,163616.00,0.0000,,,,3750000,3750000,3750000*53

$GPRMC,163617.00,V,,,,,,,210122,,,N*7B

$GPVTG,,,,,,,,,N*30

$GPGGA,163617.00,,,,,0,00,99.99,,,,,,*62

$GPGSA,A,1,,,,,,,,,,,,,99.99,99.99,99.99*30

$GPGSV,4,1,14,02,,,45,05,,,24,09,,,22,11,,,47*73

$GPGSV,4,2,14,12,,,41,16,,,23,18,,,32,20,,,42*76

$GPGSV,4,3,14,24,,,34,25,,,37,26,,,31,29,,,34*73

$GPGSV,4,4,14,31,,,38,32,,,34*73

$GPGLL,,,,,163617.00,V,N*4E

$GPGST,163617.00,0.0000,,,,3750000,3750000,3750000*52

$GPRMC,163617.99,V,,,,,,,210122,,,N*7B

$GPVTG,,,,,,,,,N*30

$GPGGA,163617.99,,,,,0,00,99.99,,,,,,*62

$GPGSA,A,1,,,,,,,,,,,,,99.99,99.99,99.99*30

$GPGSV,4,1,14,02,,,47,05,,,35,09,,,22,11,,,48*7E

$GPGSV,4,2,14,12,,,43,16,,,24,18,,,37,20,,,45*71

$GPGSV,4,3,14,24,,,34,25,,,40,26,,,26,29,,,40*76

$GPGSV,4,4,14,31,,,41,32,,,24*7C

$GPGLL,,,,,163617.99,V,N*4E

$GPGST,163617.99,0.0000,,,,3750000,3750000,3750000*52

$GPRMC,163619.00,V,,,,,,,210122,,,N*75

$GPVTG,,,,,,,,,N*30

$GPGGA,163619.00,,,,,0,00,99.99,,,,,,*6C

$GPGSA,A,1,,,,,,,,,,,,,99.99,99.99,99.99*30

$GPGSV,4,1,13,02,,,45,05,,,41,11,,,47,12,,,36*78

$GPGSV,4,2,13,16,,,24,18,,,37,20,,,49,24,,,35*7E

$GPGSV,4,3,13,25,,,30,26,,,26,29,,,33,31,,,41*74

$GPGSV,4,4,13,32,,,30*79

$GPGLL,,,,,163619.00,V,N*40

$GPGST,163619.00,0.0000,,,,3750000,3750000,3750000*5C

!AIVDM,1,1,,B,13caqf?P0aQ4UArG5hN8qOvV20Rs,0*5E

$GPRMC,163619.51,V,,,,,,,210122,,,N*71

$GPVTG,,,,,,,,,N*30

$GPGGA,163619.51,,,,,0,03,3.02,,,,,,*5A

$GPGSA,A,1,02,20,18,,,,,,,,,,3.18,3.02,1.00*03

$GPGSV,4,1,13,02,34,053,46,05,,,42,11,28,051,48,12,,,38*76

$GPGSV,4,2,13,16,,,24,18,15,185,38,20,10,085,43,24,,,31*7B

$GPGSV,4,3,13,25,,,40,26,,,26,29,,,23,31,,,41*72

$GPGSV,4,4,13,32,,,25*7D

$GPGLL,,,,,163619.51,V,N*44

$GPGST,163619.51,10,,,,248,277,500*4F

$GPRMC,163620.00,V,,,,,,,210122,,,N*7F

$GPVTG,,,,,,,,,N*30

$GPGGA,163620.00,,,,,0,03,3.02,,,,,,*54

$GPGSA,A,1,02,20,18,,,,,,,,,,3.18,3.02,1.00*03

$GPGSV,4,1,13,02,34,053,44,05,,,39,11,28,051,46,12,,,32*7C

$GPGSV,4,2,13,16,,,25,18,15,185,38,20,10,085,46,24,,,29*76

$GPGSV,4,3,13,25,,,40,26,,,31,29,,,25,31,,,37*73

$GPGSV,4,4,13,32,,,31*78

$GPGLL,,,,,163620.00,V,N*4A

$GPGST,163620.00,7.4,,,,193,215,949*6D

!AIVDM,1,1,,A,D02FhSAQdN?b<`N01rhv000,2*37

$GPRMC,163621.00,V,,,,,,,210122,,,N*7E

$GPVTG,,,,,,,,,N*30

$GPGGA,163621.00,,,,,0,03,3.02,,,,,,*55

$GPGSA,A,1,02,20,18,,,,,,,,,,3.18,3.02,1.00*03

$GPGSV,4,1,13,02,34,053,48,05,,,35,11,28,051,46,12,,,34*7A

$GPGSV,4,2,13,16,,,24,18,15,185,31,20,10,085,47,24,,,22*74

$GPGSV,4,3,13,25,,,31,26,,,26,29,,,39,31,,,42*7C

$GPGSV,4,4,13,32,,,36*7F

$GPGLL,,,,,163621.00,V,N*4B

$GPGST,163621.00,19,,,,167,186,888*47

!AIVDM,1,1,,A,402FhSAvHJhTF14l9`G2AQ700<0g,0*2B

$GPRMC,163622.00,V,,,,,,,210122,,,N*7D

$GPVTG,,,,,,,,,N*30

$GPGGA,163622.00,,,,,0,03,3.02,,,,,,*56

$GPGSA,A,1,02,20,18,,,,,,,,,,3.18,3.02,1.00*03

$GPGSV,4,1,13,02,34,053,46,05,,,38,11,28,051,47,12,,,34*78

$GPGSV,4,2,13,16,,,24,18,15,185,32,20,10,085,48,24,,,23*79

$GPGSV,4,3,13,25,,,23,26,,,26,29,,,35,31,,,33*75

$GPGSV,4,4,13,32,,,34*7D

$GPGLL,,,,,163622.00,V,N*48

$GPGST,163622.00,14,,,,141,157,802*43

$GPRMC,163623.00,V,,,,,,,210122,,,N*7C

$GPVTG,,,,,,,,,N*30

$GPGGA,163623.00,,,,,0,03,3.02,,,,,,*57

$GPGSA,A,1,02,20,18,,,,,,,,,,3.18,3.02,1.00*03

$GPGSV,3,1,11,02,34,053,45,05,,,40,11,28,051,47,12,,,32*77

$GPGSV,3,2,11,18,15,185,35,20,10,085,45,24,,,34,25,,,31*74

$GPGSV,3,3,11,29,,,33,31,,,40,32,,,31*77

$GPGLL,,,,,163623.00,V,N*49

$GPGST,163623.00,10,,,,126,140,759*40

$GPRMC,163624.00,V,,,,,,,210122,,,N*7B

$GPVTG,,,,,,,,,N*30

$GPGGA,163624.00,,,,,0,03,3.02,,,,,,*50

$GPGSA,A,1,02,20,18,,,,,,,,,,3.18,3.02,1.00*03

$GPGSV,3,1,11,02,34,053,47,05,,,34,11,28,051,43,12,,,40*77

$GPGSV,3,2,11,18,15,185,30,20,10,085,45,24,,,39,25,,,26*7A

$GPGSV,3,3,11,29,,,31,31,,,41,32,,,36*73

$GPGLL,,,,,163624.00,V,N*4E

$GPGST,163624.00,17,,,,115,128,732*43

$GPRMC,163625.00,V,,,,,,,210122,,,N*7A

$GPVTG,,,,,,,,,N*30

$GPGGA,163625.00,,,,,0,00,99.99,,,,,,*63

$GPGSA,A,1,,,,,,,,,,,,,99.99,99.99,99.99*30

$GPGSV,3,1,11,02,34,053,47,05,03,111,34,11,28,051,46,12,,,38*4F

$GPGSV,3,2,11,18,15,185,40,20,10,085,44,24,,,40,25,,,37*72

$GPGSV,3,3,11,29,,,34,31,,,33,32,,,36*73

$GPGLL,,,,,163625.00,V,N*4F

$GPGST,163625.00,0.0000,,,,98,109,204*6D

$GPRMC,163626.00,V,,,,,,,210122,,,N*79

$GPVTG,,,,,,,,,N*30

$GPGGA,163626.00,,,,,0,04,17.71,,,,,,*64

$GPGSA,A,1,02,20,05,18,,,,,,,,,31.98,17.71,26.63*3E

$GPGSV,3,1,11,02,34,053,46,05,03,111,35,11,28,051,45,12,,,42*41

$GPGSV,3,2,11,18,15,185,34,20,10,085,44,24,,,30,25,,,40*76

$GPGSV,3,3,11,29,,,34,31,,,35,32,,,42*76

$GPGLL,,,,,163626.00,V,N*4C

$GPGST,163626.00,12,,,,68,76,142*44

$GPRMC,163627.00,V,,,,,,,210122,,,N*78

$GPVTG,,,,,,,,,N*30

$GPGGA,163627.00,,,,,0,04,17.71,,,,,,*65

$GPGSA,A,1,02,20,05,18,,,,,,,,,31.99,17.71,26.64*38

$GPGSV,3,1,11,02,34,053,48,05,03,111,31,11,28,051,44,12,,,44*4C

$GPGSV,3,2,11,18,15,185,37,20,10,085,40,24,,,36,25,,,38*78

$GPGSV,3,3,11,29,,,39,31,,,32,32,,,34*7D

$GPGLL,,,,,163627.00,V,N*4D

$GPGST,163627.00,18,,,,52,61,101*47

$GPRMC,163628.00,V,,,,,,,210122,,,N*77

$GPVTG,,,,,,,,,N*30

$GPGGA,163628.00,,,,,0,04,17.72,,,,,,*69

$GPGSA,A,1,02,20,05,18,,,,,,,,,32.00,17.72,26.65*39

$GPGSV,3,1,11,02,34,053,47,05,03,111,31,11,28,051,49,12,,,36*4B

$GPGSV,3,2,11,18,15,185,37,20,10,085,45,24,,,39,25,,,30*7A

$GPGSV,3,3,11,29,,,34,31,,,36,32,,,41*76

$GPGLL,,,,,163628.00,V,N*42

$GPGST,163628.00,17,,,,52,59,105*48

$GPRMC,163629.00,V,,,,,,,210122,,,N*76

$GPVTG,,,,,,,,,N*30

$GPGGA,163629.00,,,,,0,04,17.72,,,,,,*68

$GPGSA,A,1,02,20,05,18,,,,,,,,,32.01,17.72,26.66*3B

$GPGSV,3,1,11,02,34,053,47,05,03,111,39,11,28,051,47,12,,,36*4D

$GPGSV,3,2,11,18,15,185,43,20,10,085,46,24,,,30,25,,,24*76

$GPGSV,3,3,11,29,,,34,31,,,29,32,,,28*77

$GPGLL,,,,,163629.00,V,N*43

$GPGST,163629.00,8.5,,,,46,51,94*58

!AIVDM,1,1,,A,13caqf?P0UQ4U>VG5h;I0gvr28A6,0*25

$GPRMC,163630.00,V,,,,,,,210122,,,N*7E

$GPVTG,,,,,,,,,N*30

$GPGGA,163630.00,,,,,0,04,17.72,,,,,,*60

$GPGSA,A,1,02,20,05,18,,,,,,,,,32.03,17.72,26.68*37

$GPGSV,3,1,11,02,34,053,46,05,03,111,34,11,28,051,45,12,,,35*40

$GPGSV,3,2,11,18,15,185,38,20,10,085,46,24,,,36,25,,,31*78

$GPGSV,3,3,11,29,,,37,31,,,33,32,,,28*7F

$GPGLL,,,,,163630.00,V,N*4B

$GPGST,163630.00,11,,,,43,48,89*72

$GPRMC,163631.00,V,,,,,,,210122,,,N*7F

$GPVTG,,,,,,,,,N*30

$GPGGA,163631.00,,,,,0,04,17.73,,,,,,*60

$GPGSA,A,1,02,20,05,18,,,,,,,,,32.04,17.73,26.69*30

$GPGSV,3,1,11,02,34,053,43,05,03,111,43,11,28,051,43,12,,,43*42

$GPGSV,3,2,11,18,15,185,30,20,10,085,43,24,,,32,25,,,31*71

$GPGSV,3,3,11,29,,,34,31,,,39,32,,,35*7A

$GPGLL,,,,,163631.00,V,N*4A

$GPGST,163631.00,17,,,,39,44,83*7E

!AIVDM,1,1,,B,402FhSAvHJhTP14l9`G2AQ700<0g,0*3E

$GPRMC,163632.00,V,,,,,,,210122,,,N*7C

$GPVTG,,,,,,,,,N*30

$GPGGA,163632.00,,,,,0,04,17.73,,,,,,*63

$GPGSA,A,1,02,20,05,18,,,,,,,,,32.05,17.73,26.70*39

$GPGSV,3,1,11,02,34,053,46,05,03,111,40,11,28,051,48,12,,,48*44

$GPGSV,3,2,11,18,15,185,41,20,10,085,37,24,,,35,25,,,26*75

$GPGSV,3,3,11,29,,,35,31,,,37,32,,,31*71

$GPGLL,,,,,163632.00,V,N*49

$GPGST,163632.00,8.4,,,,37,41,78*56

$GPRMC,163633.00,V,,,,,,,210122,,,N*7D

$GPVTG,,,,,,,,,N*30

$GPGGA,163633.00,,,,,0,04,17.73,,,,,,*62

$GPGSA,A,1,02,20,05,18,,,,,,,,,32.06,17.73,26.71*3B

$GPGSV,3,1,11,02,34,053,46,05,03,111,43,11,28,051,45,12,,,37*42

$GPGSV,3,2,11,18,15,185,31,20,10,085,43,24,,,28,25,,,25*7E

$GPGSV,3,3,11,29,,,31,31,,,35,32,,,39*7F

$GPGLL,,,,,163633.00,V,N*48

$GPGST,163633.00,16,,,,35,38,74*72

$GPRMC,163634.00,V,,,,,,,210122,,,N*7A

$GPVTG,,,,,,,,,N*30

$GPGGA,163634.00,,,,,0,04,17.74,,,,,,*62

$GPGSA,A,1,02,20,05,18,,,,,,,,,32.07,17.74,26.72*3E

$GPGSV,3,1,11,02,34,053,47,05,03,111,40,11,28,051,36,12,,,38*4B

$GPGSV,3,2,11,18,15,185,34,20,10,085,44,24,,,32,25,,,37*74

$GPGSV,3,3,11,29,,,38,31,,,32,32,,,35*7D

$GPGLL,,,,,163634.00,V,N*4F

$GPGST,163634.00,10,,,,33,36,70*7F

!AIVDM,1,1,,B,ENjOsr0tg@6a9Qh;2W4QRP000000L;g4<wpI000000N010,4*2A

$GPRMC,163635.00,V,,,,,,,210122,,,N*7B

$GPVTG,,,,,,,,,N*30

$GPGGA,163635.00,,,,,0,04,17.74,,,,,,*63

$GPGSA,A,1,02,20,05,18,,,,,,,,,32.08,17.74,26.73*30

$GPGSV,3,1,11,02,34,053,46,05,03,111,35,11,28,051,47,12,,,41*40

$GPGSV,3,2,11,18,15,185,39,20,10,085,47,24,,,33,25,,,25*78

$GPGSV,3,3,11,29,,,37,31,,,32,32,,,32*75

$GPGLL,,,,,163635.00,V,N*4E

$GPGST,163635.00,9.4,,,,32,35,68*57

$GPRMC,163636.00,V,,,,,,,210122,,,N*78

$GPVTG,,,,,,,,,N*30

$GPGGA,163636.00,,,,,0,04,17.74,,,,,,*60

$GPGSA,A,1,02,20,05,18,,,,,,,,,32.10,17.74,26.75*3F

$GPGSV,3,1,11,02,34,053,48,05,03,111,30,11,28,051,38,12,,,34*41

$GPGSV,3,2,11,18,15,185,39,20,10,085,46,24,,,32,25,,,36*7A

$GPGSV,3,3,11,29,,,31,31,,,39,32,,,26*7D

$GPGLL,,,,,163636.00,V,N*4D

$GPGST,163636.00,19,,,,31,35,67*73

$AITXT,01,01,05,CSTDMA acquisition complete*39

$GPRMC,163637.00,V,,,,,,,210122,,,N*79

$GPVTG,,,,,,,,,N*30

$GPGGA,163637.00,,,,,0,04,17.75,,,,,,*60

$GPGSA,A,1,02,20,05,18,,,,,,,,,32.11,17.75,26.76*3C

$GPGSV,3,1,12,01,,,25,02,34,053,44,05,03,111,39,11,28,051,45*4F

$GPGSV,3,2,12,12,,,40,18,15,185,23,20,10,085,43,24,,,35*75

$GPGSV,3,3,12,25,,,43,29,,,39,31,,,34,32,,,40*7B

$GPGLL,,,,,163637.00,V,N*4C

$GPGST,163637.00,30,,,,30,33,64*7D

!AIVDM,1,1,,A,ENjOWwk2psHr@1Pab2V67h2CTaQPOuhE;alu`10888N0022@@0,4*55

$GPRMC,163638.00,V,,,,,,,210122,,,N*76

$GPVTG,,,,,,,,,N*30

$GPGGA,163638.00,,,,,0,04,17.75,,,,,,*6F

$GPGSA,A,1,02,20,05,18,,,,,,,,,32.12,17.75,26.77*3E

$GPGSV,4,1,13,01,,,23,02,34,053,46,03,,,24,05,03,111,31*7F

$GPGSV,4,2,13,11,28,051,41,12,,,36,18,15,185,43,20,10,085,42*4E

$GPGSV,4,3,13,24,,,28,25,,,34,29,,,39,31,,,40*77

$GPGSV,4,4,13,32,,,33*7A

$GPGLL,,,,,163638.00,V,N*43

$GPGST,163638.00,14,,,,30,33,63*73

$GPRMC,163639.00,V,,,,,,,210122,,,N*77

$GPVTG,,,,,,,,,N*30

$GPGGA,163639.00,,,,,0,04,17.75,,,,,,*6E

$GPGSA,A,1,02,20,05,18,,,,,,,,,32.13,17.75,26.78*30

$GPGSV,4,1,13,01,,,22,02,34,053,45,03,,,21,05,03,111,35*7C

$GPGSV,4,2,13,11,28,051,38,12,,,39,18,15,185,34,20,10,085,41*4C

$GPGSV,4,3,13,24,,,33,25,,,23,29,,,39,31,,,27*7A

$GPGSV,4,4,13,32,,,30*79

$GPGLL,,,,,163639.00,V,N*42

$GPGST,163639.00,12,,,,29,33,62*7D

!AIVDM,1,1,,A,ENjO`0C2psIH@1P`7h6TaRW7P000P?lb;bc2`10888N000,4*2E

$GPRMC,163640.00,V,,,,,,,210122,,,N*79

$GPVTG,,,,,,,,,N*30

$GPGGA,163640.00,,,,,0,04,17.76,,,,,,*63

$GPGSA,A,1,02,20,05,18,,,,,,,,,32.14,17.76,26.79*35

$GPGSV,3,1,12,01,,,21,02,34,053,42,03,,,18,05,03,111,38*79

$GPGSV,3,2,12,11,28,051,39,18,15,185,34,20,10,085,37,24,,,33*45

$GPGSV,3,3,12,25,,,34,29,,,43,31,,,37,32,,,25*76

$GPGLL,,,,,163640.00,V,N*4C

$GPGST,163640.00,15,,,,29,32,61*76

$GPRMC,163641.00,V,,,,,,,210122,,,N*78

$GPVTG,,,,,,,,,N*30

$GPGGA,163641.00,,,,,0,04,17.76,,,,,,*62

$GPGSA,A,1,02,20,05,18,,,,,,,,,32.16,17.76,26.81*30

$GPGSV,3,1,11,02,34,053,45,05,03,111,43,11,28,051,41,12,,,38*4A

$GPGSV,3,2,11,18,15,185,37,20,10,085,41,24,,,32,25,,,37*72

$GPGSV,3,3,11,29,,,42,31,,,42,32,,,37*75

$GPGLL,,,,,163641.00,V,N*4D

$GPGST,163641.00,8.7,,,,28,31,59*5B

!AIVDM,1,1,,B,ENjO`1C2psqI@1P`7h2CWa9WP000QVP`;`11h10888N000,4*00

!AIVDM,1,1,,A,402FhSAvHJhTb14l9`G2AQ70062@,0*20

$GPRMC,163642.00,V,,,,,,,210122,,,N*7B

$GPVTG,,,,,,,,,N*30

$GPGGA,163642.00,,,,,0,04,17.76,,,,,,*61

$GPGSA,A,1,02,20,05,18,,,,,,,,,32.17,17.76,26.82*32

$GPGSV,3,1,12,02,34,053,38,05,03,111,43,11,28,051,39,12,,,36*42

$GPGSV,3,2,12,18,15,185,37,20,10,085,32,24,,,26,25,,,41*71

$GPGSV,3,3,12,29,,,38,30,,,28,31,,,41,32,,,31*77

$GPGLL,,,,,163642.00,V,N*4E

$GPGST,163642.00,20,,,,27,30,58*74

$GPRMC,163643.00,V,,,,,,,210122,,,N*7A

$GPVTG,,,,,,,,,N*30

$GPGGA,163643.00,,,,,0,04,17.77,,,,,,*61

$GPGSA,A,1,02,20,05,18,,,,,,,,,32.18,17.77,26.83*3D

$GPGSV,4,1,13,02,34,053,39,05,03,111,41,11,28,051,43,12,,,36*4A

$GPGSV,4,2,13,18,15,185,38,20,10,085,35,24,,,35,25,,,39*72

$GPGSV,4,3,13,26,,,28,29,,,41,30,,,26,31,,,37*7D

$GPGSV,4,4,13,32,,,26*7E

$GPGLL,,,,,163643.00,V,N*4F

$GPGST,163643.00,22,,,,27,29,57*70

$GPRMC,163644.00,V,,,,,,,210122,,,N*7D

$GPVTG,,,,,,,,,N*30

!AIVDM,1,1,,B,ENjO`1k2psrH@1P`7h80V4W:a7P0RuGh;LojP10888N000,4*7C

$GPGGA,163644.00,,,,,0,04,17.77,,,,,,*66

$GPGSA,A,1,02,20,05,18,,,,,,,,,32.19,17.77,26.84*3B

$GPGSV,4,1,13,02,34,053,45,05,03,111,37,11,28,051,39,12,,,41*4D

$GPGSV,4,2,13,18,15,185,43,20,10,085,38,24,,,26,25,,,37*7F

$GPGSV,4,3,13,26,,,26,29,,,34,30,,,25,31,,,41*73

$GPGSV,4,4,13,32,,,31*78

$GPGLL,,,,,163644.00,V,N*48

$GPGST,163644.00,17,,,,26,29,56*71

$GPRMC,163645.00,V,,,,,,,210122,,,N*7C

$GPVTG,,,,,,,,,N*30

$GPGGA,163645.00,,,,,0,04,17.77,,,,,,*67

$GPGSA,A,1,02,20,05,18,,,,,,,,,32.20,17.77,26.86*33

$GPGSV,4,1,13,02,34,053,40,05,03,111,31,11,28,051,46,12,,,45*42

$GPGSV,4,2,13,18,15,185,39,20,10,085,43,24,,,25,25,,,40*7D

$GPGSV,4,3,13,26,,,27,29,,,31,30,,,24,31,,,32*72

$GPGSV,4,4,13,32,,,24*7C

$GPGLL,,,,,163645.00,V,N*49

$GPGST,163645.00,19,,,,26,29,56*7E

$GPRMC,163646.00,V,,,,,,,210122,,,N*7F

$GPVTG,,,,,,,,,N*30

$GPGGA,163646.00,,,,,0,04,17.78,,,,,,*6B

$GPGSA,A,1,02,20,05,18,,,,,,,,,32.22,17.78,26.87*3F

$GPGSV,4,1,13,02,34,053,42,05,03,111,42,11,28,051,38,12,,,45*4D

$GPGSV,4,2,13,18,15,185,41,20,10,085,43,24,,,37,25,,,34*72

$GPGSV,4,3,13,26,,,29,29,,,35,30,,,22,31,,,35*79

$GPGSV,4,4,13,32,,,35*7C

$GPGLL,,,,,163646.00,V,N*4A

$GPGST,163646.00,8.9,,,,25,28,54*5A

$GPRMC,163647.00,V,,,,,,,210122,,,N*7E

$GPVTG,,,,,,,,,N*30

$GPGGA,163647.00,,,,,0,04,17.78,,,,,,*6A

$GPGSA,A,1,02,20,05,18,,,,,,,,,32.23,17.78,26.88*31

$GPGSV,4,1,13,02,34,053,47,05,03,111,32,11,28,051,44,12,,,35*43

$GPGSV,4,2,13,18,15,185,27,20,10,085,45,24,,,32,25,,,41*73

$GPGSV,4,3,13,26,,,33,29,,,35,30,,,23,31,,,34*72

$GPGSV,4,4,13,32,,,41*7F

$GPGLL,,,,,163647.00,V,N*4B

$GPGST,163647.00,27,,,,25,28,54*71

!AIVDM,1,1,,A,13caqf?P0TQ4U8fG5gfq9gwN28Km,0*1D

$GPRMC,163648.00,V,,,,,,,210122,,,N*71

$GPVTG,,,,,,,,,N*30

$GPGGA,163648.00,,,,,0,04,17.78,,,,,,*65

$GPGSA,A,1,02,20,05,18,,,,,,,,,32.24,17.78,26.89*37

$GPGSV,3,1,12,02,34,053,44,05,03,111,31,11,28,051,45,12,,,39*48

$GPGSV,3,2,12,18,15,185,33,20,10,085,45,24,,,41,25,,,34*76

$GPGSV,3,3,12,26,,,29,29,,,35,31,,,34,32,,,35*7A

$GPGLL,,,,,163648.00,V,N*44

$GPGST,163648.00,22,,,,25,28,53*7C

$GPRMC,163649.00,V,,,,,,,210122,,,N*70

$GPVTG,,,,,,,,,N*30

$GPGGA,163649.00,,,,,0,04,17.79,,,,,,*65

$GPGSA,A,1,02,20,05,18,,,,,,,,,32.25,17.79,26.90*3F

$GPGSV,3,1,12,02,34,053,45,05,03,111,44,11,28,051,46,12,,,39*48

$GPGSV,3,2,12,18,15,185,41,20,10,085,39,24,,,37,25,,,36*7B

$GPGSV,3,3,12,26,,,27,29,,,27,31,,,30,32,,,28*7F

$GPGLL,,,,,163649.00,V,N*45

$GPGST,163649.00,13,,,,25,27,53*70

$GPRMC,163650.00,V,,,,,,,210122,,,N*78

$GPVTG,,,,,,,,,N*30

$GPGGA,163650.00,,,,,0,04,17.79,,,,,,*6D

$GPGSA,A,1,02,20,05,18,,,,,,,,,32.26,17.79,26.92*3E

$GPGSV,3,1,11,02,34,053,49,05,03,111,39,11,28,051,44,12,,,42*43

$GPGSV,3,2,11,18,15,185,36,20,10,085,45,24,,,38,25,,,37*7D

$GPGSV,3,3,11,29,,,37,31,,,36,32,,,36*75

$GPGLL,,,,,163650.00,V,N*4D

$GPGST,163650.00,10,,,,24,27,52*7B

$GPRMC,163651.00,V,,,,,,,210122,,,N*79

$GPVTG,,,,,,,,,N*30

$GPGGA,163651.00,,,,,0,04,17.79,,,,,,*6C

$GPGSA,A,1,02,20,05,18,,,,,,,,,32.28,17.79,26.93*31

$GPGSV,3,1,11,02,34,053,42,05,03,111,30,11,28,051,47,12,,,42*42

$GPGSV,3,2,11,18,15,185,31,20,10,085,45,24,,,37,25,,,32*70

$GPGSV,3,3,11,29,,,26,31,,,35,32,,,29*78

$GPGLL,,,,,163651.00,V,N*4C

$GPGST,163651.00,21,,,,24,27,51*7B

!AIVDM,1,1,,B,402FhSAvHJhTl14l9`G2AQ7008NO,0*50

$GPRMC,163652.00,V,,,,,,,210122,,,N*7A

$GPVTG,,,,,,,,,N*30

$GPGGA,163652.00,,,,,0,04,17.80,,,,,,*69

$GPGSA,A,1,02,20,05,18,,,,,,,,,32.29,17.80,26.94*31

$GPGSV,3,1,11,02,34,053,47,05,03,111,33,11,28,051,44,12,,,45*40

$GPGSV,3,2,11,18,15,185,36,20,10,085,44,24,,,32,25,,,37*76

$GPGSV,3,3,11,29,,,38,31,,,39,32,,,36*75

$GPGLL,,,,,163652.00,V,N*4F

$GPGST,163652.00,12,,,,24,27,51*78

$GPRMC,163653.00,V,,,,,,,210122,,,N*7B

$GPVTG,,,,,,,,,N*30

$GPGGA,163653.00,,,,,0,04,17.80,,,,,,*68

$GPGSA,A,1,02,20,05,18,,,,,,,,,32.30,17.80,26.95*38

$GPGSV,3,1,11,02,34,053,47,05,03,111,40,11,28,051,47,12,,,40*42

$GPGSV,3,2,11,18,15,185,32,20,10,085,45,24,,,32,25,,,37*73

$GPGSV,3,3,11,29,,,37,31,,,28,32,,,36*7A

$GPGLL,,,,,163653.00,V,N*4E

$GPGST,163653.00,13,,,,23,26,50*7F

$GPRMC,163654.00,V,,,,,,,210122,,,N*7C

$GPVTG,,,,,,,,,N*30

$GPGGA,163654.00,,,,,0,04,17.80,,,,,,*6F

$GPGSA,A,1,02,20,05,18,,,,,,,,,32.31,17.80,26.96*3A

$GPGSV,3,1,11,02,34,053,39,05,03,111,39,11,28,051,48,12,,,43*49

$GPGSV,3,2,11,18,15,185,37,20,10,085,43,24,,,31,25,,,34*70

$GPGSV,3,3,11,29,,,31,31,,,38,32,,,21*7B

$GPGLL,,,,,163654.00,V,N*49

$GPGST,163654.00,13,,,,23,26,49*70

$GPRMC,163655.00,V,,,,,,,210122,,,N*7D

$GPVTG,,,,,,,,,N*30

$GPGGA,163655.00,,,,,0,04,17.81,,,,,,*6F

$GPGSA,A,1,02,20,05,18,,,,,,,,,32.32,17.81,26.98*36

$GPGSV,3,1,11,02,34,053,47,05,03,111,35,11,28,051,47,12,,,41*41

$GPGSV,3,2,11,18,15,185,43,20,10,085,42,24,,,34,25,,,23*71

$GPGSV,3,3,11,29,,,37,31,,,40,32,,,36*74

$GPGLL,,,,,163655.00,V,N*48

$GPGST,163655.00,11,,,,23,26,49*73

$GPRMC,163656.00,V,,,,,,,210122,,,N*7E

$GPVTG,,,,,,,,,N*30

$GPGGA,163656.00,,,,,0,04,17.81,,,,,,*6C

$GPGSA,A,1,02,20,05,18,,,,,,,,,32.34,17.81,26.99*31

$GPGSV,3,1,12,02,34,053,48,05,03,111,35,11,28,051,46,12,,,41*4C

$GPGSV,3,2,12,18,15,185,43,20,10,085,45,24,,,24,25,,,39*7F

$GPGSV,3,3,12,27,,,23,29,,,35,31,,,40,32,,,29*7F

$GPGLL,,,,,163656.00,V,N*4B

$GPGST,163656.00,10,,,,23,25,48*73

$GPRMC,163657.00,V,,,,,,,210122,,,N*7F

$GPVTG,,,,,,,,,N*30

$GPGGA,163657.00,,,,,0,04,17.82,,,,,,*6E

$GPGSA,A,1,02,20,05,18,,,,,,,,,32.35,17.82,27.00*32

$GPGSV,3,1,12,02,34,053,45,05,03,111,31,11,28,051,45,12,,,37*47

$GPGSV,3,2,12,18,15,185,35,20,10,085,46,24,,,31,25,,,38*78

$GPGSV,3,3,12,27,,,19,29,,,38,31,,,40,32,,,28*7A

$GPGLL,,,,,163657.00,V,N*4A

$GPGST,163657.00,17,,,,23,25,48*75

!AIVDM,1,1,,B,13caqf?P0QQ4U5PG5gPa8Owj2<0i,0*70

$GPRMC,163658.00,V,,,,,,,210122,,,N*70

$GPVTG,,,,,,,,,N*30

$GPGGA,163658.00,,,,,0,04,17.82,,,,,,*61

$GPGSA,A,1,02,20,05,18,,,,,,,,,32.36,17.82,27.01*30

$GPGSV,3,1,11,02,34,053,47,05,03,111,38,11,28,051,46,12,,,41*4D

$GPGSV,3,2,11,18,15,185,35,20,10,085,44,24,,,37,25,,,36*71

$GPGSV,3,3,11,29,,,30,31,,,38,32,,,36*7C

$GPGLL,,,,,163658.00,V,N*45

$GPGST,163658.00,9.8,,,,22,25,47*5D

$GPRMC,163659.00,V,,,,,,,210122,,,N*71

$GPVTG,,,,,,,,,N*30

$GPGGA,163659.00,,,,,0,04,17.82,,,,,,*60

$GPGSA,A,1,02,20,05,18,,,,,,,,,32.37,17.82,27.02*32

$GPGSV,3,1,11,02,34,053,43,05,03,111,36,11,28,051,39,12,,,46*48

$GPGSV,3,2,11,18,15,185,40,20,10,085,40,24,,,39,25,,,38*77

$GPGSV,3,3,11,29,,,33,31,,,36,32,,,29*7F

$GPGLL,,,,,163659.00,V,N*44

$GPGST,163659.00,8.7,,,,22,25,47*52

$GPRMC,163700.00,V,,,,,,,210122,,,N*7C

$GPVTG,,,,,,,,,N*30

$GPGGA,163700.00,,,,,0,04,17.83,,,,,,*6C

$GPGSA,A,1,02,20,05,18,,,,,,,,,32.38,17.83,27.04*3A

$GPGSV,3,1,11,02,34,053,41,05,03,111,36,11,28,051,43,12,,,40*41

$GPGSV,3,2,11,18,15,185,30,20,10,085,45,24,,,30,25,,,36*72

$GPGSV,3,3,11,29,,,38,31,,,31,32,,,36*7D

$GPGLL,,,,,163700.00,V,N*49

$GPGST,163700.00,18,,,,22,24,46*77

$GPRMC,163701.00,V,,,,,,,210122,,,N*7D

$GPVTG,,,,,,,,,N*30

$GPGGA,163701.00,,,,,0,04,17.83,,,,,,*6D

$GPGSA,A,1,02,20,05,18,,,,,,,,,32.40,17.83,27.05*34

$GPGSV,3,1,11,02,34,053,44,05,03,111,38,11,28,051,35,12,,,39*45

$GPGSV,3,2,11,18,15,185,43,20,10,085,33,24,,,23,25,,,37*74

$GPGSV,3,3,11,29,,,28,31,,,35,32,,,33*7D

$GPGLL,,,,,163701.00,V,N*48

$GPGST,163701.00,11,,,,21,24,46*7C

!AIVDM,1,1,,A,402FhSAvHJhU214l9`G2AQ700<0f,0*5F

$GPRMC,163702.00,A,4021.83330,N,01457.99645,E,1.662,283.43,210122,,,A*6C

$AITXT,01,01,10,GPS fix obtained*7C

$GPVTG,283.43,T,,M,1.662,N,3.077,K,A*33

$GPGGA,163702.00,4021.83330,N,01457.99645,E,1,05,2.13,15.8,M,40.2,M,,*6E

$GPGSA,A,3,02,31,20,05,18,,,,,,,,5.69,2.13,5.28*09

$GPGSV,3,1,11,02,34,053,46,05,03,111,30,11,28,051,39,12,,,41*4C

$GPGSV,3,2,11,18,15,185,38,20,10,085,44,24,,,34,25,,,41*7F

$GPGSV,3,3,11,29,,,36,31,39,307,32,32,,,32*4A

$GPGLL,4021.83330,N,01457.99645,E,163702.00,A,A*64

$GPGST,163702.00,16,,,,15,16,31*7E

$GPRMC,163703.00,A,4021.83474,N,01457.99379,E,2.276,279.30,210122,,,A*63

$GPVTG,279.30,T,,M,2.276,N,4.215,K,A*31

$GPGGA,163703.00,4021.83474,N,01457.99379,E,1,04,2.22,10.6,M,40.2,M,,*6A

$GPGSA,A,3,02,31,20,18,,,,,,,,,6.55,2.22,6.16*0C

$GPGSV,3,1,11,02,34,053,43,05,03,111,37,11,28,051,36,12,,,44*44

$GPGSV,3,2,11,18,15,185,42,20,10,085,40,24,,,30,25,,,37*73

$GPGSV,3,3,11,29,,,25,31,39,307,35,32,,,41*4B

$GPGLL,4021.83474,N,01457.99379,E,163703.00,A,A*68

$GPGST,163703.00,8.8,,,,10,11,22*56

$GPRMC,163704.00,A,4021.83470,N,01457.99328,E,1.609,279.57,210122,,,A*6A

$GPVTG,279.57,T,,M,1.609,N,2.979,K,A*38

$GPGGA,163704.00,4021.83470,N,01457.99328,E,1,04,2.22,11.0,M,40.2,M,,*6A

$GPGSA,A,3,02,31,20,18,,,,,,,,,6.55,2.22,6.17*0D

$GPGSV,3,1,11,02,34,053,43,05,03,111,35,11,28,051,46,12,,,44*41

$GPGSV,3,2,11,18,15,185,37,20,10,085,45,24,,,34,25,,,31*76

$GPGSV,3,3,11,29,,,34,31,39,307,33,32,,,39*42

$GPGLL,4021.83470,N,01457.99328,E,163704.00,A,A*6F

$GPGST,163704.00,11,,,,9.1,9.5,20*78

!AIVDM,1,1,,B,D02FhS@0lN?b<`N00m4v000,2*1E

$GPRMC,163705.00,A,4021.83487,N,01457.99254,E,2.755,280.98,210122,,,A*67

$GPVTG,280.98,T,,M,2.755,N,5.102,K,A*35

$GPGGA,163705.00,4021.83487,N,01457.99254,E,1,04,2.22,10.9,M,40.2,M,,*61

$GPGSA,A,3,02,31,20,18,,,,,,,,,6.56,2.22,6.17*0E

$GPGSV,4,1,13,02,34,053,46,05,03,111,41,08,,,26,09,,,28*72

$GPGSV,4,2,13,11,28,051,43,12,,,39,18,15,185,39,20,10,085,41*4D

$GPGSV,4,3,13,24,,,37,25,,,31,29,,,28,31,39,307,34*41

$GPGSV,4,4,13,32,,,32*7B

$GPGLL,4021.83487,N,01457.99254,E,163705.00,A,A*6C

$GPGST,163705.00,11,,,,8.2,8.5,18*71

$GPRMC,163706.00,A,4021.83495,N,01457.99226,E,1.175,284.62,210122,,,A*64

$GPVTG,284.62,T,,M,1.175,N,2.176,K,A*37

$GPGGA,163706.00,4021.83495,N,01457.99226,E,1,04,2.22,10.9,M,40.2,M,,*64

$GPGSA,A,3,02,31,20,18,,,,,,,,,6.56,2.22,6.17*0E

$GPGSV,4,1,15,02,34,053,47,05,03,111,42,08,,,28,09,,,26*76

$GPGSV,4,2,15,11,28,051,43,12,,,36,13,,,25,17,,,26*43

$GPGSV,4,3,15,18,15,185,39,20,10,085,49,24,,,35,25,,,23*74

$GPGSV,4,4,15,29,,,38,31,39,307,39,32,,,38*41

$GPGLL,4021.83495,N,01457.99226,E,163706.00,A,A*69

$GPGST,163706.00,7.9,,,,6.4,6.2,14*5F

$GPRMC,163707.00,A,4021.83515,N,01457.99165,E,1.797,284.34,210122,,,A*61

$GPVTG,284.34,T,,M,1.797,N,3.328,K,A*36

$GPGGA,163707.00,4021.83515,N,01457.99165,E,1,04,2.22,10.6,M,40.2,M,,*67

$GPGSA,A,3,02,31,20,18,,,,,,,,,6.56,2.22,6.18*01

$GPGSV,3,1,12,02,34,053,46,05,03,111,24,09,,,24,11,28,051,49*44

$GPGSV,3,2,12,12,,,34,18,15,185,42,20,10,085,46,24,,,31*70

$GPGSV,3,3,12,25,,,34,29,,,33,31,39,307,34,32,,,29*40

$GPGLL,4021.83515,N,01457.99165,E,163707.00,A,A*65

$GPGST,163707.00,11,,,,6.2,5.9,14*70

$GPRMC,163708.00,A,4021.83515,N,01457.99084,E,2.314,272.04,210122,3.83,E,A*35

$GPVTG,272.04,T,268.21,M,2.314,N,4.285,K,A*20

$GPGGA,163708.00,4021.83515,N,01457.99084,E,1,04,2.22,10.4,M,40.2,M,,*64

$GPGSA,A,3,02,31,20,18,,,,,,,,,6.57,2.22,6.18*00

$GPGSV,3,1,12,02,34,053,44,05,03,111,30,09,,,23,11,28,051,42*4F

$GPGSV,3,2,12,12,,,42,18,15,185,28,20,10,085,47,24,,,32*7F

$GPGSV,3,3,12,25,,,36,29,,,35,31,39,307,32,32,,,30*4A

$GPGLL,4021.83515,N,01457.99084,E,163708.00,A,A*64

$GPGST,163708.00,25,,,,6.1,5.8,14*7A

$GPRMC,163709.00,A,4021.83594,N,01457.98943,E,2.236,284.44,210122,3.83,E,A*32

$GPVTG,284.44,T,280.61,M,2.236,N,4.141,K,A*25

$GPGGA,163709.00,4021.83594,N,01457.98943,E,1,04,2.23,8.5,M,40.2,M,,*56

$GPGSA,A,3,02,31,20,18,,,,,,,,,6.57,2.23,6.18*01

$GPGSV,3,1,12,02,34,053,48,05,03,111,31,09,,,19,11,28,051,46*4F

$GPGSV,3,2,12,12,,,35,18,15,185,30,20,10,085,45,24,,,26*71

!AIVDM,1,1,,A,13caqf?P0NQ4U2FG5gAI8gvB262D,0*60

$GPGSV,3,3,12,25,,,36,29,,,38,31,39,307,43,32,,,28*48

$AITXT,01,01,17,Got sync to external*2B

$GPGLL,4021.83594,N,01457.98943,E,163709.00,A,A*6F

$GPGST,163709.00,19,,,,5.2,4.4,12*7F

$GPRMC,163710.00,A,4021.83615,N,01457.98877,E,2.029,285.28,210122,3.83,E,A*31

$GPVTG,285.28,T,281.45,M,2.029,N,3.757,K,A*23

$GPGGA,163710.00,4021.83615,N,01457.98877,E,1,04,2.23,8.5,M,40.2,M,,*52

$GPGSA,A,3,02,31,20,18,,,,,,,,,6.57,2.23,6.19*00

$GPGSV,3,1,12,02,34,053,43,05,03,111,41,09,,,16,11,28,051,45*4F

$GPGSV,3,2,12,12,,,34,18,15,185,38,20,10,085,43,24,,,33*7A

$GPGSV,3,3,12,25,,,40,29,,,28,31,39,307,34,32,,,29*49

$GPGLL,4021.83615,N,01457.98877,E,163710.00,A,A*6B

$GPGST,163710.00,10,,,,5.1,4.3,12*7A

$GPRMC,163711.00,A,4021.83636,N,01457.98805,E,1.543,282.21,210122,3.83,E,A*30

$GPVTG,282.21,T,278.38,M,1.543,N,2.859,K,A*2B

$GPGGA,163711.00,4021.83636,N,01457.98805,E,1,04,2.23,8.0,M,40.2,M,,*52

$GPGSA,A,3,02,31,20,18,,,,,,,,,6.58,2.23,6.19*0F

$GPGSV,3,1,11,02,34,053,46,05,03,111,36,11,28,051,45,12,,,40*40

$GPGSV,3,2,11,18,15,185,39,20,10,085,42,24,,,40,25,,,29*75

$GPGSV,3,3,11,29,,,37,31,39,307,37,32,,,36*4A

$GPGLL,4021.83636,N,01457.98805,E,163711.00,A,A*6E

$GPGST,163711.00,7.7,,,,4.9,4.1,11*5C

!AIVDM,1,1,,B,402FhSAvHJhU<14l9`G2AQ700873,0*04

$GPRMC,163712.00,A,4021.83629,N,01457.98749,E,1.976,280.69,210122,3.83,E,A*3E

$GPVTG,280.69,T,276.86,M,1.976,N,3.660,K,A*21

$GPGGA,163712.00,4021.83629,N,01457.98749,E,1,04,2.23,8.5,M,40.2,M,,*5D

$GPGSA,A,3,02,31,20,18,,,,,,,,,6.58,2.23,6.19*0F

$GPGSV,3,1,11,02,34,053,47,05,03,111,17,11,28,051,45,12,,,39*4C

$GPGSV,3,2,11,18,15,185,42,20,10,085,47,24,,,34,25,,,33*74

$GPGSV,3,3,11,29,,,24,31,39,307,31,32,,,29*40

$GPGLL,4021.83629,N,01457.98749,E,163712.00,A,A*64

$GPGST,163712.00,13,,,,4.9,4.1,11*73

$GPRMC,163713.00,A,4021.83637,N,01457.98693,E,1.871,281.86,210122,3.83,E,A*30

$GPVTG,281.86,T,278.02,M,1.871,N,3.466,K,A*21

$GPGGA,163713.00,4021.83637,N,01457.98693,E,1,04,2.23,8.7,M,40.2,M,,*57

$GPGSA,A,3,02,31,20,18,,,,,,,,,6.59,2.23,6.20*04

$GPGSV,3,1,11,02,34,053,43,05,03,111,29,11,28,051,46,12,,,43*4B

$GPGSV,3,2,11,18,15,185,34,20,10,085,44,24,,,40,25,,,36*70

$GPGSV,3,3,11,29,,,42,31,39,307,28,32,,,42*45

$GPGLL,4021.83637,N,01457.98693,E,163713.00,A,A*6C

$GPGST,163713.00,21,,,,4.9,4.1,11*73

!AIVDM,1,1,,A,ENjO`2BRpsrp@1P`7h24h17W4S0PTFa`;D5V810888N0052@,0*6A

$GPRMC,163714.00,A,4021.83683,N,01457.98560,E,1.606,283.88,210122,3.83,E,A*35

$GPVTG,283.88,T,280.05,M,1.606,N,2.974,K,A*2C

$GPGGA,163714.00,4021.83683,N,01457.98560,E,1,04,2.23,7.2,M,40.2,M,,*5A

$GPGSA,A,3,02,31,20,18,,,,,,,,,6.59,2.23,6.20*04

$GPGSV,3,1,11,02,34,053,44,05,03,111,34,11,28,051,42,12,,,36*46

$GPGSV,3,2,11,18,15,185,41,20,10,085,46,24,,,37,25,,,39*7F

$GPGSV,3,3,11,29,,,28,31,39,307,43,32,,,34*45

$GPGLL,4021.83683,N,01457.98560,E,163714.00,A,A*6B

$GPGST,163714.00,6.5,,,,4.5,3.6,10*57

$GPRMC,163715.00,A,4021.83705,N,01457.98478,E,1.788,279.08,210122,3.83,E,A*39

$GPVTG,279.08,T,275.25,M,1.788,N,3.312,K,A*25

$GPGGA,163715.00,4021.83705,N,01457.98478,E,1,04,2.23,6.5,M,40.2,M,,*5A

$GPGSA,A,3,02,31,20,18,,,,,,,,,6.59,2.23,6.20*04

$GPGSV,3,1,11,02,34,053,48,05,03,111,39,11,28,051,44,12,,,33*44

$GPGSV,3,2,11,18,15,185,39,20,10,085,40,24,,,42,25,,,35*78

$GPGSV,3,3,11,29,,,41,31,39,307,38,32,,,31*43

$GPGLL,4021.83705,N,01457.98478,E,163715.00,A,A*6D

$GPGST,163715.00,21,,,,4.5,3.4,10*7A

$GPRMC,163716.00,A,4021.83710,N,01457.98405,E,2.034,270.88,210122,3.83,E,A*36

$GPVTG,270.88,T,267.05,M,2.034,N,3.766,K,A*21

$GPGGA,163716.00,4021.83710,N,01457.98405,E,1,04,2.23,6.4,M,40.2,M,,*56

$GPGSA,A,3,02,31,20,18,,,,,,,,,6.60,2.23,6.21*0F

$GPGSV,3,1,11,02,34,053,45,05,03,111,27,11,28,051,43,12,,,46*43

$GPGSV,3,2,11,18,15,185,29,20,10,085,45,24,,,34,25,,,39*71

$GPGSV,3,3,11,29,,,33,31,39,307,37,32,,,33*4B

$GPGLL,4021.83710,N,01457.98405,E,163716.00,A,A*60

$GPGST,163716.00,25,,,,4.5,3.3,10*7A

$GPRMC,163717.00,A,4021.83773,N,01457.98288,E,2.409,287.33,210122,3.83,E,A*33

$GPVTG,287.33,T,283.50,M,2.409,N,4.461,K,A*2A

$GPGGA,163717.00,4021.83773,N,01457.98288,E,1,04,2.23,5.3,M,40.2,M,,*55

$GPGSA,A,3,02,31,20,18,,,,,,,,,6.60,2.23,6.21*0F

$GPGSV,3,1,11,02,34,053,46,05,03,111,39,11,28,051,47,12,,,39*43

$GPGSV,3,2,11,18,15,185,33,20,10,085,46,24,,,34,25,,,33*73

$GPGSV,3,3,11,29,,,38,31,39,307,41,32,,,32*40

$GPGLL,4021.83773,N,01457.98288,E,163717.00,A,A*67

$GPGST,163717.00,15,,,,4.6,3.0,9.7*59

$GPRMC,163718.00,A,4021.83793,N,01457.98232,E,1.483,291.32,210122,3.83,E,A*34

$GPVTG,291.32,T,287.49,M,1.483,N,2.747,K,A*20

$GPGGA,163718.00,4021.83793,N,01457.98232,E,1,04,2.23,5.4,M,40.2,M,,*52

$GPGSA,A,3,02,31,20,18,,,,,,,,,6.60,2.23,6.21*0F

$GPGSV,3,1,11,02,34,053,47,05,03,111,43,11,28,051,47,12,,,32*44

$GPGSV,3,2,11,18,15,185,38,20,10,085,47,24,,,38,25,,,33*75

$GPGSV,3,3,11,29,,,35,31,39,307,44,32,,,32*48

$GPGLL,4021.83793,N,01457.98232,E,163718.00,A,A*67

$GPGST,163718.00,8.4,,,,4.5,2.8,9.6*7B

!AIVDM,1,1,,B,13caqf?P0KQ4TwRG5g5qB?vT2@;2,0*47

$GPRMC,163719.00,A,4021.83771,N,01457.98199,E,1.503,289.63,210122,3.83,E,A*3F

$GPVTG,289.63,T,285.80,M,1.503,N,2.784,K,A*2C

$GPGGA,163719.00,4021.83771,N,01457.98199,E,1,04,2.23,6.4,M,40.2,M,,*5E

$GPGSA,A,3,02,31,20,18,,,,,,,,,6.61,2.23,6.22*0D

$GPGSV,3,1,11,02,34,053,40,05,03,111,43,11,28,051,47,12,,,36*47

$GPGSV,3,2,11,18,15,185,38,20,10,085,47,24,,,28,25,,,38*7F

$GPGSV,3,3,11,29,,,35,31,39,307,28,32,,,36*46

$GPGLL,4021.83771,N,01457.98199,E,163719.00,A,A*68

$GPGST,163719.00,22,,,,4.5,2.8,9.5*5B

$GPRMC,163720.00,A,4021.83755,N,01457.98171,E,1.164,284.50,210122,3.83,E,A*3D

$GPVTG,284.50,T,280.67,M,1.164,N,2.155,K,A*22

$GPGGA,163720.00,4021.83755,N,01457.98171,E,1,04,2.24,7.1,M,40.2,M,,*57

$GPGSA,A,3,02,31,20,18,,,,,,,,,6.61,2.24,6.22*0A

$GPGSV,3,1,11,02,34,053,43,05,03,111,39,11,28,051,48,12,,,35*45

$GPGSV,3,2,11,18,15,185,36,20,10,085,46,24,,,27,25,,,36*71

$GPGSV,3,3,11,29,,,38,31,39,307,26,32,,,30*43

$GPGLL,4021.83755,N,01457.98171,E,163720.00,A,A*62

$GPGST,163720.00,26,,,,4.5,2.9,9.6*57

!AIVDM,1,1,,A,D02FhSAQdN?b<`N01rhv000,2*37

$GPRMC,163721.00,A,4021.83760,N,01457.98122,E,1.860,278.97,210122,3.83,E,A*39

$GPVTG,278.97,T,275.14,M,1.860,N,3.446,K,A*2F

$GPGGA,163721.00,4021.83760,N,01457.98122,E,1,04,2.24,7.5,M,40.2,M,,*52

$GPGSA,A,3,02,31,20,18,,,,,,,,,6.61,2.24,6.22*0A

$GPGSV,3,1,11,02,34,053,44,05,03,111,36,11,28,051,50,12,,,42*44

$GPGSV,3,2,11,18,15,185,33,20,10,085,45,24,,,32,25,,,27*73

$GPGSV,3,3,11,29,,,35,31,39,307,27,32,,,36*49

$GPGLL,4021.83760,N,01457.98122,E,163721.00,A,A*63

$GPGST,163721.00,35,,,,4.6,3.1,9.7*5F

!AIVDM,1,1,,A,ENjOss@ps?@6a9Qh7V14PP000000Ei5<;eEl000000N010,4*2E

!AIVDM,1,1,,A,402FhSAvHJhUF14l9`G2AQ7008<r,0*37

$GPRMC,163722.00,A,4021.83761,N,01457.98028,E,2.541,280.26,210122,3.83,E,A*30

$GPVTG,280.26,T,276.43,M,2.541,N,4.706,K,A*2E

$GPGGA,163722.00,4021.83761,N,01457.98028,E,1,04,2.24,7.8,M,40.2,M,,*56

$GPGSA,A,3,02,31,20,18,,,,,,,,,6.62,2.24,6.23*08

$GPGSV,3,1,11,02,34,053,47,05,03,111,39,11,28,051,46,12,,,36*4C

$GPGSV,3,2,11,18,15,185,38,20,10,085,45,24,,,20,25,,,32*7F

$GPGSV,3,3,11,29,,,26,31,39,307,39,32,,,33*41

$GPGLL,4021.83761,N,01457.98028,E,163722.00,A,A*6A

$GPGST,163722.00,7.2,,,,4.5,3.0,9.6*72

$GPRMC,163723.00,A,4021.83769,N,01457.97956,E,1.872,280.02,210122,3.83,E,A*3E

$GPVTG,280.02,T,276.19,M,1.872,N,3.468,K,A*25

$GPGGA,163723.00,4021.83769,N,01457.97956,E,1,04,2.24,7.9,M,40.2,M,,*51

$GPGSA,A,3,02,31,20,18,,,,,,,,,6.62,2.24,6.23*08

$GPGSV,3,1,11,02,34,053,42,05,03,111,37,11,28,051,49,12,,,41*48

$GPGSV,3,2,11,18,15,185,27,20,10,085,45,24,,,39,25,,,38*73

$GPGSV,3,3,11,29,,,36,31,39,307,36,32,,,37*4B

$GPGLL,4021.83769,N,01457.97956,E,163723.00,A,A*6C

$GPGST,163723.00,34,,,,4.6,3.1,9.7*5C

!AIVDM,1,1,,B,ENjOss0pqg@6a9Qh1PSV4Pa4P000Dlb0;>2OP00000N010,4*66

$GPRMC,163724.00,A,4021.83780,N,01457.97898,E,1.731,283.94,210122,3.83,E,A*39

$GPVTG,283.94,T,280.11,M,1.731,N,3.206,K,A*2E

$GPGGA,163724.00,4021.83780,N,01457.97898,E,1,04,2.24,8.2,M,40.2,M,,*56

$GPGSA,A,3,02,31,20,18,,,,,,,,,6.62,2.24,6.23*08

$GPGSV,3,1,11,02,34,053,43,05,03,111,40,11,28,051,39,12,,,41*4E

$GPGSV,3,2,11,18,15,185,39,20,10,085,44,24,,,39,25,,,40*72

$GPGSV,3,3,11,29,,,34,31,39,307,35,32,,,33*4E

$GPGLL,4021.83780,N,01457.97898,E,163724.00,A,A*6F

$GPGST,163724.00,19,,,,4.8,3.1,9.8*55

$GPRMC,163725.00,A,4021.83781,N,01457.97840,E,1.398,278.02,210122,3.83,E,A*30

$GPVTG,278.02,T,274.19,M,1.398,N,2.589,K,A*20

$GPGGA,163725.00,4021.83781,N,01457.97840,E,1,04,2.24,8.1,M,40.2,M,,*50

$GPGSA,A,3,02,31,20,18,,,,,,,,,6.63,2.24,6.24*0E

$GPGSV,3,1,11,02,34,053,45,05,03,111,38,11,28,051,39,12,,,43*45

$GPGSV,3,2,11,18,15,185,45,20,10,085,44,24,,,36,25,,,39*78

$GPGSV,3,3,11,29,,,38,31,39,307,37,32,,,32*41

$GPGLL,4021.83781,N,01457.97840,E,163725.00,A,A*6A

$GPGST,163725.00,16,,,,4.8,3.1,10*75

$GPRMC,163726.00,A,4021.83774,N,01457.97782,E,1.716,275.13,210122,3.83,E,A*37

$GPVTG,275.13,T,271.30,M,1.716,N,3.178,K,A*2A

$GPGGA,163726.00,4021.83774,N,01457.97782,E,1,04,2.24,8.4,M,40.2,M,,*5D

$GPGSA,A,3,02,31,20,18,,,,,,,,,6.63,2.24,6.24*0E

$GPGSV,3,1,11,02,34,053,50,05,03,111,38,11,28,051,48,12,,,33*40

$GPGSV,3,2,11,18,15,185,39,20,10,085,38,24,,,35,25,,,35*77

$GPGSV,3,3,11,29,,,37,31,39,307,33,32,,,40*4F

$GPGLL,4021.83774,N,01457.97782,E,163726.00,A,A*62

$GPGST,163726.00,21,,,,4.9,3.2,10*70

$GPRMC,163727.00,A,4021.83767,N,01457.97709,E,2.088,276.24,210122,3.83,E,A*33

$GPVTG,276.24,T,272.41,M,2.088,N,3.868,K,A*23

$GPGGA,163727.00,4021.83767,N,01457.97709,E,1,04,2.24,8.9,M,40.2,M,,*50

$GPGSA,A,3,02,31,20,18,,,,,,,,,6.63,2.24,6.24*0E

$GPGSV,3,1,11,02,34,053,44,05,03,111,35,11,28,051,41,12,,,41*44

$GPGSV,3,2,11,18,15,185,45,20,10,085,43,24,,,37,25,,,35*72

$GPGSV,3,3,11,29,,,38,31,39,307,39,32,,,36*4B

$GPGLL,4021.83767,N,01457.97709,E,163727.00,A,A*62

$GPGST,163727.00,16,,,,4.8,3.3,10*75

!AIVDM,1,1,,B,ENjOsq0s?@6a9Qh10a4P00000000VVf@;i7s000000N010,4*2D

!AIVDM,1,1,,B,ENjOsphrg@6a9Qh92SSTWh1PV0Q0Slm@:r;8000000N014R@@0,4*20

$GPRMC,163728.00,A,4021.83767,N,01457.97641,E,1.850,275.74,210122,3.83,E,A*39

$GPVTG,275.74,T,271.91,M,1.850,N,3.426,K,A*23

$GPGGA,163728.00,4021.83767,N,01457.97641,E,1,04,2.24,9.1,M,40.2,M,,*5B

$GPGSA,A,3,02,31,20,18,,,,,,,,,6.64,2.24,6.25*08

$GPGSV,3,1,11,02,34,053,44,05,03,111,32,11,28,051,49,12,,,40*4A

$GPGSV,3,2,11,18,15,185,40,20,10,085,47,24,,,40,25,,,26*71

$GPGSV,3,3,11,29,,,36,31,39,307,26,32,,,43*49

$GPGLL,4021.83767,N,01457.97641,E,163728.00,A,A*60

$GPGST,163728.00,47,,,,4.9,3.4,10*78

!AIVDM,2,1,0,B,53caqf4000022000000nu210Tpv0hDl8v200000N00000vR<N00000000000,0*6F

!AIVDM,2,2,0,B,00000000000,2*27

$GPRMC,163729.00,A,4021.83760,N,01457.97589,E,1.414,274.73,210122,3.83,E,A*32

$GPVTG,274.73,T,270.90,M,1.414,N,2.619,K,A*26

$GPGGA,163729.00,4021.83760,N,01457.97589,E,1,04,2.24,9.3,M,40.2,M,,*58

$GPGSA,A,3,02,31,20,18,,,,,,,,,6.64,2.24,6.25*08

$GPGSV,3,1,11,02,34,053,47,05,03,111,28,11,28,051,39,12,,,44*41

$GPGSV,3,2,11,18,15,185,38,20,10,085,39,24,,,34,25,,,38*7B

$GPGSV,3,3,11,29,,,37,31,39,307,32,32,,,32*4B

$GPGLL,4021.83760,N,01457.97589,E,163729.00,A,A*61

$GPGST,163729.00,21,,,,4.9,3.5,10*78

!AIVDM,1,1,,A,13caqf?P0IQ4Tu4G5ftq;Ovr262D,0*44

$GPRMC,163730.00,A,4021.83738,N,01457.97541,E,1.697,266.86,210122,3.83,E,A*33

$GPVTG,266.86,T,263.02,M,1.697,N,3.143,K,A*26

$GPGGA,163730.00,4021.83738,N,01457.97541,E,1,04,2.24,10.0,M,40.2,M,,*62

$GPGSA,A,3,02,31,20,18,,,,,,,,,6.64,2.24,6.25*08

$GPGSV,3,1,11,02,34,053,45,05,03,111,33,11,28,051,49,12,,,33*4E

$GPGSV,3,2,11,18,15,185,35,20,10,085,44,24,,,37,25,,,36*71

$GPGSV,3,3,11,29,,,35,31,39,307,41,32,,,32*4D

$GPGLL,4021.83738,N,01457.97541,E,163730.00,A,A*60

$GPGST,163730.00,19,,,,5.0,3.5,11*72

!AIVDM,1,1,,A,ENjOsp@qg@6a9Qh1Tc4b0c2QQT4PKwS4;tmkP00000N010@,2*04

$GPRMC,163731.00,A,4021.83732,N,01457.97491,E,1.408,267.98,210122,3.83,E,A*3E

$GPVTG,267.98,T,264.15,M,1.408,N,2.607,K,A*2B

$GPGGA,163731.00,4021.83732,N,01457.97491,E,1,05,1.39,10.4,M,40.2,M,,*6F

$GPGSA,A,3,02,31,20,25,18,,,,,,,,2.56,1.39,2.14*03

$GPGSV,3,1,11,02,34,052,45,05,03,111,37,11,28,051,47,12,,,43*42

$GPGSV,3,2,11,18,15,185,41,20,10,085,39,24,,,23,25,72,045,38*47

$GPGSV,3,3,11,29,,,36,31,39,307,35,32,,,32*4D

$GPGLL,4021.83732,N,01457.97491,E,163731.00,A,A*67

$GPGST,163731.00,17,,,,4.6,3.3,9.8*53

!AIVDM,1,1,,B,402FhSAvHJhUP14l9`G2AQ7008Bi,0*47

$GPRMC,163732.00,A,4021.83736,N,01457.97413,E,1.982,264.41,210122,3.83,E,A*3B

$GPVTG,264.41,T,260.58,M,1.982,N,3.672,K,A*2D

$GPGGA,163732.00,4021.83736,N,01457.97413,E,1,05,1.40,10.1,M,40.2,M,,*69

$GPGSA,A,3,02,31,20,25,18,,,,,,,,2.56,1.40,2.14*0D

$GPGSV,3,1,11,02,34,052,47,05,03,111,39,11,28,051,48,12,,,36*43

$GPGSV,3,2,11,18,15,185,37,20,10,085,46,24,,,34,25,72,045,39*49

$GPGSV,3,3,11,29,,,35,31,39,307,37,32,,,32*4C

$GPGLL,4021.83736,N,01457.97413,E,163732.00,A,A*6A

$GPGST,163732.00,16,,,,4.4,3.2,9.3*59

!AIVDM,1,1,,B,83caqf0j2P00000000N0j@T50000,0*36

$GPRMC,163733.00,A,4021.83753,N,01457.97334,E,1.831,272.48,210122,3.83,E,A*3C

$GPVTG,272.48,T,268.65,M,1.831,N,3.391,K,A*24

$GPGGA,163733.00,4021.83753,N,01457.97334,E,1,05,1.40,9.9,M,40.2,M,,*59

$GPGSA,A,3,02,31,20,25,18,,,,,,,,2.56,1.40,2.14*0D

$GPGSV,3,1,11,02,34,052,47,05,03,111,39,11,28,051,49,12,,,44*47

$GPGSV,3,2,11,18,15,185,35,20,10,085,48,24,,,31,25,72,045,26*4E

$GPGSV,3,3,11,29,,,26,31,39,307,42,32,,,38*46

$GPGLL,4021.83753,N,01457.97334,E,163733.00,A,A*6A

$GPGST,163733.00,44,,,,4.4,3.1,9.3*5C

$GPRMC,163734.00,A,4021.83757,N,01457.97262,E,2.054,276.10,210122,3.83,E,A*3C

$GPVTG,276.10,T,272.27,M,2.054,N,3.805,K,A*2E

$GPGGA,163734.00,4021.83757,N,01457.97262,E,1,05,1.40,10.2,M,40.2,M,,*6B

$GPGSA,A,3,02,31,20,25,18,,,,,,,,2.56,1.40,2.14*0D

$GPGSV,3,1,11,02,34,052,47,05,03,111,43,11,28,051,39,12,,,34*4A

$GPGSV,3,2,11,18,15,185,39,20,10,085,41,24,,,35,25,72,045,41*4E

$GPGSV,3,3,11,29,,,32,31,39,307,36,32,,,32*4A

$GPGLL,4021.83757,N,01457.97262,E,163734.00,A,A*6B

$GPGST,163734.00,16,,,,4.3,3.1,9.2*5A

$GPRMC,163735.00,A,4021.83757,N,01457.97200,E,1.560,274.44,210122,3.83,E,A*3B

$GPVTG,274.44,T,270.61,M,1.560,N,2.889,K,A*29

$GPGGA,163735.00,4021.83757,N,01457.97200,E,1,05,1.40,10.3,M,40.2,M,,*6F

$GPGSA,A,3,02,31,20,25,18,,,,,,,,2.56,1.40,2.14*0D

$GPGSV,3,1,11,02,34,052,43,05,03,111,41,11,28,051,44,12,,,46*43

$GPGSV,3,2,11,18,15,185,38,20,10,085,48,24,,,37,25,72,045,34*46

$GPGSV,3,3,11,29,,,28,31,39,307,34,32,,,40*46

$GPGLL,4021.83757,N,01457.97200,E,163735.00,A,A*6E

$GPGST,163735.00,20,,,,4.3,3.1,9.1*5D

$GPRMC,163736.00,A,4021.83743,N,01457.97156,E,1.458,269.29,210122,3.83,E,A*30

$GPVTG,269.29,T,265.46,M,1.458,N,2.700,K,A*2B

$GPGGA,163736.00,4021.83743,N,01457.97156,E,1,05,1.40,10.9,M,40.2,M,,*63

$GPGSA,A,3,02,31,20,25,18,,,,,,,,2.56,1.40,2.14*0D

$GPGSV,3,1,11,02,34,052,45,05,03,111,40,11,28,051,39,12,,,36*49

$GPGSV,3,2,11,18,15,185,39,20,10,085,46,24,,,30,25,72,045,42*4F

$GPGSV,3,3,11,29,,,36,31,39,307,35,32,,,36*49

$GPGLL,4021.83743,N,01457.97156,E,163736.00,A,A*68

$GPGST,163736.00,17,,,,4.2,3.1,8.9*52

$GPRMC,163737.00,A,4021.83764,N,01457.97070,E,1.987,270.58,210122,3.83,E,A*30

$GPVTG,270.58,T,266.75,M,1.987,N,3.679,K,A*27

$GPGGA,163737.00,4021.83764,N,01457.97070,E,1,05,1.40,10.3,M,40.2,M,,*68

$GPGSA,A,3,02,31,20,25,18,,,,,,,,2.56,1.40,2.14*0D

$GPGSV,3,1,11,02,34,052,45,05,03,111,40,11,28,051,46,12,,,38*4F

$GPGSV,3,2,11,18,15,185,35,20,10,085,41,24,,,38,25,72,045,37*4E

$GPGSV,3,3,11,29,,,36,31,39,307,42,32,,,38*47

$GPGLL,4021.83764,N,01457.97070,E,163737.00,A,A*69

$GPGST,163737.00,17,,,,4.1,3.1,8.7*5E

$GPRMC,163738.00,A,4021.83763,N,01457.97003,E,1.802,268.98,210122,3.83,E,A*35

$GPVTG,268.98,T,265.15,M,1.802,N,3.337,K,A*24

$GPGGA,163738.00,4021.83763,N,01457.97003,E,1,05,1.40,10.3,M,40.2,M,,*64

$GPGSA,A,3,02,31,20,25,18,,,,,,,,2.56,1.40,2.14*0D

$GPGSV,3,1,11,02,34,052,47,05,03,111,42,11,28,051,48,12,,,44*4A

$GPGSV,3,2,11,18,15,185,36,20,10,085,47,24,,,28,25,72,045,31*4C

$GPGSV,3,3,11,29,,,36,31,39,307,26,32,,,38*45

$GPGLL,4021.83763,N,01457.97003,E,163738.00,A,A*65

$GPGST,163738.00,41,,,,4.2,3.1,8.7*51

!AIVDM,1,1,,B,13caqf?P0HQ4TrrG5fkqF?w<2@FK,0*57

$GPRMC,163739.00,A,4021.83760,N,01457.96939,E,1.915,269.90,210122,3.83,E,A*38

$GPVTG,269.90,T,266.07,M,1.915,N,3.547,K,A*2B

$GPGGA,163739.00,4021.83760,N,01457.96939,E,1,05,1.40,10.5,M,40.2,M,,*61

$GPGSA,A,3,02,31,20,25,18,,,,,,,,2.56,1.40,2.15*0C

$GPGSV,3,1,11,02,34,052,49,05,03,111,40,11,28,051,43,12,,,34*4A

$GPGSV,3,2,11,18,15,185,31,20,10,085,42,24,,,26,25,72,045,39*48

$GPGSV,3,3,11,29,,,35,31,39,307,37,32,,,34*4A

$GPGLL,4021.83760,N,01457.96939,E,163739.00,A,A*66

$GPGST,163739.00,26,,,,4.1,3.2,8.6*50

$GPRMC,163740.00,A,4021.83760,N,01457.96883,E,1.504,267.83,210122,3.83,E,A*36

$GPVTG,267.83,T,264.0,M,1.504,N,2.785,K,A*13

$GPGGA,163740.00,4021.83760,N,01457.96883,E,1,05,1.40,10.6,M,40.2,M,,*6C

$GPGSA,A,3,02,31,20,25,18,,,,,,,,2.56,1.40,2.15*0C

$GPGSV,3,1,11,02,34,052,47,05,03,111,40,11,28,051,46,12,,,40*42

$GPGSV,3,2,11,18,15,185,32,20,10,085,44,24,,,35,25,72,045,39*4F

$GPGSV,3,3,11,29,,,28,31,39,307,36,32,,,38*4B

$GPGLL,4021.83760,N,01457.96883,E,163740.00,A,A*68

$GPGST,163740.00,20,,,,4.1,3.1,8.4*59

$GPRMC,163741.00,A,4021.83753,N,01457.96820,E,1.587,264.27,210122,3.83,E,A*38

$GPVTG,264.27,T,260.44,M,1.587,N,2.939,K,A*28

$GPGGA,163741.00,4021.83753,N,01457.96820,E,1,05,1.40,10.6,M,40.2,M,,*64

$GPGSA,A,3,02,31,20,25,18,,,,,,,,2.56,1.40,2.15*0C

$GPGSV,3,1,11,02,34,052,48,05,03,111,42,11,28,051,40,12,,,44*4D

$GPGSV,3,2,11,18,15,185,40,20,10,085,45,24,,,32,25,72,045,41*43

$GPGSV,3,3,11,29,,,29,31,39,307,34,32,,,33*43

$GPGLL,4021.83753,N,01457.96820,E,163741.00,A,A*60

$GPGST,163741.00,18,,,,4.0,3.2,8.3*56

!AIVDM,1,1,,B,ENjOsrhpq?@6a9Qh80V2a6WP0000NUaH:r5g000000N010,4*24

!AIVDM,1,1,,A,402FhSAvHJhUb14l9`G2AQ7000S:,0*3C

$GPRMC,163742.00,A,4021.83748,N,01457.96758,E,1.843,263.87,210122,3.83,E,A*39

$GPVTG,263.87,T,260.04,M,1.843,N,3.413,K,A*20

$GPGGA,163742.00,4021.83748,N,01457.96758,E,1,05,1.40,10.7,M,40.2,M,,*6C

$GPGSA,A,3,02,31,20,25,18,,,,,,,,2.56,1.40,2.15*0C

$GPGSV,3,1,11,02,34,052,49,05,03,111,38,11,28,051,48,12,,,35*4F

$GPGSV,3,2,11,18,15,185,35,20,10,085,46,24,,,18,25,72,045,37*4B

$GPGSV,3,3,11,29,,,27,31,39,307,30,32,,,40*4D

$GPGLL,4021.83748,N,01457.96758,E,163742.00,A,A*69

$GPGST,163742.00,26,,,,4.0,3.2,8.3*58

$GPRMC,163743.00,A,4021.83743,N,01457.96692,E,1.917,264.58,210122,3.83,E,A*31

$GPVTG,264.58,T,260.75,M,1.917,N,3.551,K,A*24

$GPGGA,163743.00,4021.83743,N,01457.96692,E,1,05,1.40,10.8,M,40.2,M,,*6E

$GPGSA,A,3,02,31,20,25,18,,,,,,,,2.56,1.40,2.15*0C

$GPGSV,3,1,11,02,34,052,44,05,03,111,41,11,28,051,50,12,,,40*47

$GPGSV,3,2,11,18,15,185,31,20,10,085,43,24,,,28,25,72,045,39*47

$GPGSV,3,3,11,29,,,35,31,39,307,29,32,,,38*49

$GPGLL,4021.83743,N,01457.96692,E,163743.00,A,A*64

$GPGST,163743.00,33,,,,4.1,3.3,8.2*5C

!AIVDM,1,1,,A,ENjOsohpg@6a9Qh3RW7PP0000000DK64<e8`000000N010,4*3A

$GPRMC,163744.00,A,4021.83739,N,01457.96640,E,1.421,263.88,210122,3.83,E,A*36

$GPVTG,263.88,T,260.05,M,1.421,N,2.632,K,A*26

$GPGGA,163744.00,4021.83739,N,01457.96640,E,1,05,1.40,11.0,M,40.2,M,,*62

$GPGSA,A,3,02,31,20,25,18,,,,,,,,2.56,1.40,2.15*0C

$GPGSV,3,1,11,02,34,052,48,05,03,111,39,11,28,051,45,12,,,36*41

$GPGSV,3,2,11,18,15,185,39,20,10,085,47,24,,,33,25,72,045,37*4F

$GPGSV,3,3,11,29,,,38,31,39,307,40,32,,,29*4B

$GPGLL,4021.83739,N,01457.96640,E,163744.00,A,A*61

$GPGST,163744.00,18,,,,4.1,3.3,8.1*51

!AIVDM,1,1,,A,B39NEMP008A9AD5iLJ39Kwn5oP06,0*33

$GPRMC,163745.00,A,4021.83734,N,01457.96577,E,1.813,263.77,210122,3.83,E,A*30

$GPVTG,263.77,T,259.94,M,1.813,N,3.357,K,A*2E

$GPGGA,163745.00,4021.83734,N,01457.96577,E,1,05,1.40,11.0,M,40.2,M,,*69

$GPGSA,A,3,02,31,20,25,18,,,,,,,,2.56,1.40,2.15*0C

$GPGSV,3,1,11,02,34,052,48,05,03,111,38,11,28,051,44,12,,,45*45

$GPGSV,3,2,11,18,15,185,34,20,10,085,42,24,,,30,25,72,045,41*45

$GPGSV,3,3,11,29,,,36,31,39,307,38,32,,,36*44

$GPGLL,4021.83734,N,01457.96577,E,163745.00,A,A*6A

$GPGST,163745.00,19,,,,4.1,3.2,8.0*51

!AIVDM,1,1,,B,ENjOsqht?@6a9Qh90c2W70P00000L6vH<ffsP00000N010,4*45

$GPRMC,163746.00,A,4021.83728,N,01457.96510,E,1.689,257.91,210122,3.83,E,A*3D

$GPVTG,257.91,T,254.08,M,1.689,N,3.128,K,A*2E

$GPGGA,163746.00,4021.83728,N,01457.96510,E,1,05,1.40,10.9,M,40.2,M,,*6E

$GPGSA,A,3,02,31,20,25,18,,,,,,,,2.56,1.40,2.15*0C

$GPGSV,3,1,11,02,34,052,49,05,03,111,40,11,28,051,48,12,,,45*47

$GPGSV,3,2,11,18,15,185,37,20,10,085,47,24,,,31,25,72,045,33*47

$GPGSV,3,3,11,29,,,27,31,39,307,41,32,,,38*44

$GPGLL,4021.83728,N,01457.96510,E,163746.00,A,A*65

$GPGST,163746.00,23,,,,4.1,3.2,8.1*5A

$GPRMC,163747.00,A,4021.83729,N,01457.96443,E,1.784,262.71,210122,3.83,E,A*3E

$GPVTG,262.71,T,258.88,M,1.784,N,3.304,K,A*22

$GPGGA,163747.00,4021.83729,N,01457.96443,E,1,05,1.40,10.8,M,40.2,M,,*68

$GPGSA,A,3,02,31,20,25,18,,,,,,,,2.56,1.40,2.15*0C

$GPGSV,3,1,11,02,34,052,43,05,03,111,41,11,28,051,41,12,,,38*4F

$GPGSV,3,2,11,18,16,185,35,20,10,085,37,24,,,31,25,72,045,41*44

$GPGSV,3,3,11,29,,,32,31,39,307,33,32,,,34*49

$GPGLL,4021.83729,N,01457.96443,E,163747.00,A,A*62

$GPGST,163747.00,19,,,,4.1,3.2,8.0*53

!AIVDM,1,1,,A,13caqf?P0FQ4TpPG5fcaNgwN262D,0*4D

$GPRMC,163748.00,A,4021.83725,N,01457.96366,E,2.023,262.07,210122,3.83,E,A*35

$GPVTG,262.07,T,258.24,M,2.023,N,3.746,K,A*2E

$GPGGA,163748.00,4021.83725,N,01457.96366,E,1,05,1.40,10.7,M,40.2,M,,*64

$GPGSA,A,3,02,31,20,25,18,,,,,,,,2.56,1.40,2.15*0C

$GPGSV,3,1,11,02,34,052,47,05,03,111,41,11,28,051,46,12,,,47*44

$GPGSV,3,2,11,18,16,185,40,20,10,085,49,24,,,31,25,72,045,35*4C

$GPGSV,3,3,11,29,,,28,31,39,307,36,32,,,34*47

$GPGLL,4021.83725,N,01457.96366,E,163748.00,A,A*61

$GPGST,163748.00,17,,,,4.1,3.2,8.0*52

$GPRMC,163749.00,A,4021.83729,N,01457.96285,E,1.863,268.70,210122,3.83,E,A*31

$GPVTG,268.70,T,264.87,M,1.863,N,3.451,K,A*28

$GPGGA,163749.00,4021.83729,N,01457.96285,E,1,06,1.23,10.5,M,40.2,M,,*61

$GPGSA,A,3,02,31,20,32,25,18,,,,,,,2.25,1.23,1.89*0A

$GPGSV,3,1,11,02,34,052,47,05,03,111,41,11,28,051,32,12,,,44*44

$GPGSV,3,2,11,18,16,185,35,20,11,084,38,24,,,31,25,72,045,28*44

$GPGSV,3,3,11,29,,,39,31,39,307,29,32,15,248,40*70

$GPGLL,4021.83729,N,01457.96285,E,163749.00,A,A*60

$GPGST,163749.00,33,,,,4.1,3.1,7.9*50

$GPRMC,163750.00,A,4021.83727,N,01457.96227,E,1.227,265.86,210122,3.83,E,A*31

$GPVTG,265.86,T,262.02,M,1.227,N,2.273,K,A*2A

$GPGGA,163750.00,4021.83727,N,01457.96227,E,1,06,1.23,10.0,M,40.2,M,,*6A

$GPGSA,A,3,02,31,20,32,25,18,,,,,,,2.25,1.23,1.89*0A

$GPGSV,3,1,11,02,34,052,47,05,03,111,39,11,28,051,30,12,,,39*43

$GPGSV,3,2,11,18,16,185,31,20,11,084,41,24,,,27,25,72,045,29*48

$GPGSV,3,3,11,29,,,30,31,39,307,37,32,15,248,35*74

$GPGLL,4021.83727,N,01457.96227,E,163750.00,A,A*6E

$GPGST,163750.00,31,,,,4.1,3.1,7.9*5A

$GPRMC,163751.00,A,4021.83727,N,01457.96176,E,1.397,266.00,210122,3.83,E,A*30

$GPVTG,266.00,T,262.17,M,1.397,N,2.586,K,A*24

$GPGGA,163751.00,4021.83727,N,01457.96176,E,1,06,2.07,10.0,M,40.2,M,,*69

$GPGSA,A,3,02,31,20,32,25,18,,,,,,,2.89,2.07,2.02*09

$GPGSV,3,1,11,02,34,052,44,05,03,111,31,11,28,051,48,12,,,44*4D

$GPGSV,3,2,11,18,16,185,28,20,11,084,45,24,,,26,25,72,045,33*4E

$GPGSV,3,3,11,29,,,29,31,39,307,34,32,15,248,26*7D

$GPGLL,4021.83727,N,01457.96176,E,163751.00,A,A*68

$GPGST,163751.00,35,,,,4.2,3.1,8.0*5A

!AIVDM,1,1,,B,402FhSAvHJhUl14l9`G2AQ70062D,0*28

$GPRMC,163752.00,A,4021.83729,N,01457.96091,E,2.238,267.73,210122,3.83,E,A*37

$GPVTG,267.73,T,263.90,M,2.238,N,4.144,K,A*24

$GPGGA,163752.00,4021.83729,N,01457.96091,E,1,06,1.23,9.8,M,40.2,M,,*59

$GPGSA,A,3,02,31,20,32,25,18,,,,,,,2.25,1.23,1.89*0A

$GPGSV,3,1,11,02,34,052,41,05,03,111,34,11,28,051,47,12,,,36*47

!AIVDM,1,1,,A,ENjO`032prtt@8:W:0h4V`2a0b7POe>3;aLBp10888N004Q@,0*19

$GPGSV,3,2,11,18,16,185,33,20,11,084,49,24,,,31,25,72,045,38*45

$GPGSV,3,3,11,29,,,20,31,39,307,39,32,15,248,32*7C

$GPGLL,4021.83729,N,01457.96091,E,163752.00,A,A*6D

$GPGST,163752.00,28,,,,4.2,3.1,7.8*52

$GPRMC,163753.00,A,4021.83733,N,01457.96018,E,1.986,272.72,210122,3.83,E,A*34

$GPVTG,272.72,T,268.89,M,1.986,N,3.679,K,A*21

$GPGGA,163753.00,4021.83733,N,01457.96018,E,1,06,1.23,10.0,M,40.2,M,,*62

$GPGSA,A,3,02,31,20,32,25,18,,,,,,,2.25,1.23,1.89*0A

$GPGSV,3,1,11,02,34,052,44,05,03,111,39,11,28,051,48,12,,,45*44

$GPGSV,3,2,11,18,16,185,35,20,11,084,48,24,,,31,25,72,045,33*49

$GPGSV,3,3,11,29,,,33,31,39,307,40,32,15,248,37*75

$GPGLL,4021.83733,N,01457.96018,E,163753.00,A,A*66

$GPGST,163753.00,21,,,,4.3,3.0,7.8*5A

$GPRMC,163754.00,A,4021.83740,N,01457.95937,E,1.863,274.93,210122,3.83,E,A*33

$GPVTG,274.93,T,271.10,M,1.863,N,3.451,K,A*22

$GPGGA,163754.00,4021.83740,N,01457.95937,E,1,06,1.23,9.7,M,40.2,M,,*59

$GPGSA,A,3,02,31,20,32,25,18,,,,,,,2.25,1.23,1.89*0A

$GPGSV,3,1,11,02,34,052,46,05,03,111,41,11,28,051,46,12,,,41*43

$GPGSV,3,2,11,18,16,185,37,20,11,084,46,24,,,24,25,72,045,28*4B

$GPGSV,3,3,11,29,,,29,31,39,307,38,32,15,248,35*73

$GPGLL,4021.83740,N,01457.95937,E,163754.00,A,A*62

$GPGST,163754.00,27,,,,4.2,2.9,7.8*52

!AIVDM,1,1,,A,ENjO`0S2psJK@6WV7h9PW@;4W1RPPba9;cbwP10888N003VSh0,4*6C

$GPRMC,163755.00,A,4021.83748,N,01457.95869,E,1.647,277.61,210122,3.83,E,A*36

$GPVTG,277.61,T,273.77,M,1.647,N,3.051,K,A*23

$GPGGA,163755.00,4021.83748,N,01457.95869,E,1,06,1.23,9.8,M,40.2,M,,*55

$GPGSA,A,3,02,31,20,32,25,18,,,,,,,2.25,1.23,1.89*0A

$GPGSV,3,1,11,02,34,052,45,05,03,111,37,11,28,051,49,12,,,45*4A

$GPGSV,3,2,11,18,16,185,31,20,11,084,44,24,,,28,25,72,045,36*4C

$GPGSV,3,3,11,29,,,29,31,39,307,39,32,15,248,42*72

$GPGLL,4021.83748,N,01457.95869,E,163755.00,A,A*61

$GPGST,163755.00,22,,,,4.2,2.9,7.7*59

$GPRMC,163756.00,A,4021.83734,N,01457.95813,E,1.890,274.66,210122,3.83,E,A*33

$GPVTG,274.66,T,270.83,M,1.890,N,3.501,K,A*2B

$GPGGA,163756.00,4021.83734,N,01457.95813,E,1,06,1.23,10.4,M,40.2,M,,*64

$GPGSA,A,3,02,31,20,32,25,18,,,,,,,2.25,1.23,1.89*0A

$GPGSV,3,1,11,02,34,052,47,05,03,111,37,11,28,051,42,12,,,38*49

$GPGSV,3,2,11,18,16,185,39,20,11,084,46,24,,,36,25,72,045,42*4A

$GPGSV,3,3,11,29,,,29,31,39,307,37,32,15,248,29*71

$GPGLL,4021.83734,N,01457.95813,E,163756.00,A,A*64

$GPGST,163756.00,26,,,,4.2,2.8,7.6*5E

!AIVDM,1,1,,B,ENjO`1RRpsqrh0Sa7`7V4h8:W:0PRCFK;RrsH10888N0081SlU2CSh,4*33

$GPRMC,163757.00,A,4021.83735,N,01457.95742,E,1.576,269.07,210122,3.83,E,A*36

$GPVTG,269.07,T,265.24,M,1.576,N,2.920,K,A*22

$GPGGA,163757.00,4021.83735,N,01457.95742,E,1,06,1.23,9.9,M,40.2,M,,*5A

$GPGSA,A,3,02,31,20,32,25,18,,,,,,,2.25,1.23,1.89*0A

$GPGSV,3,1,11,02,34,052,48,05,03,111,35,11,28,051,46,12,,,37*4F

$GPGSV,3,2,11,18,16,185,29,20,11,084,46,24,,,36,25,72,045,37*49

$GPGSV,3,3,11,29,,,33,31,39,307,32,32,15,248,42*72

$GPGLL,4021.83735,N,01457.95742,E,163757.00,A,A*6F

$GPGST,163757.00,26,,,,4.2,2.8,7.4*5D

$GPRMC,163758.00,A,4021.83722,N,01457.95676,E,2.041,270.28,210122,3.83,E,A*3E

$GPVTG,270.28,T,266.45,M,2.041,N,3.780,K,A*24

$GPGGA,163758.00,4021.83722,N,01457.95676,E,1,06,1.23,10.3,M,40.2,M,,*67

$GPGSA,A,3,02,31,20,32,25,18,,,,,,,2.25,1.23,1.89*0A

$GPGSV,3,1,11,02,34,052,48,05,03,111,25,11,28,051,41,12,,,39*47

$GPGSV,3,2,11,18,16,185,34,20,11,084,47,24,,,32,25,72,045,41*41

$GPGSV,3,3,11,29,,,24,31,39,307,37,32,15,248,27*72

$GPGLL,4021.83722,N,01457.95676,E,163758.00,A,A*60

$GPGST,163758.00,30,,,,4.2,2.8,7.4*55

$GPRMC,163759.00,A,4021.83720,N,01457.95599,E,2.025,266.65,210122,3.83,E,A*33

$GPVTG,266.65,T,262.82,M,2.025,N,3.750,K,A*2A

$GPGGA,163759.00,4021.83720,N,01457.95599,E,1,06,1.23,10.3,M,40.2,M,,*66

$GPGSA,A,3,02,31,20,32,25,18,,,,,,,2.25,1.23,1.89*0A

$GPGSV,3,1,11,02,34,052,49,05,03,111,35,11,28,051,45,12,,,34*4E

$GPGSV,3,2,11,18,16,185,29,20,11,084,49,24,,,41,25,72,045,34*45

$GPGSV,3,3,11,29,,,29,31,39,307,38,32,15,248,32*74

$GPGLL,4021.83720,N,01457.95599,E,163759.00,A,A*61

$GPGST,163759.00,28,,,,4.2,2.7,7.4*52

$GPRMC,163800.00,A,4021.83728,N,01457.95543,E,1.425,271.87,210122,3.83,E,A*32

$GPVTG,271.87,T,268.04,M,1.425,N,2.638,K,A*2D

$GPGGA,163800.00,4021.83728,N,01457.95543,E,1,06,1.23,10.3,M,40.2,M,,*6A

$GPGSA,A,3,02,31,20,32,25,18,,,,,,,2.25,1.23,1.89*0A

$GPGSV,3,1,11,02,34,052,48,05,03,111,39,11,28,051,45,12,,,25*43

$GPGSV,3,2,11,18,16,185,37,20,11,084,46,24,,,28,25,72,045,29*46

$GPGSV,3,3,11,29,,,36,31,40,307,37,32,15,248,27*7F

$GPGLL,4021.83728,N,01457.95543,E,163800.00,A,A*6D

$GPGST,163800.00,34,,,,4.2,2.7,7.4*5C

$GPRMC,163801.00,A,4021.83733,N,01457.95485,E,1.476,270.08,210122,3.83,E,A*32

$GPVTG,270.08,T,266.25,M,1.476,N,2.733,K,A*2A

$GPGGA,163801.00,4021.83733,N,01457.95485,E,1,06,1.23,10.1,M,40.2,M,,*68

$GPGSA,A,3,02,31,20,32,25,18,,,,,,,2.25,1.23,1.89*0A

$GPGSV,3,1,11,02,34,052,48,05,03,111,41,11,28,051,44,12,,,30*49

$GPGSV,3,2,11,18,16,185,37,20,11,084,44,24,,,40,25,72,045,30*42

$GPGSV,3,3,11,29,,,31,31,40,307,37,32,15,248,27*78

$GPGLL,4021.83733,N,01457.95485,E,163801.00,A,A*6D

$GPGST,163801.00,39,,,,4.2,2.7,7.5*51

!AIVDM,1,1,,A,402FhSAvHJhV214l9`G2AQ70081<,0*03

$GPRMC,163802.00,A,4021.83734,N,01457.95413,E,1.701,265.55,210122,3.83,E,A*36

$GPVTG,265.55,T,261.72,M,1.701,N,3.149,K,A*2A

$GPGGA,163802.00,4021.83734,N,01457.95413,E,1,06,1.23,9.8,M,40.2,M,,*52

$GPGSA,A,3,02,31,20,32,25,18,,,,,,,2.25,1.23,1.89*0A

$GPGSV,3,1,11,02,34,052,47,05,03,111,40,11,28,051,45,12,,,36*40

$GPGSV,3,2,11,18,16,185,40,20,11,084,46,24,,,30,25,72,045,30*47

$GPGSV,3,3,11,29,,,30,31,40,307,38,32,15,248,39*79

$GPGLL,4021.83734,N,01457.95413,E,163802.00,A,A*66

$GPGST,163802.00,29,,,,4.3,2.7,7.5*52

$GPRMC,163803.00,A,4021.83735,N,01457.95347,E,1.746,265.11,210122,3.83,E,A*33

$GPVTG,265.11,T,261.27,M,1.746,N,3.234,K,A*20

$GPGGA,163803.00,4021.83735,N,01457.95347,E,1,06,1.23,9.6,M,40.2,M,,*5A

$GPGSA,A,3,02,31,20,32,25,18,,,,,,,2.25,1.23,1.89*0A

$GPGSV,3,1,11,02,34,052,45,05,03,111,37,11,28,051,42,12,,,33*40

$GPGSV,3,2,11,18,16,185,43,20,11,084,45,24,,,35,25,72,045,30*42

$GPGSV,3,3,11,29,,,36,31,40,307,41,32,15,248,26*7F

$GPGLL,4021.83735,N,01457.95347,E,163803.00,A,A*60

$GPGST,163803.00,33,,,,4.3,2.7,7.5*58

$GPRMC,163804.00,A,4021.83742,N,01457.95281,E,1.891,271.58,210122,3.83,E,A*32

$GPVTG,271.58,T,267.75,M,1.891,N,3.502,K,A*2E

$GPGGA,163804.00,4021.83742,N,01457.95281,E,1,06,1.23,9.6,M,40.2,M,,*56

$GPGSA,A,3,02,31,20,32,25,18,,,,,,,2.25,1.23,1.88*0B

$GPGSV,3,1,11,02,34,052,44,05,03,111,43,11,28,051,41,12,,,35*47

$GPGSV,3,2,11,18,16,185,47,20,11,084,44,24,,,32,25,72,045,33*43

$GPGSV,3,3,11,29,,,21,31,40,307,32,32,15,248,37*7D

$GPGLL,4021.83742,N,01457.95281,E,163804.00,A,A*6C

$GPGST,163804.00,23,,,,4.4,2.7,7.5*59

!AIVDM,1,1,,B,D02FhS@0lN?b<`N00m4v000,2*1E

$GPRMC,163805.00,A,4021.83759,N,01457.95222,E,1.683,285.78,210122,3.83,E,A*34

$GPVTG,285.78,T,281.95,M,1.683,N,3.117,K,A*2C

$GPGGA,163805.00,4021.83759,N,01457.95222,E,1,06,1.23,9.6,M,40.2,M,,*54

$GPGSA,A,3,02,31,20,32,25,18,,,,,,,2.25,1.23,1.88*0B

$GPGSV,3,1,11,02,34,052,44,05,03,111,38,11,28,051,38,12,,,45*42

$GPGSV,3,2,11,18,16,185,40,20,11,084,42,24,,,35,25,72,045,37*41

$GPGSV,3,3,11,29,,,39,31,40,307,40,32,15,248,26*71

$GPGLL,4021.83759,N,01457.95222,E,163805.00,A,A*6E

$GPGST,163805.00,27,,,,4.3,2.7,7.5*5B

$GPRMC,163806.00,A,4021.83778,N,01457.95172,E,1.293,285.78,210122,3.83,E,A*37

$GPVTG,285.78,T,281.95,M,1.293,N,2.395,K,A*20

$GPGGA,163806.00,4021.83778,N,01457.95172,E,1,06,1.23,9.4,M,40.2,M,,*50

$GPGSA,A,3,02,31,20,32,25,18,,,,,,,2.25,1.23,1.88*0B

$GPGSV,3,1,11,02,34,052,38,05,03,111,41,11,28,051,36,12,,,47*4B

$GPGSV,3,2,11,18,16,185,28,20,11,084,26,24,,,37,25,72,045,31*49

$GPGSV,3,3,11,29,,,35,31,40,307,36,32,15,248,36*7D

