$GPRMC,094229.00,A,4048.14233,N,01410.40066,E,0.000,0.00,120422,3.76,E,A*3B
$GPVTG,0.00,T,356.23,M,0.000,N,0.000,K,A*22
$GPGGA,094229.00,4048.14233,N,01410.40066,E,1,07,1.23,11.7,M,41.3,M,,*61
$GPGSA,A,3,25,32,24,02,12,29,22,,,,,,2.99,1.23,2.73*0C
$GPGSV,2,1,08,02,39,098,37,11,33,099,38,12,63,043,28,22,24,307,40*79
$GPGSV,2,2,08,24,45,147,30,25,58,302,36,29,38,215,35,32,31,285,43*72
$GPGLL,4048.14233,N,01410.40066,E,094229.00,A,A*62
$GPGST,094229.00,16,,,,2.5,1.6,5.0*51
$GPRMC,094230.00,A,4048.14233,N,01410.40066,E,0.000,0.00,120422,3.76,E,A*33
$GPVTG,0.00,T,356.23,M,0.000,N,0.000,K,A*22
$GPGGA,094230.00,4048.14233,N,01410.40066,E,1,07,1.23,11.7,M,41.3,M,,*69
$GPGSA,A,3,25,32,24,02,12,29,22,,,,,,2.99,1.23,2.73*0C
$GPGSV,2,1,08,02,39,098,38,11,33,099,39,12,63,043,29,22,24,307,39*78
$GPGSV,2,2,08,24,45,147,31,25,58,302,39,29,38,215,35,32,31,285,42*7D
$GPGLL,4048.14233,N,01410.40066,E,094230.00,A,A*6A
$GPGST,094230.00,14,,,,2.4,1.5,4.9*51
!AIVDM,2,1,2,A,53cT8b01Wr7LT8@R2208DpU@v09Dtpv22222220t1ht6:56DN92DhskPD89`,0*29
!AIVDM,2,2,2,A,5R@p8888880,2*71
$GPRMC,094231.00,A,4048.14233,N,01410.40066,E,0.000,0.00,120422,3.76,E,A*32
$GPVTG,0.00,T,356.23,M,0.000,N,0.000,K,A*22
$GPGGA,094231.00,4048.14233,N,01410.40066,E,1,07,1.23,11.7,M,41.3,M,,*68
$GPGSA,A,3,25,32,24,02,12,29,22,,,,,,2.99,1.23,2.73*0C
$GPGSV,2,1,08,02,39,098,40,11,33,099,40,12,63,043,29,22,24,307,39*79
$GPGSV,2,2,08,24,45,147,33,25,58,302,40,29,38,215,36,32,31,285,44*74
$GPGLL,4048.14233,N,01410.40066,E,094231.00,A,A*6B
$GPGST,094231.00,13,,,,2.4,1.5,4.9*57
$GPRMC,094232.00,A,4048.14233,N,01410.40066,E,0.000,0.00,120422,3.76,E,A*31
$GPVTG,0.00,T,356.23,M,0.000,N,0.000,K,A*22
$GPGGA,094232.00,4048.14233,N,01410.40066,E,1,07,1.23,11.7,M,41.3,M,,*6B
$GPGSA,A,3,25,32,24,02,12,29,22,,,,,,2.99,1.23,2.73*0C
$GPGSV,2,1,08,02,39,098,35,11,33,099,38,12,63,043,28,22,24,307,39*75
$GPGSV,2,2,08,24,45,147,31,25,58,302,38,29,38,215,35,32,31,285,43*7D
$GPGLL,4048.14233,N,01410.40066,E,094232.00,A,A*68
$GPGST,094232.00,16,,,,2.4,1.5,4.9*51
!AIVDM,1,1,,B,13cT8b0P1w111lbGEbg2d?vp00RH,0*21
$GPRMC,094233.00,A,4048.14233,N,01410.40066,E,0.000,0.00,120422,3.76,E,A*30
$GPVTG,0.00,T,356.23,M,0.000,N,0.000,K,A*22
$GPGGA,094233.00,4048.14233,N,01410.40066,E,1,07,1.23,11.7,M,41.3,M,,*6A
$GPGSA,A,3,25,32,24,02,12,29,22,,,,,,3.00,1.23,2.73*0D
$GPGSV,2,1,08,02,39,098,35,11,33,099,37,12,63,043,28,22,24,307,39*7A
$GPGSV,2,2,08,24,45,147,31,25,58,302,38,29,38,215,36,32,31,285,43*7E
$GPGLL,4048.14233,N,01410.40066,E,094233.00,A,A*69
$GPGST,094233.00,16,,,,2.4,1.5,4.9*50
$GPRMC,094234.00,A,4048.14233,N,01410.40066,E,0.000,0.00,120422,3.76,E,A*37
$GPVTG,0.00,T,356.23,M,0.000,N,0.000,K,A*22
$GPGGA,094234.00,4048.14233,N,01410.40066,E,1,07,1.23,11.7,M,41.3,M,,*6D
$GPGSA,A,3,25,32,24,02,12,29,22,,,,,,3.00,1.23,2.73*0D
$GPGSV,2,1,08,02,39,098,35,11,33,099,37,12,63,043,28,22,24,307,39*7A
$GPGSV,2,2,08,24,45,147,32,25,58,302,38,29,38,215,35,32,31,285,43*7E
$GPGLL,4048.14233,N,01410.40066,E,094234.00,A,A*6E
$GPGST,094234.00,15,,,,2.4,1.6,4.9*57
$GPRMC,094235.00,A,4048.14233,N,01410.40066,E,0.000,0.00,120422,3.76,E,A*36
$GPVTG,0.00,T,356.23,M,0.000,N,0.000,K,A*22
$GPGGA,094235.00,4048.14233,N,01410.40066,E,1,07,1.23,11.7,M,41.3,M,,*6C
$GPGSA,A,3,25,32,24,02,12,29,22,,,,,,3.00,1.23,2.73*0D
$GPGSV,2,1,08,02,39,098,37,11,33,099,40,12,63,043,28,22,24,307,39*78
$GPGSV,2,2,08,24,45,147,33,25,58,302,38,29,38,215,36,32,31,285,44*7B
$GPGLL,4048.14233,N,01410.40066,E,094235.00,A,A*6F
$GPGST,094235.00,15,,,,2.4,1.6,4.9*56
$GPRMC,094236.00,A,4048.14233,N,01410.40066,E,0.000,0.00,120422,3.76,E,A*35
$GPVTG,0.00,T,356.23,M,0.000,N,0.000,K,A*22
$GPGGA,094236.00,4048.14233,N,01410.40066,E,1,07,1.23,11.7,M,41.3,M,,*6F
$GPGSA,A,3,25,32,24,02,12,29,22,,,,,,3.00,1.23,2.73*0D
$GPGSV,2,1,08,02,39,098,38,11,33,099,40,12,63,043,27,22,24,307,38*79
$GPGSV,2,2,08,24,45,147,33,25,58,302,37,29,38,215,35,32,31,285,43*70
$GPGLL,4048.14233,N,01410.40066,E,094236.00,A,A*6C
$GPGST,094236.00,15,,,,2.4,1.6,5.0*5D
$GPRMC,094237.00,A,4048.14233,N,01410.40066,E,0.000,0.00,120422,3.76,E,A*34
$GPVTG,0.00,T,356.23,M,0.000,N,0.000,K,A*22
$GPGGA,094237.00,4048.14233,N,01410.40066,E,1,07,1.23,11.7,M,41.3,M,,*6E
$GPGSA,A,3,25,32,24,02,12,29,22,,,,,,3.00,1.23,2.73*0D
$GPGSV,2,1,08,02,39,098,39,11,33,099,41,12,63,043,28,22,24,307,39*77
$GPGSV,2,2,08,24,45,147,33,25,58,302,37,29,38,215,35,32,31,285,44*77
$GPGLL,4048.14233,N,01410.40066,E,094237.00,A,A*6D
$GPGST,094237.00,15,,,,2.4,1.5,5.0*5F
!AIVDM,1,1,,B,13cVcS0P1h10iobGEDNC8?w200Sr,0*56
$GPRMC,094238.00,A,4048.14233,N,01410.40066,E,0.000,0.00,120422,3.76,E,A*3B
$GPVTG,0.00,T,356.23,M,0.000,N,0.000,K,A*22
$GPGGA,094238.00,4048.14233,N,01410.40066,E,1,07,1.23,11.7,M,41.3,M,,*61
$GPGSA,A,3,25,32,24,02,12,29,22,,,,,,3.00,1.23,2.73*0D
$GPGSV,2,1,08,02,39,098,38,11,33,099,40,12,63,043,27,22,24,307,39*78
$GPGSV,2,2,08,24,45,147,33,25,58,302,37,29,38,215,35,32,31,285,44*77
$GPGLL,4048.14233,N,01410.40066,E,094238.00,A,A*62
$GPGST,094238.00,16,,,,2.4,1.5,5.1*52
$GPRMC,094239.00,A,4048.14233,N,01410.40066,E,0.000,0.00,120422,3.76,E,A*3A
$GPVTG,0.00,T,356.23,M,0.000,N,0.000,K,A*22
$GPGGA,094239.00,4048.14233,N,01410.40066,E,1,07,1.23,11.7,M,41.3,M,,*60
$GPGSA,A,3,25,32,24,02,12,29,22,,,,,,3.00,1.23,2.73*0D
$GPGSV,2,1,08,02,39,098,38,11,33,099,40,12,63,043,27,22,24,307,39*78
$GPGSV,2,2,08,24,45,147,33,25,58,302,37,29,38,215,35,32,31,285,44*77
$GPGLL,4048.14233,N,01410.40066,E,094239.00,A,A*63
$GPGST,094239.00,16,,,,2.4,1.5,5.1*53
!AIVDM,1,1,,B,13cVV50P1W10F?TGE9=k?ww605:`,0*60
!AIVDM,1,1,,B,13cSds002DQ1G?jGCg>W8EW8000E,0*69
$GPRMC,094240.00,A,4048.14233,N,01410.40066,E,0.000,0.00,120422,3.76,E,A*34
$GPVTG,0.00,T,356.23,M,0.000,N,0.000,K,A*22
$GPGGA,094240.00,4048.14233,N,01410.40066,E,1,07,1.23,11.7,M,41.3,M,,*6E
$GPGSA,A,3,25,32,24,02,12,29,22,,,,,,3.00,1.23,2.73*0D
$GPGSV,2,1,08,02,39,098,36,11,33,099,39,12,63,043,27,22,24,307,39*78
$GPGSV,2,2,08,24,45,147,33,25,58,302,37,29,38,215,35,32,31,285,43*70
$GPGLL,4048.14233,N,01410.40066,E,094240.00,A,A*6D
$GPGST,094240.00,16,,,,2.4,1.5,5.2*5E
$GPRMC,094241.00,A,4048.14233,N,01410.40066,E,0.000,0.00,120422,3.76,E,A*35
$GPVTG,0.00,T,356.23,M,0.000,N,0.000,K,A*22
$GPGGA,094241.00,4048.14233,N,01410.40066,E,1,07,1.23,11.7,M,41.3,M,,*6F
$GPGSA,A,3,25,32,24,02,12,29,22,,,,,,3.00,1.23,2.73*0D
$GPGSV,2,1,08,02,39,098,37,11,33,099,40,12,63,043,27,22,24,307,39*77
$GPGSV,2,2,08,24,45,147,33,25,58,302,37,29,38,215,36,32,31,285,44*74
$GPGLL,4048.14233,N,01410.40066,E,094241.00,A,A*6C
$GPGST,094241.00,15,,,,2.4,1.5,5.2*5C
!AIVDM,1,1,,A,13chdT0P0010W=LGFtL5t?w80D1N,0*5B
$GPRMC,094242.00,A,4048.14233,N,01410.40066,E,0.000,0.00,120422,3.76,E,A*36
$GPVTG,0.00,T,356.23,M,0.000,N,0.000,K,A*22
$GPGGA,094242.00,4048.14233,N,01410.40066,E,1,07,1.23,11.7,M,41.3,M,,*6C
$GPGSA,A,3,25,32,24,02,12,29,22,,,,,,3.00,1.23,2.73*0D
$GPGSV,2,1,08,02,39,098,38,11,33,099,41,12,63,043,26,22,24,307,39*78
$GPGSV,2,2,08,24,45,147,33,25,58,302,37,29,38,215,36,32,31,285,44*74
$GPGLL,4048.14233,N,01410.40066,E,094242.00,A,A*6F
$GPGST,094242.00,16,,,,2.4,1.5,5.2*5C
$GPRMC,094243.00,A,4048.14233,N,01410.40066,E,0.000,0.00,120422,3.76,E,A*37
$GPVTG,0.00,T,356.23,M,0.000,N,0.000,K,A*22
$GPGGA,094243.00,4048.14233,N,01410.40066,E,1,07,1.23,11.7,M,41.3,M,,*6D
$GPGSA,A,3,25,32,24,02,12,29,22,,,,,,3.00,1.23,2.73*0D
$GPGSV,2,1,08,02,39,098,39,11,33,099,41,12,63,043,27,22,24,307,39*78
$GPGSV,2,2,08,24,45,147,34,25,58,302,37,29,38,215,35,32,31,285,44*70
$GPGLL,4048.14233,N,01410.40066,E,094243.00,A,A*6E
$GPGST,094243.00,15,,,,2.4,1.5,5.3*5F
!AIVDM,1,1,,B,13cVbi0P00Q0WtVGFwIQ@Ow<0<0j,0*11
$GPRMC,094244.00,A,4048.14233,N,01410.40066,E,0.000,0.00,120422,3.76,E,A*30
$GPVTG,0.00,T,356.23,M,0.000,N,0.000,K,A*22
$GPGGA,094244.00,4048.14233,N,01410.40066,E,1,07,1.23,11.7,M,41.3,M,,*6A
$GPGSA,A,3,25,32,24,02,12,29,22,,,,,,3.00,1.23,2.73*0D
$GPGSV,2,1,08,02,39,098,41,11,33,099,40,12,63,043,31,22,24,307,39*71
$GPGSV,2,2,08,24,45,147,33,25,58,302,38,29,38,215,33,32,31,285,45*7F
$GPGLL,4048.14233,N,01410.40066,E,094244.00,A,A*69
$GPGST,094244.00,13,,,,2.4,1.5,5.3*5E
$GPRMC,094245.00,A,4048.14233,N,01410.40066,E,0.000,0.00,120422,3.76,E,A*31
$GPVTG,0.00,T,356.23,M,0.000,N,0.000,K,A*22
$GPGGA,094245.00,4048.14233,N,01410.40066,E,1,07,1.23,11.7,M,41.3,M,,*6B
$GPGSA,A,3,25,32,24,02,12,29,22,,,,,,3.00,1.23,2.73*0D
$GPGSV,2,1,08,02,39,098,39,11,33,099,41,12,63,043,26,22,24,307,40*77
$GPGSV,2,2,08,24,45,147,34,25,58,302,38,29,38,215,34,32,31,285,44*7E
$GPGLL,4048.14233,N,01410.40066,E,094245.00,A,A*68
$GPGST,094245.00,16,,,,2.4,1.4,5.2*5A
$GPRMC,094246.00,A,4048.14233,N,01410.40066,E,0.000,0.00,120422,3.76,E,A*32
$GPVTG,0.00,T,356.23,M,0.000,N,0.000,K,A*22
$GPGGA,094246.00,4048.14233,N,01410.40066,E,1,07,1.23,11.7,M,41.3,M,,*68
$GPGSA,A,3,25,32,24,02,12,29,22,,,,,,3.00,1.23,2.73*0D
$GPGSV,2,1,08,02,39,098,40,11,33,099,41,12,63,043,29,22,24,307,41*77
$GPGSV,2,2,08,24,45,147,34,25,58,302,37,29,38,215,33,32,31,285,44*76
$GPGLL,4048.14233,N,01410.40066,E,094246.00,A,A*6B
$GPGST,094246.00,14,,,,2.4,1.4,5.3*5A
$GPRMC,094247.00,A,4048.14233,N,01410.40066,E,0.000,0.00,120422,3.76,E,A*33
$GPVTG,0.00,T,356.23,M,0.000,N,0.000,K,A*22
$GPGGA,094247.00,4048.14233,N,01410.40066,E,1,07,1.23,11.7,M,41.3,M,,*69
$GPGSA,A,3,25,32,24,02,12,29,22,,,,,,3.00,1.23,2.73*0D
$GPGSV,2,1,08,02,39,098,41,11,33,099,41,12,63,043,29,22,24,307,41*76
$GPGSV,2,2,08,24,45,147,34,25,58,302,37,29,38,215,33,32,31,285,44*76
$GPGLL,4048.14233,N,01410.40066,E,094247.00,A,A*6A
$GPGST,094247.00,14,,,,2.4,1.4,5.3*5B
!AIVDM,1,1,,A,13cVcS0P1g10j4BGEDbC6OwF00T:,0*4B
!AIVDM,1,1,,A,B3eIJr00?`@<CLUmCoDjGwn5oP06,0*07
!AIVDM,1,1,,A,402FhaivI69bd0w`wpGCWSW00<2H,0*31
$GPRMC,094248.00,A,4048.14233,N,01410.40066,E,0.000,0.00,120422,3.76,E,A*3C
$GPVTG,0.00,T,356.23,M,0.000,N,0.000,K,A*22
$GPGGA,094248.00,4048.14233,N,01410.40066,E,1,07,1.23,11.7,M,41.3,M,,*66
$GPGSA,A,3,25,32,24,02,12,29,22,,,,,,3.00,1.23,2.74*0A
$GPGSV,2,1,08,02,39,098,41,11,33,099,40,12,63,043,30,22,24,307,41*7F
$GPGSV,2,2,08,24,45,147,24,25,58,302,39,29,38,215,34,32,31,285,43*79
$GPGLL,4048.14233,N,01410.40066,E,094248.00,A,A*65
$GPGST,094248.00,21,,,,2.4,1.4,5.2*53
!AIVDM,1,1,,A,13cVTQ0P2?Q0>i4GE5F95?wH0D2;,0*7B
$GPRMC,094249.00,A,4048.14233,N,01410.40066,E,0.000,0.00,120422,3.76,E,A*3D
$GPVTG,0.00,T,356.23,M,0.000,N,0.000,K,A*22
$GPGGA,094249.00,4048.14233,N,01410.40066,E,1,07,1.23,11.7,M,41.3,M,,*67
$GPGSA,A,3,25,32,24,02,12,29,22,,,,,,3.00,1.23,2.74*0A
$GPGSV,2,1,08,02,39,098,39,11,33,099,41,12,63,043,33,22,24,307,41*72
$GPGSV,2,2,08,24,45,147,26,25,58,302,39,29,38,215,29,32,31,285,42*76
$GPGLL,4048.14233,N,01410.40066,E,094249.00,A,A*64
$GPGST,094249.00,18,,,,2.5,1.4,5.1*5A
$GPRMC,094250.00,A,4048.14233,N,01410.40066,E,0.000,0.00,120422,3.76,E,A*35
$GPVTG,0.00,T,356.23,M,0.000,N,0.000,K,A*22
$GPGGA,094250.00,4048.14233,N,01410.40066,E,1,07,1.23,11.7,M,41.3,M,,*6F
$GPGSA,A,3,25,32,24,02,12,29,22,,,,,,3.00,1.23,2.74*0A
$GPGSV,2,1,08,02,39,098,41,11,33,099,41,12,63,043,31,22,24,307,42*7C
!AIVDM,1,1,,A,13cVV50P1V10FK8GE9Fk?gwJ08L=,0*4B
$GPGSV,2,2,08,24,45,147,26,25,58,302,40,29,38,215,31,32,31,285,42*71
$GPGLL,4048.14233,N,01410.40066,E,094250.00,A,A*6C
$GPGST,094250.00,18,,,,2.5,1.4,4.9*5B
$GPRMC,094251.00,A,4048.14233,N,01410.40066,E,0.000,0.00,120422,3.76,E,A*34
$GPVTG,0.00,T,356.23,M,0.000,N,0.000,K,A*22
$GPGGA,094251.00,4048.14233,N,01410.40066,E,1,07,1.23,11.7,M,41.3,M,,*6E
$GPGSA,A,3,25,32,24,02,12,29,22,,,,,,3.00,1.23,2.74*0A
$GPGSV,2,1,08,02,39,098,41,11,33,099,42,12,63,043,31,22,24,307,42*7F
$GPGSV,2,2,08,24,45,147,27,25,58,302,40,29,38,215,32,32,31,285,43*72
$GPGLL,4048.14233,N,01410.40066,E,094251.00,A,A*6D
$GPGST,094251.00,17,,,,2.5,1.3,4.8*53
$GPRMC,094252.00,A,4048.14233,N,01410.40066,E,0.000,0.00,120422,3.76,E,A*37
$GPVTG,0.00,T,356.23,M,0.000,N,0.000,K,A*22
$GPGGA,094252.00,4048.14233,N,01410.40066,E,1,07,1.23,11.7,M,41.3,M,,*6D
$GPGSA,A,3,25,32,24,02,12,29,22,,,,,,3.00,1.23,2.74*0A
$GPGSV,2,1,08,02,39,098,40,11,33,099,41,12,63,043,30,22,24,307,41*7F
$GPGSV,2,2,08,24,45,147,27,25,58,302,39,29,38,215,31,32,31,285,42*7E
$GPGLL,4048.14233,N,01410.40066,E,094252.00,A,A*6E
$GPGST,094252.00,18,,,,2.6,1.3,4.8*5C
!AIVDM,1,1,,B,13cT8b0P1w112?<GEckBWgwP00ST,0*05
!AIVDM,1,1,,A,13cVbi0P00Q0Wt`GFwIi@OwN05:`,0*67
$GPRMC,094253.00,A,4048.14233,N,01410.40066,E,0.000,0.00,120422,3.76,E,A*36
$GPVTG,0.00,T,356.23,M,0.000,N,0.000,K,A*22
$GPGGA,094253.00,4048.14233,N,01410.40066,E,1,07,1.23,11.7,M,41.3,M,,*6C
$GPGSA,A,3,25,32,24,02,12,29,22,,,,,,3.00,1.23,2.74*0A
$GPGSV,2,1,08,02,39,098,39,11,33,099,40,12,63,043,30,22,24,307,41*70
$GPGSV,2,2,08,24,45,147,27,25,58,302,39,29,38,215,32,32,31,285,42*7D
$GPGLL,4048.14233,N,01410.40066,E,094253.00,A,A*6F
$GPGST,094253.00,17,,,,2.6,1.3,4.7*5D
!AIVDM,1,1,,B,13cVTQ0P2:Q0>cLGE4p90gwR08Mh,0*2F
$GPRMC,094254.00,A,4048.14233,N,01410.40066,E,0.000,0.00,120422,3.76,E,A*31
$GPVTG,0.00,T,356.23,M,0.000,N,0.000,K,A*22
$GPGGA,094254.00,4048.14233,N,01410.40066,E,1,07,1.23,11.7,M,41.3,M,,*6B
$GPGSA,A,3,25,32,24,02,12,29,22,,,,,,3.00,1.23,2.74*0A
$GPGSV,2,1,08,02,39,098,39,11,33,099,40,12,63,043,30,22,24,307,41*70
$GPGSV,2,2,08,24,45,147,27,25,58,302,39,29,38,215,32,32,31,285,42*7D
$GPGLL,4048.14233,N,01410.40066,E,094254.00,A,A*68
$GPGST,094254.00,17,,,,2.6,1.3,4.7*5A
$GPRMC,094255.00,A,4048.14233,N,01410.40066,E,0.000,0.00,120422,3.76,E,A*30
$GPVTG,0.00,T,356.23,M,0.000,N,0.000,K,A*22
$GPGGA,094255.00,4048.14233,N,01410.40066,E,1,07,1.23,11.7,M,41.3,M,,*6A
$GPGSA,A,3,25,32,24,02,12,29,22,,,,,,3.00,1.23,2.74*0A
$GPGSV,2,1,08,02,39,098,39,11,33,099,40,12,63,043,30,22,24,307,41*70
$GPGSV,2,2,08,24,45,147,28,25,58,302,39,29,38,215,32,32,31,285,42*72
$GPGLL,4048.14233,N,01410.40066,E,094255.00,A,A*69
$GPGST,094255.00,16,,,,2.6,1.3,4.6*5B
$GPRMC,094256.00,A,4048.14233,N,01410.40066,E,0.000,0.00,120422,3.76,E,A*33
$GPVTG,0.00,T,356.23,M,0.000,N,0.000,K,A*22
$GPGGA,094256.00,4048.14233,N,01410.40066,E,1,07,1.23,11.7,M,41.3,M,,*69
$GPGSA,A,3,25,32,24,02,12,29,22,,,,,,3.00,1.23,2.74*0A
$GPGSV,2,1,08,02,39,098,40,11,33,099,41,12,63,043,31,22,24,307,41*7E
$GPGSV,2,2,08,24,45,147,29,25,58,302,40,29,38,215,33,32,31,285,43*7D
$GPGLL,4048.14233,N,01410.40066,E,094256.00,A,A*6A
$GPGST,094256.00,15,,,,2.6,1.3,4.5*58
$GPRMC,094257.00,A,4048.14233,N,01410.40066,E,0.000,0.00,120422,3.76,E,A*32
$GPVTG,0.00,T,356.23,M,0.000,N,0.000,K,A*22
$GPGGA,094257.00,4048.14233,N,01410.40066,E,1,07,1.23,11.7,M,41.3,M,,*68
$GPGSA,A,3,25,32,24,02,12,29,22,,,,,,3.00,1.23,2.74*0A
$GPGSV,2,1,08,02,39,098,41,11,33,099,41,12,63,043,32,22,24,307,42*7F
$GPGSV,2,2,08,24,45,147,29,25,58,302,40,29,38,215,33,32,31,285,43*7D
$GPGLL,4048.14233,N,01410.40066,E,094257.00,A,A*6B
$GPGST,094257.00,14,,,,2.6,1.3,4.5*58
!AIVDM,1,1,,B,402FhaivI69bn0w`wpGCWSW00D2I,0*41
$GPRMC,094258.00,A,4048.14233,N,01410.40066,E,0.000,0.00,120422,3.76,E,A*3D
$GPVTG,0.00,T,356.23,M,0.000,N,0.000,K,A*22
$GPGGA,094258.00,4048.14233,N,01410.40066,E,1,07,1.23,11.7,M,41.3,M,,*67
$GPGSA,A,3,25,32,24,02,12,29,22,,,,,,3.00,1.23,2.74*0A
$GPGSV,2,1,08,02,39,098,40,11,33,099,41,12,63,043,32,22,24,307,42*7E
$GPGSV,2,2,08,24,45,147,29,25,58,302,40,29,38,215,33,32,31,285,43*7D
$GPGLL,4048.14233,N,01410.40066,E,094258.00,A,A*64
$GPGST,094258.00,15,,,,2.6,1.3,4.4*57
$GPRMC,094259.00,A,4048.14233,N,01410.40066,E,0.000,0.00,120422,3.76,E,A*3C
$GPVTG,0.00,T,356.23,M,0.000,N,0.000,K,A*22
!AIVDM,1,1,,B,13cVcS0P1h10jBHGEDoC6wwf00S0,0*23
$GPGGA,094259.00,4048.14233,N,01410.40066,E,1,07,1.23,11.7,M,41.3,M,,*66
$GPGSA,A,3,25,32,24,02,12,29,22,,,,,,3.00,1.23,2.74*0A
$GPGSV,2,1,08,02,39,098,39,11,33,099,41,12,63,043,31,22,24,307,41*70
$GPGSV,2,2,08,24,45,147,29,25,58,302,40,29,38,215,32,32,31,285,43*7C
$GPGLL,4048.14233,N,01410.40066,E,094259.00,A,A*65
$GPGST,094259.00,15,,,,2.6,1.3,4.4*56
!AIVDM,1,1,,B,13cVV50P1V10FVfGE9OS?gwf0<1k,0*39
!AIVDM,1,1,,A,33cVTQ0P26Q0>StGE4=`twwh001S,0*1F
$GPRMC,094300.00,A,4048.14233,N,01410.40066,E,0.000,0.00,120422,3.76,E,A*31
$GPVTG,0.00,T,356.23,M,0.000,N,0.000,K,A*22
$GPGGA,094300.00,4048.14233,N,01410.40066,E,1,07,1.23,11.7,M,41.3,M,,*6B
$GPGSA,A,3,25,32,24,02,12,29,22,,,,,,3.00,1.23,2.74*0A
$GPGSV,2,1,08,02,39,098,39,11,33,099,40,12,63,043,30,22,24,307,41*70
$GPGSV,2,2,08,24,45,147,29,25,58,302,39,29,38,215,32,32,31,285,42*73
$GPGLL,4048.14233,N,01410.40066,E,094300.00,A,A*68
$GPGST,094300.00,16,,,,2.6,1.3,4.3*5F
$GPRMC,094301.00,A,4048.14233,N,01410.40066,E,0.000,0.00,120422,3.76,E,A*30
$GPVTG,0.00,T,356.23,M,0.000,N,0.000,K,A*22
$GPGGA,094301.00,4048.14233,N,01410.40066,E,1,07,1.23,11.7,M,41.3,M,,*6A
$GPGSA,A,3,25,32,24,02,12,29,22,,,,,,3.00,1.23,2.74*0A
$GPGSV,2,1,08,02,39,098,40,11,33,099,41,12,63,043,31,22,24,307,41*7E
$GPGSV,2,2,08,24,45,147,30,25,58,302,40,29,38,215,33,32,31,285,43*75
$GPGLL,4048.14233,N,01410.40066,E,094301.00,A,A*69
$GPGST,094301.00,14,,,,2.6,1.3,4.3*5C
$GPRMC,094302.00,A,4048.14233,N,01410.40066,E,0.000,0.00,120422,3.76,E,A*33
$GPVTG,0.00,T,356.23,M,0.000,N,0.000,K,A*22
$GPGGA,094302.00,4048.14233,N,01410.40066,E,1,07,1.23,11.7,M,41.3,M,,*69
$GPGSA,A,3,25,32,24,02,12,29,22,,,,,,3.00,1.23,2.74*0A
$GPGSV,2,1,08,02,39,098,40,11,33,099,41,12,63,043,31,22,24,307,41*7E
$GPGSV,2,2,08,24,45,147,30,25,58,302,40,29,38,215,32,32,31,285,43*74
$GPGLL,4048.14233,N,01410.40066,E,094302.00,A,A*6A
$GPGST,094302.00,15,,,,2.6,1.3,4.3*5E
!AIVDM,1,1,,A,13cT8b0P1v112LBGEdGjR?wl0@0O,0*60
$GPRMC,094303.00,A,4048.14233,N,01410.40066,E,0.000,0.00,120422,3.76,E,A*32
$GPVTG,0.00,T,356.23,M,0.000,N,0.000,K,A*22
$GPGGA,094303.00,4048.14233,N,01410.40066,E,1,07,1.23,11.7,M,41.3,M,,*68
$GPGSA,A,3,25,32,24,02,12,29,22,,,,,,3.00,1.23,2.74*0A
$GPGSV,2,1,08,02,39,098,41,11,33,099,42,12,63,043,31,22,24,307,42*7F
$GPGSV,2,2,08,24,45,147,31,25,58,302,41,29,38,215,35,32,31,285,44*74
$GPGLL,4048.14233,N,01410.40066,E,094303.00,A,A*6B
$GPGST,094303.00,13,,,,2.6,1.3,4.2*58
$GPRMC,094304.00,A,4048.14233,N,01410.40066,E,0.000,0.00,120422,3.76,E,A*35
$GPVTG,0.00,T,356.23,M,0.000,N,0.000,K,A*22
$GPGGA,094304.00,4048.14233,N,01410.40066,E,1,07,1.23,11.7,M,41.3,M,,*6F
$GPGSA,A,3,25,32,24,02,12,29,22,,,,,,3.00,1.23,2.74*0A
$GPGSV,2,1,08,02,39,098,40,11,33,099,41,12,63,043,31,22,24,307,42*7D
$GPGSV,2,2,08,24,45,147,31,25,58,302,40,29,38,215,34,32,31,285,43*73
$GPGLL,4048.14233,N,01410.40066,E,094304.00,A,A*6C
$GPGST,094304.00,14,,,,2.6,1.3,4.2*58
$GPRMC,094305.00,A,4048.14233,N,01410.40066,E,0.000,0.00,120422,3.76,E,A*34
$GPVTG,0.00,T,356.23,M,0.000,N,0.000,K,A*22
$GPGGA,094305.00,4048.14233,N,01410.40066,E,1,07,1.23,11.7,M,41.3,M,,*6E
$GPGSA,A,3,25,32,24,02,12,29,22,,,,,,3.00,1.23,2.74*0A
$GPGSV,2,1,08,02,39,098,39,11,33,099,40,12,63,043,31,22,24,307,41*71
$GPGSV,2,2,08,24,45,147,29,25,58,302,39,29,38,215,31,32,31,285,42*70
$GPGLL,4048.14233,N,01410.40066,E,094305.00,A,A*6D
$GPGST,094305.00,16,,,,2.6,1.3,4.2*5B
$GPRMC,094306.00,A,4048.14233,N,01410.40066,E,0.000,0.00,120422,3.76,E,A*37
$GPVTG,0.00,T,356.23,M,0.000,N,0.000,K,A*22
$GPGGA,094306.00,4048.14233,N,01410.40066,E,1,07,1.23,11.7,M,41.3,M,,*6D
$GPGSA,A,3,25,32,24,02,12,29,22,,,,,,3.00,1.23,2.74*0A
$GPGSV,2,1,08,02,39,097,39,11,33,099,40,12,63,043,31,22,24,307,41*7E
$GPGSV,2,2,08,24,45,147,29,25,58,302,39,29,38,215,32,32,31,285,42*73
$GPGLL,4048.14233,N,01410.40066,E,094306.00,A,A*6E
$GPGST,094306.00,16,,,,2.6,1.3,4.2*58
!AIVDM,1,1,,A,D02Fhah2LN?b<`N00m8v000,2*29
$GPRMC,094307.00,A,4048.14233,N,01410.40066,E,0.000,0.00,120422,3.76,E,A*36
$GPVTG,0.00,T,356.23,M,0.000,N,0.000,K,A*22
$GPGGA,094307.00,4048.14233,N,01410.40066,E,1,07,1.23,11.7,M,41.3,M,,*6C
$GPGSA,A,3,25,32,24,02,12,29,22,,,,,,3.00,1.23,2.74*0A
$GPGSV,2,1,08,02,39,097,40,11,33,099,41,12,63,043,32,22,24,307,41*72
$GPGSV,2,2,08,24,45,147,29,25,58,302,40,29,38,215,32,32,31,285,43*7C
$GPGLL,4048.14233,N,01410.40066,E,094307.00,A,A*6F
$GPGST,094307.00,15,,,,2.6,1.3,4.1*59
!AIVDM,1,1,,A,402FhaivI69c40w`wpGCWSW00<2I,0*61
!AIVDM,1,1,,B,13cwdf0P1b0woRPGDHl9Tgv40<2=,0*44
$GPRMC,094308.00,A,4048.14233,N,01410.40066,E,0.000,0.00,120422,3.76,E,A*39
$GPVTG,0.00,T,356.23,M,0.000,N,0.000,K,A*22
$GPGGA,094308.00,4048.14233,N,01410.40066,E,1,07,1.23,11.7,M,41.3,M,,*63
$GPGSA,A,3,25,32,24,02,12,29,22,,,,,,3.00,1.23,2.74*0A
$GPGSV,2,1,08,02,39,097,41,11,33,099,41,12,63,043,31,22,24,307,41*70
$GPGSV,2,2,08,24,45,147,29,25,58,302,39,29,38,215,32,32,31,285,43*72
$GPGLL,4048.14233,N,01410.40066,E,094308.00,A,A*60
$GPGST,094308.00,16,,,,2.6,1.3,4.1*55
!AIVDM,1,1,,A,13cVcS0P1h10jOLGEE8k:wv:0H3K,0*65
$GPRMC,094309.00,A,4048.14233,N,01410.40066,E,0.000,0.00,120422,3.76,E,A*38
$GPVTG,0.00,T,356.23,M,0.000,N,0.000,K,A*22
$GPGGA,094309.00,4048.14233,N,01410.40066,E,1,07,1.23,11.7,M,41.3,M,,*62
$GPGSA,A,3,25,32,24,02,12,29,22,,,,,,3.01,1.23,2.74*0B
$GPGSV,2,1,08,02,39,097,41,11,33,099,41,12,63,043,31,22,24,307,41*70
$GPGSV,2,2,08,24,45,147,28,25,58,302,39,29,38,215,32,32,31,285,43*73
$GPGLL,4048.14233,N,01410.40066,E,094309.00,A,A*61
$GPGST,094309.00,17,,,,2.6,1.3,4.1*55
$GPRMC,094310.00,A,4048.14233,N,01410.40066,E,0.000,0.00,120422,3.76,E,A*30
$GPVTG,0.00,T,356.23,M,0.000,N,0.000,K,A*22
$GPGGA,094310.00,4048.14233,N,01410.40066,E,1,07,1.23,11.7,M,41.3,M,,*6A
$GPGSA,A,3,25,32,24,02,12,29,22,,,,,,3.01,1.23,2.74*0B
$GPGSV,2,1,08,02,39,097,41,11,33,099,42,12,63,043,32,22,24,307,41*70
$GPGSV,2,2,08,24,45,147,27,25,58,303,40,29,38,215,32,32,31,285,43*73
$GPGLL,4048.14233,N,01410.40066,E,094310.00,A,A*69
$GPGST,094310.00,17,,,,2.7,1.3,4.1*5C
!AIVDM,1,1,,A,13cVV50P1W10FkNGE9a3?gv<084o,0*3E
$GPRMC,094311.00,A,4048.14233,N,01410.40066,E,0.000,0.00,120422,3.76,E,A*31
$GPVTG,0.00,T,356.23,M,0.000,N,0.000,K,A*22
$GPGGA,094311.00,4048.14233,N,01410.40066,E,1,07,1.23,11.7,M,41.3,M,,*6B
$GPGSA,A,3,25,32,24,02,12,29,22,,,,,,3.01,1.23,2.74*0B
$GPGSV,2,1,08,02,39,097,41,11,33,099,42,12,63,043,31,22,24,307,41*73
$GPGSV,2,2,08,24,45,147,27,25,58,303,40,29,38,215,31,32,31,285,43*70
$GPGLL,4048.14233,N,01410.40066,E,094311.00,A,A*68
$GPGST,094311.00,18,,,,2.7,1.3,4.1*52
!AIVDM,1,1,,B,13cT8b0P1w112`0GEdrjNwv>0<1k,0*57
$GPRMC,094312.00,A,4048.14233,N,01410.40066,E,0.000,0.00,120422,3.76,E,A*32
$GPVTG,0.00,T,356.23,M,0.000,N,0.000,K,A*22
$GPGGA,094312.00,4048.14233,N,01410.40066,E,1,07,1.23,11.7,M,41.3,M,,*68
$GPGSA,A,3,25,32,24,02,12,29,22,,,,,,3.01,1.23,2.74*0B
$GPGSV,2,1,08,02,39,097,40,11,33,099,41,12,63,043,30,22,24,307,40*71
$GPGSV,2,2,08,24,45,147,25,25,58,303,39,29,38,215,31,32,31,285,42*7D
$GPGLL,4048.14233,N,01410.40066,E,094312.00,A,A*6B
$GPGST,094312.00,20,,,,2.7,1.3,4.1*5A
!AIVDM,1,1,,A,13cVbi0P00Q0WtbGFwJ1@Ov>05:d,0*4B
$GPRMC,094313.00,A,4048.14250,N,01410.40016,E,0.051,0.00,120422,3.76,E,A*35
$GPVTG,0.00,T,356.23,M,0.051,N,0.095,K,A*2A
$GPGGA,094313.00,4048.14250,N,01410.40016,E,1,07,1.23,11.7,M,41.3,M,,*6B
$GPGSA,A,3,25,32,24,02,12,29,22,,,,,,3.01,1.23,2.74*0B
$GPGSV,2,1,08,02,39,097,40,11,33,099,41,12,63,043,30,22,24,307,41*70
$GPGSV,2,2,08,24,45,147,25,25,58,303,39,29,38,215,31,32,31,285,42*7D
$GPGLL,4048.14250,N,01410.40016,E,094313.00,A,A*68
$GPGST,094313.00,19,,,,3.5,2.8,3.2*5E
$GPRMC,094314.00,A,4048.14250,N,01410.39999,E,0.040,0.00,120422,3.76,E,A*32
$GPVTG,0.00,T,356.23,M,0.040,N,0.073,K,A*22
$GPGGA,094314.00,4048.14250,N,01410.39999,E,1,07,1.23,11.6,M,41.3,M,,*6D
$GPGSA,A,3,25,32,24,02,12,29,22,,,,,,3.01,1.23,2.74*0B
$GPGSV,2,1,08,02,39,097,41,11,33,099,41,12,63,043,30,22,24,307,42*72
$GPGSV,2,2,08,24,45,147,26,25,58,303,40,29,38,215,31,32,31,285,43*71
$GPGLL,4048.14250,N,01410.39999,E,094314.00,A,A*6F
$GPGST,094314.00,19,,,,3.4,2.4,3.1*57
$GPRMC,094315.00,A,4048.14250,N,01410.39990,E,0.006,0.00,120422,3.76,E,A*38
$GPVTG,0.00,T,356.23,M,0.006,N,0.011,K,A*24
$GPGGA,094315.00,4048.14250,N,01410.39990,E,1,07,1.23,11.6,M,41.3,M,,*65
$GPGSA,A,3,25,32,24,02,12,29,22,,,,,,3.01,1.23,2.74*0B
$GPGSV,2,1,08,02,39,097,41,11,33,098,41,12,63,043,31,22,24,307,42*72
$GPGSV,2,2,08,24,45,147,26,25,58,303,40,29,38,215,31,32,31,285,43*71
$GPGLL,4048.14250,N,01410.39990,E,094315.00,A,A*67
$GPGST,094315.00,18,,,,3.4,2.1,3.1*52
$GPRMC,094316.00,A,4048.14250,N,01410.39990,E,0.000,0.00,120422,3.76,E,A*3D
$GPVTG,0.00,T,356.23,M,0.000,N,0.000,K,A*22
$GPGGA,094316.00,4048.14250,N,01410.39990,E,1,07,1.23,11.6,M,41.3,M,,*66
$GPGSA,A,3,25,32,24,02,12,29,22,,,,,,3.01,1.23,2.74*0B
$GPGSV,2,1,08,02,39,097,41,11,33,098,41,12,62,044,31,22,24,307,42*74
$GPGSV,2,2,08,24,45,147,27,25,58,303,40,29,38,215,32,32,31,285,43*73
$GPGLL,4048.14250,N,01410.39990,E,094316.00,A,A*64
$GPGST,094316.00,17,,,,3.3,2.0,3.1*58
!AIVDM,1,1,,B,B3eIJr00@8@<Hd5mCtljKwVUoP06,0*07
$GPRMC,094317.00,A,4048.14250,N,01410.39990,E,0.000,0.00,120422,3.76,E,A*3C
$GPVTG,0.00,T,356.23,M,0.000,N,0.000,K,A*22
$GPGGA,094317.00,4048.14250,N,01410.39990,E,1,07,1.23,11.6,M,41.3,M,,*67
$GPGSA,A,3,25,32,24,02,12,29,22,,,,,,3.01,1.23,2.74*0B
$GPGSV,2,1,08,02,39,097,42,11,33,098,42,12,62,044,32,22,24,307,43*76
$GPGSV,2,2,08,24,45,147,29,25,58,303,41,29,38,215,33,32,31,285,44*7A
$GPGLL,4048.14250,N,01410.39990,E,094317.00,A,A*65
$GPGST,094317.00,15,,,,3.3,1.9,3.1*51
!AIVDM,1,1,,B,402FhaivI69c>0w`wpGCWSW000S:,0*76
$GPRMC,094318.00,A,4048.14250,N,01410.39990,E,0.000,0.00,120422,3.76,E,A*33
$GPVTG,0.00,T,356.23,M,0.000,N,0.000,K,A*22
!AIVDM,1,1,,B,13cVcS0P1g10jbtGEED39OvL088m,0*48
$GPGGA,094318.00,4048.14250,N,01410.39990,E,1,07,1.23,11.6,M,41.3,M,,*68
$GPGSA,A,3,25,32,24,02,12,29,22,,,,,,3.01,1.23,2.74*0B
$GPGSV,2,1,08,02,39,097,41,11,33,098,42,12,62,044,32,22,24,307,42*74
$GPGSV,2,2,08,24,45,147,29,25,58,303,40,29,38,215,32,32,31,285,43*7D
$GPGLL,4048.14250,N,01410.39990,E,094318.00,A,A*6A
$GPGST,094318.00,15,,,,3.3,1.8,3.2*5C
$GPRMC,094319.00,A,4048.14250,N,01410.39990,E,0.000,0.00,120422,3.76,E,A*32
$GPVTG,0.00,T,356.23,M,0.000,N,0.000,K,A*22
$GPGGA,094319.00,4048.14250,N,01410.39990,E,1,07,1.23,11.6,M,41.3,M,,*69
$GPGSA,A,3,25,32,24,02,12,29,22,,,,,,3.01,1.23,2.74*0B
$GPGSV,2,1,08,02,39,097,41,11,33,098,42,12,62,044,33,22,24,307,40*77
$GPGSV,2,2,08,24,45,147,32,25,58,303,36,29,38,215,32,32,31,285,43*76
$GPGLL,4048.14250,N,01410.39990,E,094319.00,A,A*6B
$GPGST,094319.00,13,,,,3.2,1.7,3.3*54
$GPRMC,094320.00,A,4048.14250,N,01410.39990,E,0.000,0.00,120422,3.76,E,A*38
$GPVTG,0.00,T,356.23,M,0.000,N,0.000,K,A*22
$GPGGA,094320.00,4048.14250,N,01410.39990,E,1,07,1.23,11.6,M,41.3,M,,*63
$GPGSA,A,3,25,32,24,02,12,29,22,,,,,,3.01,1.23,2.74*0B
$GPGSV,2,1,08,02,39,097,39,11,33,098,42,12,62,044,33,22,24,307,40*78
$GPGSV,2,2,08,24,45,147,29,25,58,303,36,29,38,215,31,32,31,285,44*78
$GPGLL,4048.14250,N,01410.39990,E,094320.00,A,A*61
$GPGST,094320.00,16,,,,3.2,1.7,3.4*5C
!AIVDM,1,1,,B,13cVV50P1V10Fw6GE9j3@wvP0<1i,0*57
$GPRMC,094321.00,A,4048.14250,N,01410.39990,E,0.000,0.00,120422,3.76,E,A*39
$GPVTG,0.00,T,356.23,M,0.000,N,0.000,K,A*22
$GPGGA,094321.00,4048.14250,N,01410.39990,E,1,07,1.23,11.6,M,41.3,M,,*62
$GPGSA,A,3,25,32,24,02,12,29,22,,,,,,3.01,1.23,2.74*0B
$GPGSV,2,1,08,02,39,097,39,11,33,098,41,12,62,044,32,22,24,307,40*7A
$GPGSV,2,2,08,24,45,147,32,25,58,303,36,29,38,215,32,32,31,285,44*71
$GPGLL,4048.14250,N,01410.39990,E,094321.00,A,A*60
$GPGST,094321.00,14,,,,3.2,1.6,3.5*5F
!AIVDM,1,1,,A,13cT8b0P1v112lrGEeS2M?vR0<1n,0*41
$GPRMC,094322.00,A,4048.14250,N,01410.39990,E,0.000,0.00,120422,3.76,E,A*3A
$GPVTG,0.00,T,356.23,M,0.000,N,0.000,K,A*22
$GPGGA,094322.00,4048.14250,N,01410.39990,E,1,07,1.23,11.6,M,41.3,M,,*61
$GPGSA,A,3,25,32,24,02,12,29,22,,,,,,3.01,1.23,2.75*0A
$GPGSV,2,1,08,02,39,097,40,11,33,098,42,12,62,044,32,22,24,307,41*76
$GPGSV,2,2,08,24,45,147,33,25,58,303,37,29,38,215,32,32,31,285,45*70
$GPGLL,4048.14250,N,01410.39990,E,094322.00,A,A*63
$GPGST,094322.00,13,,,,3.2,1.6,3.6*58
!AIVDM,1,1,,B,D02FhaiRHN?b<`N01ptv000,2*1F
$GPRMC,094323.00,A,4048.14250,N,01410.39990,E,0.000,0.00,120422,3.76,E,A*3B
$GPVTG,0.00,T,356.23,M,0.000,N,0.000,K,A*22
$GPGGA,094323.00,4048.14250,N,01410.39990,E,1,07,1.23,11.6,M,41.3,M,,*60
$GPGSA,A,3,25,32,24,02,12,29,22,,,,,,3.01,1.23,2.75*0A
$GPGSV,2,1,08,02,39,097,40,11,33,098,42,12,62,044,33,22,24,307,41*77
$GPGSV,2,2,08,24,45,147,32,25,58,303,37,29,38,215,30,32,31,285,45*73
$GPGLL,4048.14250,N,01410.39990,E,094323.00,A,A*62
$GPGST,094323.00,15,,,,3.1,1.6,3.7*5D
$GPRMC,094324.00,A,4048.14250,N,01410.39990,E,0.000,0.00,120422,3.76,E,A*3C
$GPVTG,0.00,T,356.23,M,0.000,N,0.000,K,A*22
$GPGGA,094324.00,4048.14250,N,01410.39990,E,1,07,1.23,11.6,M,41.3,M,,*67
$GPGSA,A,3,25,32,24,02,12,29,22,,,,,,3.01,1.23,2.75*0A
$GPGSV,2,1,08,02,39,097,40,11,33,098,42,12,62,044,33,22,24,307,41*77
$GPGSV,2,2,08,24,45,147,31,25,58,303,38,29,38,215,29,32,31,285,45*77
$GPGLL,4048.14250,N,01410.39990,E,094324.00,A,A*65
$GPGST,094324.00,16,,,,3.1,1.5,3.7*5A
$GPRMC,094325.00,A,4048.14250,N,01410.39990,E,0.000,0.00,120422,3.76,E,A*3D
$GPVTG,0.00,T,356.23,M,0.000,N,0.000,K,A*22
$GPGGA,094325.00,4048.14250,N,01410.39990,E,1,07,1.23,11.6,M,41.3,M,,*66
$GPGSA,A,3,25,32,24,02,12,29,22,,,,,,3.01,1.23,2.75*0A
$GPGSV,2,1,08,02,39,097,40,11,33,098,42,12,62,044,33,22,24,307,41*77
$GPGSV,2,2,08,24,45,147,31,25,58,303,38,29,38,215,30,32,31,285,45*7F
$GPGLL,4048.14250,N,01410.39990,E,094325.00,A,A*64
$GPGST,094325.00,15,,,,3.1,1.5,3.8*57
$GPRMC,094326.00,A,4048.14250,N,01410.39990,E,0.000,0.00,120422,3.76,E,A*3E
$GPVTG,0.00,T,356.23,M,0.000,N,0.000,K,A*22
$GPGGA,094326.00,4048.14250,N,01410.39990,E,1,07,1.23,11.6,M,41.3,M,,*65
$GPGSA,A,3,25,32,24,02,12,29,22,,,,,,3.01,1.23,2.75*0A
$GPGSV,2,1,08,02,39,097,39,11,33,098,41,12,62,044,33,22,24,306,41*7B
$GPGSV,2,2,08,24,45,147,31,25,58,303,37,29,38,215,30,32,31,285,44*71
$GPGLL,4048.14250,N,01410.39990,E,094326.00,A,A*67
$GPGST,094326.00,15,,,,3.1,1.5,3.9*55
$GPRMC,094327.00,A,4048.14250,N,01410.39990,E,0.000,0.00,120422,3.76,E,A*3F
$GPVTG,0.00,T,356.23,M,0.000,N,0.000,K,A*22
$GPGGA,094327.00,4048.14250,N,01410.39990,E,1,07,1.23,11.6,M,41.3,M,,*64
$GPGSA,A,3,25,32,24,02,12,29,22,,,,,,3.01,1.23,2.75*0A
$GPGSV,2,1,08,02,39,097,39,11,33,098,41,12,62,044,33,22,24,306,41*7B
$GPGSV,2,2,08,24,45,147,30,25,58,303,37,29,38,215,31,32,31,285,45*70
$GPGLL,4048.14250,N,01410.39990,E,094327.00,A,A*66
$GPGST,094327.00,15,,,,3.1,1.5,4.0*5A
!AIVDM,1,1,,A,402FhaivI69cH0w`wpGCWSW00@>N,0*6A
$GPRMC,094328.00,A,4048.14250,N,01410.39990,E,0.000,0.00,120422,3.76,E,A*30
$GPVTG,0.00,T,356.23,M,0.000,N,0.000,K,A*22
$GPGGA,094328.00,4048.14250,N,01410.39990,E,1,07,1.23,11.6,M,41.3,M,,*6B
$GPGSA,A,3,25,32,24,02,12,29,22,,,,,,3.01,1.23,2.75*0A
$GPGSV,2,1,08,02,39,097,41,11,33,098,42,12,62,044,32,22,24,306,42*75
$GPGSV,2,2,08,24,45,147,31,25,58,303,35,29,38,215,35,32,31,285,45*77
$GPGLL,4048.14250,N,01410.39990,E,094328.00,A,A*69
$GPGST,094328.00,14,,,,3.1,1.5,4.1*55
!AIVDM,1,1,,A,13cVcS0P1g10jpLGEESC9wvj00RG,0*50
$GPRMC,094329.00,A,4048.14250,N,01410.39990,E,0.000,0.00,120422,3.76,E,A*31
$GPVTG,0.00,T,356.23,M,0.000,N,0.000,K,A*22
$GPGGA,094329.00,4048.14250,N,01410.39990,E,1,07,1.23,11.6,M,41.3,M,,*6A
$GPGSA,A,3,25,32,24,02,12,29,22,,,,,,3.01,1.23,2.75*0A
$GPGSV,2,1,08,02,39,097,40,11,33,098,43,12,62,044,33,22,24,306,42*74
$GPGSV,2,2,08,24,45,147,31,25,58,303,37,29,38,215,34,32,31,285,45*74
$GPGLL,4048.14250,N,01410.39990,E,094329.00,A,A*68
$GPGST,094329.00,13,,,,3.1,1.4,4.1*52
!AIVDM,1,1,,B,13cVTQ0P1sQ0>7lGE1=8V?vl0D2:,0*08
$GPRMC,094330.00,A,4048.14250,N,01410.39990,E,0.000,0.00,120422,3.76,E,A*39
$GPVTG,0.00,T,356.23,M,0.000,N,0.000,K,A*22
$GPGGA,094330.00,4048.14250,N,01410.39990,E,1,07,1.23,11.6,M,41.3,M,,*62
$GPGSA,A,3,25,32,24,02,12,29,22,,,,,,3.01,1.23,2.75*0A
$GPGSV,2,1,08,02,39,097,42,11,33,098,42,12,62,044,38,22,24,306,42*7C
$GPGSV,2,2,08,24,45,147,32,25,58,303,36,29,38,215,34,32,31,285,44*77
$GPGLL,4048.14250,N,01410.39990,E,094330.00,A,A*60
$GPGST,094330.00,11,,,,3.0,1.4,4.2*5A
$GPRMC,094331.00,A,4048.14250,N,01410.39990,E,0.000,0.00,120422,3.76,E,A*38
$GPVTG,0.00,T,356.23,M,0.000,N,0.000,K,A*22
$GPGGA,094331.00,4048.14250,N,01410.39990,E,1,07,1.23,11.6,M,41.3,M,,*63
$GPGSA,A,3,25,32,24,02,12,29,22,,,,,,3.01,1.23,2.75*0A
$GPGSV,2,1,08,02,39,097,41,11,33,098,43,12,62,044,39,22,24,306,41*7C
$GPGSV,2,2,08,24,45,147,32,25,58,303,36,29,38,215,31,32,31,285,44*72
$GPGLL,4048.14250,N,01410.39990,E,094331.00,A,A*61
$GPGST,094331.00,12,,,,2.9,1.4,4.2*50
$GPRMC,094332.00,A,4048.14250,N,01410.39990,E,0.000,0.00,120422,3.76,E,A*3B
$GPVTG,0.00,T,356.23,M,0.000,N,0.000,K,A*22
$GPGGA,094332.00,4048.14250,N,01410.39990,E,1,07,1.23,11.6,M,41.3,M,,*60
$GPGSA,A,3,25,32,24,02,12,29,22,,,,,,3.01,1.23,2.75*0A
$GPGSV,2,1,08,02,39,097,42,11,33,098,44,12,62,044,40,22,24,306,42*75
$GPGSV,2,2,08,24,45,147,32,25,58,303,37,29,38,215,34,32,31,285,45*77
$GPGLL,4048.14250,N,01410.39990,E,094332.00,A,A*62
$GPGST,094332.00,11,,,,2.9,1.4,4.1*53
$GPRMC,094333.00,A,4048.14250,N,01410.39990,E,0.000,0.00,120422,3.76,E,A*3A
$GPVTG,0.00,T,356.23,M,0.000,N,0.000,K,A*22
$GPGGA,094333.00,4048.14250,N,01410.39990,E,1,07,1.23,11.6,M,41.3,M,,*61
$GPGSA,A,3,25,32,24,02,12,29,22,,,,,,3.01,1.23,2.75*0A
$GPGSV,2,1,08,02,39,097,39,11,33,098,40,12,62,044,36,22,24,306,40*7E
$GPGSV,2,2,08,24,45,147,30,25,58,303,34,29,38,215,33,32,31,285,43*77
$GPGLL,4048.14250,N,01410.39990,E,094333.00,A,A*63
$GPGST,094333.00,14,,,,2.9,1.4,4.2*54
$GPRMC,094334.00,A,4048.14250,N,01410.39990,E,0.000,0.00,120422,3.76,E,A*3D
$GPVTG,0.00,T,356.23,M,0.000,N,0.000,K,A*22
$GPGGA,094334.00,4048.14250,N,01410.39990,E,1,07,1.23,11.6,M,41.3,M,,*66
$GPGSA,A,3,25,32,24,02,12,29,22,,,,,,3.01,1.23,2.75*0A
$GPGSV,2,1,08,02,39,097,39,11,33,098,40,12,62,044,37,22,24,306,39*71
$GPGSV,2,2,08,24,45,147,30,25,58,303,35,29,38,215,33,32,31,285,43*76
$GPGLL,4048.14250,N,01410.39990,E,094334.00,A,A*64
$GPGST,094334.00,13,,,,2.8,1.4,4.3*54
$GPRMC,094335.00,A,4048.14250,N,01410.39990,E,0.000,0.00,120422,3.76,E,A*3C
$GPVTG,0.00,T,356.23,M,0.000,N,0.000,K,A*22
$GPGGA,094335.00,4048.14250,N,01410.39990,E,1,07,1.23,11.6,M,41.3,M,,*67
$GPGSA,A,3,25,32,24,02,12,29,22,,,,,,3.01,1.23,2.75*0A
$GPGSV,2,1,08,02,39,097,39,11,33,098,41,12,62,044,37,22,24,306,40*7E
$GPGSV,2,2,08,24,45,147,30,25,58,303,36,29,38,215,33,32,31,285,44*72
$GPGLL,4048.14250,N,01410.39990,E,094335.00,A,A*65
$GPGST,094335.00,13,,,,2.8,1.4,4.3*55
!AIVDM,1,1,,A,13cVTQ0P1qQ0>44GE0b8Pwvv05:d,0*7F
$GPRMC,094336.00,A,4048.14250,N,01410.39990,E,0.000,0.00,120422,3.76,E,A*3F
$GPVTG,0.00,T,356.23,M,0.000,N,0.000,K,A*22
$GPGGA,094336.00,4048.14250,N,01410.39990,E,1,07,1.23,11.6,M,41.3,M,,*64
$GPGSA,A,3,25,32,24,02,12,29,22,,,,,,3.01,1.23,2.75*0A
$GPGSV,2,1,08,02,39,097,40,11,33,098,41,12,62,044,38,22,24,306,40*7F
$GPGSV,2,2,08,24,45,147,30,25,58,303,36,29,38,215,33,32,31,284,44*73
$GPGLL,4048.14250,N,01410.39990,E,094336.00,A,A*66
$GPGST,094336.00,13,,,,2.8,1.4,4.3*56
$GPRMC,094337.00,A,4048.14250,N,01410.39990,E,0.000,0.00,120422,3.76,E,A*3E
$GPVTG,0.00,T,356.23,M,0.000,N,0.000,K,A*22
$GPGGA,094337.00,4048.14250,N,01410.39990,E,1,07,1.23,11.6,M,41.3,M,,*65
$GPGSA,A,3,25,32,24,02,12,29,22,,,,,,3.01,1.23,2.75*0A
$GPGSV,2,1,08,02,39,097,40,11,33,098,40,12,62,044,36,22,24,306,38*7F
$GPGSV,2,2,08,24,45,147,29,25,58,303,36,29,38,215,33,32,31,284,43*7C
$GPGLL,4048.14250,N,01410.39990,E,094337.00,A,A*67
$GPGST,094337.00,14,,,,2.8,1.3,4.4*50
!AIVDM,1,1,,B,402FhaivI69cR0w`wpGCWSW005:d,0*28
!AIVDM,1,1,,A,13cwdf0P1Q0wo20GDGJ9Tgw00D2=,0*20
$GPRMC,094338.00,A,4048.14250,N,01410.39990,E,0.000,0.00,120422,3.76,E,A*31
$GPVTG,0.00,T,356.23,M,0.000,N,0.000,K,A*22
$GPGGA,094338.00,4048.14250,N,01410.39990,E,1,07,1.23,11.6,M,41.3,M,,*6A
$GPGSA,A,3,25,32,24,02,12,29,22,,,,,,3.01,1.23,2.75*0A
$GPGSV,2,1,08,02,39,097,40,11,33,098,41,12,62,044,39,22,24,306,40*7E
$GPGSV,2,2,08,24,45,147,30,25,58,303,36,29,38,215,33,32,31,284,44*73
$GPGLL,4048.14250,N,01410.39990,E,094338.00,A,A*68
$GPGST,094338.00,13,,,,2.7,1.3,4.4*57
!AIVDM,1,1,,B,13cVcS0P1g10k4fGEEbS:Ow60<1b,0*31
$GPRMC,094339.00,A,4048.14250,N,01410.39990,E,0.000,0.00,120422,3.76,E,A*30
$GPVTG,0.00,T,356.23,M,0.000,N,0.000,K,A*22
$GPGGA,094339.00,4048.14250,N,01410.39990,E,1,07,1.23,11.6,M,41.3,M,,*6B
$GPGSA,A,3,25,32,24,02,12,29,22,,,,,,3.01,1.23,2.75*0A
$GPGSV,2,1,08,02,39,097,41,11,33,098,41,12,62,044,39,22,24,306,40*7F
$GPGSV,2,2,08,24,45,147,31,25,58,303,36,29,38,215,33,32,31,284,44*72
$GPGLL,4048.14250,N,01410.39990,E,094339.00,A,A*69
$GPGST,094339.00,12,,,,2.7,1.3,4.4*57
!AIVDM,1,1,,B,13cVV50P1V10GE<GE:1kCww600T5,0*3F
$GPRMC,094340.00,A,4048.14250,N,01410.39990,E,0.000,0.00,120422,3.76,E,A*3E
$GPVTG,0.00,T,356.23,M,0.000,N,0.000,K,A*22
$GPGGA,094340.00,4048.14250,N,01410.39990,E,1,07,1.23,11.6,M,41.3,M,,*65
$GPGSA,A,3,25,32,24,02,12,29,22,,,,,,3.01,1.23,2.75*0A
$GPGSV,2,1,08,02,39,097,41,11,33,098,42,12,62,044,39,22,24,306,40*7C
$GPGSV,2,2,08,24,45,147,31,25,58,303,36,29,38,215,33,32,31,284,44*72
$GPGLL,4048.14250,N,01410.39990,E,094340.00,A,A*67
$GPGST,094340.00,12,,,,2.7,1.3,4.4*59
$GPRMC,094341.00,A,4048.14250,N,01410.39990,E,0.000,0.00,120422,3.76,E,A*3F
$GPVTG,0.00,T,356.23,M,0.000,N,0.000,K,A*22
$GPGGA,094341.00,4048.14250,N,01410.39990,E,1,07,1.23,11.6,M,41.3,M,,*64
$GPGSA,A,3,25,32,24,02,12,29,22,,,,,,3.01,1.23,2.75*0A
$GPGSV,2,1,08,02,39,097,43,11,33,098,41,12,62,044,34,22,24,306,40*70
$GPGSV,2,2,08,24,45,147,30,25,58,303,35,29,38,215,34,32,31,284,45*76
$GPGLL,4048.14250,N,01410.39990,E,094341.00,A,A*66
$GPGST,094341.00,14,,,,2.6,1.3,4.4*5F
!AIVDM,1,1,,B,13cVTQ0P1lQ0>00GE04`Kww:00ST,0*65
!AIVDM,1,1,,A,13chdT0P0010W=hGFtL5t?w:0@Fg,0*27
$GPRMC,094342.00,A,4048.14250,N,01410.39990,E,0.000,0.00,120422,3.76,E,A*3C
$GPVTG,0.00,T,356.23,M,0.000,N,0.000,K,A*22
$GPGGA,094342.00,4048.14250,N,01410.39990,E,1,07,1.23,11.6,M,41.3,M,,*67
$GPGSA,A,3,25,32,24,02,12,29,22,,,,,,3.01,1.23,2.75*0A
$GPGSV,2,1,08,02,39,097,42,11,33,098,41,12,62,044,36,22,24,306,41*72
$GPGSV,2,2,08,24,45,147,33,25,58,303,37,29,38,215,34,32,31,284,45*77
$GPGLL,4048.14250,N,01410.39990,E,094342.00,A,A*65
$GPGST,094342.00,11,,,,2.6,1.3,4.5*58
!AIVDM,1,1,,A,13cT8b0P1v113?bGEfsjHgw<0@Gg,0*49
$GPRMC,094343.00,A,4048.14250,N,01410.39990,E,0.000,0.00,120422,3.76,E,A*3D
$GPVTG,0.00,T,356.23,M,0.000,N,0.000,K,A*22
$GPGGA,094343.00,4048.14250,N,01410.39990,E,1,07,1.23,11.6,M,41.3,M,,*66
$GPGSA,A,3,25,32,24,02,12,29,22,,,,,,3.01,1.23,2.75*0A
$GPGSV,2,1,08,02,39,097,41,11,33,098,39,12,62,044,36,22,24,306,41*7E
$GPGSV,2,2,08,24,45,147,32,25,58,303,36,29,38,215,28,32,31,284,44*7B
$GPGLL,4048.14250,N,01410.39990,E,094343.00,A,A*64
$GPGST,094343.00,15,,,,2.6,1.3,4.5*5D
$GPRMC,094344.00,A,4048.14250,N,01410.39990,E,0.000,0.00,120422,3.76,E,A*3A
$GPVTG,0.00,T,356.23,M,0.000,N,0.000,K,A*22
$GPGGA,094344.00,4048.14250,N,01410.39990,E,1,07,1.23,11.6,M,41.3,M,,*61
$GPGSA,A,3,25,32,24,02,12,29,22,,,,,,3.01,1.23,2.75*0A
$GPGSV,2,1,08,02,39,097,44,11,33,098,43,12,62,044,34,22,24,306,42*77
$GPGSV,2,2,08,24,45,147,34,25,58,303,33,29,38,215,29,32,31,284,46*7B
$GPGLL,4048.14250,N,01410.39990,E,094344.00,A,A*63
$GPGST,094344.00,16,,,,2.7,1.3,4.5*58
$GPRMC,094345.00,A,4048.14250,N,01410.39990,E,0.000,0.00,120422,3.76,E,A*3B
$GPVTG,0.00,T,356.23,M,0.000,N,0.000,K,A*22
$GPGGA,094345.00,4048.14250,N,01410.39990,E,1,07,1.23,11.6,M,41.3,M,,*60
$GPGSA,A,3,25,32,24,02,12,29,22,,,,,,3.01,1.23,2.75*0A
$GPGSV,2,1,08,02,39,097,41,11,33,098,39,12,62,044,34,22,24,306,40*7D
$GPGSV,2,2,08,24,45,147,32,25,58,303,33,29,38,215,30,32,31,284,44*77
$GPGLL,4048.14250,N,01410.39990,E,094345.00,A,A*62
$GPGST,094345.00,15,,,,2.7,1.3,4.6*59
$GPRMC,094346.00,A,4048.14250,N,01410.39990,E,0.000,0.00,120422,3.76,E,A*38
$GPVTG,0.00,T,356.23,M,0.000,N,0.000,K,A*22
$GPGGA,094346.00,4048.14250,N,01410.39990,E,1,07,1.23,11.6,M,41.3,M,,*63
$GPGSA,A,3,25,32,24,02,12,29,22,,,,,,3.01,1.23,2.75*0A
$GPGSV,2,1,08,02,39,097,42,11,33,098,41,12,62,044,33,22,24,306,41*77
$GPGSV,2,2,08,24,45,147,31,25,58,303,35,29,38,215,32,32,31,284,44*70
$GPGLL,4048.14250,N,01410.39990,E,094346.00,A,A*61
$GPGST,094346.00,14,,,,2.7,1.3,4.7*5A
!AIVDM,1,1,,A,B3eIJr00@8@<N95mD1Tk?wmUoP06,0*6B
$GPRMC,094347.00,A,4048.14250,N,01410.39990,E,0.000,0.00,120422,3.76,E,A*39
$GPVTG,0.00,T,356.23,M,0.000,N,0.000,K,A*22
$GPGGA,094347.00,4048.14250,N,01410.39990,E,1,07,1.23,11.6,M,41.3,M,,*62
$GPGSA,A,3,25,32,24,02,12,29,22,,,,,,3.01,1.23,2.75*0A
$GPGSV,2,1,08,02,39,097,40,11,33,098,41,12,62,044,34,22,24,306,43*70
$GPGSV,2,2,08,24,45,147,29,25,58,303,38,29,38,215,33,32,31,284,43*72
$GPGLL,4048.14250,N,01410.39990,E,094347.00,A,A*60
$GPGST,094347.00,14,,,,2.7,1.3,4.7*5B
!AIVDM,1,1,,A,402FhaivI69cd0w`wpGCWSW008J<,0*38
$GPRMC,094348.00,A,4048.14250,N,01410.39990,E,0.000,0.00,120422,3.76,E,A*36
$GPVTG,0.00,T,356.23,M,0.000,N,0.000,K,A*22
$GPGGA,094348.00,4048.14250,N,01410.39990,E,1,07,1.23,11.6,M,41.3,M,,*6D
$GPGSA,A,3,25,32,24,02,12,29,22,,,,,,3.02,1.23,2.75*09
$GPGSV,2,1,08,02,39,097,40,11,33,098,40,12,62,044,33,22,24,306,41*74
$GPGSV,2,2,08,24,45,147,27,25,58,303,33,29,38,215,36,32,31,284,47*76
$GPGLL,4048.14250,N,01410.39990,E,094348.00,A,A*6F
$GPGST,094348.00,18,,,,2.6,1.3,4.8*56
!AIVDM,1,1,,A,13cVTQ0P1eQ0=stGDwJ8FOwH0@JV,0*27
$GPRMC,094349.00,A,4048.14250,N,01410.39990,E,0.000,0.00,120422,3.76,E,A*37
$GPVTG,0.00,T,356.23,M,0.000,N,0.000,K,A*22
$GPGGA,094349.00,4048.14250,N,01410.39990,E,1,07,1.23,11.6,M,41.3,M,,*6C
$GPGSA,A,3,25,32,24,02,12,29,22,,,,,,3.02,1.23,2.75*09
$GPGSV,2,1,08,02,39,097,41,11,33,098,41,12,62,044,15,22,24,306,40*71
$GPGSV,2,2,08,24,45,147,19,25,58,303,38,29,38,215,28,32,31,284,45*7D
$GPGLL,4048.14250,N,01410.39990,E,094349.00,A,A*6E
$GPGST,094349.00,49,,,,2.7,1.3,4.8*52
!AIVDM,1,1,,A,13cVcS0P1g10kA>GEEoS:?wJ0HK3,0*41
$GPRMC,094350.00,A,4048.14250,N,01410.39990,E,0.000,0.00,120422,3.76,E,A*3F
$GPVTG,0.00,T,356.23,M,0.000,N,0.000,K,A*22
$GPGGA,094350.00,4048.14250,N,01410.39990,E,1,07,1.23,11.6,M,41.3,M,,*64
$GPGSA,A,3,25,32,24,02,12,29,22,,,,,,3.02,1.23,2.75*09
$GPGSV,2,1,08,02,39,097,39,11,33,098,38,12,62,044,19,22,24,306,40*7C
$GPGSV,2,2,08,24,45,147,21,25,58,303,33,29,38,215,33,32,31,284,45*77
$GPGLL,4048.14250,N,01410.39990,E,094350.00,A,A*66
$GPGST,094350.00,43,,,,2.8,1.3,4.9*5E
$GPRMC,094351.00,A,4048.14250,N,01410.39990,E,0.000,0.00,120422,3.76,E,A*3E
$GPVTG,0.00,T,356.23,M,0.000,N,0.000,K,A*22
$GPGGA,094351.00,4048.14250,N,01410.39990,E,1,07,1.23,11.6,M,41.3,M,,*65
$GPGSA,A,3,25,32,24,02,12,29,22,,,,,,3.02,1.23,2.75*09
$GPGSV,2,1,08,02,39,097,41,11,33,098,41,12,62,044,22,22,24,306,36*74
$GPGSV,2,2,08,24,45,147,23,25,58,303,37,29,38,215,30,32,31,284,43*74
$GPGLL,4048.14250,N,01410.39990,E,094351.00,A,A*67
$GPGST,094351.00,29,,,,2.9,1.3,5.0*5A
!AIVDM,1,1,,A,B3clC>P0?p@8Uf5mG6iw?wp5oP06,0*42
$GPRMC,094352.00,A,4048.14250,N,01410.39990,E,0.000,0.00,120422,3.76,E,A*3D
$GPVTG,0.00,T,356.23,M,0.000,N,0.000,K,A*22
$GPGGA,094352.00,4048.14250,N,01410.39990,E,1,07,1.23,11.6,M,41.3,M,,*66
$GPGSA,A,3,25,32,24,02,12,29,22,,,,,,3.02,1.23,2.75*09
$GPGSV,2,1,08,02,39,097,39,11,33,098,40,12,62,044,23,22,24,306,36*7B
$GPGSV,2,2,08,24,45,147,25,25,58,303,31,29,38,215,34,32,31,284,43*70
$GPGLL,4048.14250,N,01410.39990,E,094352.00,A,A*64
$GPGST,094352.00,25,,,,3.0,1.3,5.1*5C
$GPRMC,094353.00,A,4048.14250,N,01410.39990,E,0.000,0.00,120422,3.76,E,A*3C
$GPVTG,0.00,T,356.23,M,0.000,N,0.000,K,A*22
$GPGGA,094353.00,4048.14250,N,01410.39990,E,1,07,1.23,11.6,M,41.3,M,,*67
$GPGSA,A,3,25,32,24,02,12,29,22,,,,,,3.02,1.23,2.75*09
$GPGSV,2,1,08,02,39,097,40,11,33,098,41,12,62,044,22,22,24,306,38*7B
!AIVDM,1,1,,B,13cT8b0P1v113L@GEgWBGwwP0HMu,0*75
$GPGSV,2,2,08,24,45,147,27,25,58,303,29,29,38,215,35,32,31,284,44*7D
$GPGLL,4048.14250,N,01410.39990,E,094353.00,A,A*65
$GPGST,094353.00,26,,,,3.0,1.3,5.3*5C
!AIVDM,1,1,,B,13cVTQ0P1WQ0=q8GDvt8BOwR05:d,0*4E
$GPRMC,094354.00,A,4048.14250,N,01410.39990,E,0.000,0.00,120422,3.76,E,A*3B
$GPVTG,0.00,T,356.23,M,0.000,N,0.000,K,A*22
$GPGGA,094354.00,4048.14250,N,01410.39990,E,1,07,1.23,11.6,M,41.3,M,,*60
$GPGSA,A,3,25,32,24,02,12,29,22,,,,,,3.02,1.23,2.75*09
$GPGSV,2,1,08,02,39,097,40,11,33,098,41,12,62,044,22,22,24,306,38*7B
$GPGSV,2,2,08,24,45,147,29,25,58,303,34,29,38,215,33,32,31,284,44*79
$GPGLL,4048.14250,N,01410.39990,E,094354.00,A,A*62
$GPGST,094354.00,24,,,,3.0,1.3,5.4*5E
$GPRMC,094355.00,A,4048.14250,N,01410.39990,E,0.000,0.00,120422,3.76,E,A*3A
$GPVTG,0.00,T,356.23,M,0.000,N,0.000,K,A*22
$GPGGA,094355.00,4048.14250,N,01410.39990,E,1,07,1.23,11.6,M,41.3,M,,*61
$GPGSA,A,3,25,32,24,02,12,29,22,,,,,,3.02,1.23,2.75*09
$GPGSV,2,1,08,02,39,097,41,11,33,098,41,12,62,044,26,22,24,306,38*7E
$GPGSV,2,2,08,24,45,147,30,25,58,303,34,29,38,215,32,32,31,284,44*70
$GPGLL,4048.14250,N,01410.39990,E,094355.00,A,A*63
$GPGST,094355.00,20,,,,3.0,1.3,5.5*5A
$GPRMC,094356.00,A,4048.14250,N,01410.39990,E,0.000,0.00,120422,3.76,E,A*39
$GPVTG,0.00,T,356.23,M,0.000,N,0.000,K,A*22
$GPGGA,094356.00,4048.14250,N,01410.39990,E,1,07,1.23,11.6,M,41.3,M,,*62
$GPGSA,A,3,25,32,24,02,12,29,22,,,,,,3.02,1.23,2.75*09
$GPGSV,2,1,08,02,39,097,41,11,33,098,41,12,62,044,26,22,24,306,39*7F
$GPGSV,2,2,08,24,45,147,30,25,58,303,34,29,38,215,33,32,31,284,44*71
$GPGLL,4048.14250,N,01410.39990,E,094356.00,A,A*60
$GPGST,094356.00,19,,,,3.0,1.3,5.6*50
$GPRMC,094357.00,A,4048.14250,N,01410.39990,E,0.000,0.00,120422,3.76,E,A*38
$GPVTG,0.00,T,356.23,M,0.000,N,0.000,K,A*22
$GPGGA,094357.00,4048.14250,N,01410.39990,E,1,07,1.23,11.6,M,41.3,M,,*63
$GPGSA,A,3,25,32,24,02,12,29,22,,,,,,3.02,1.23,2.76*0A
$GPGSV,2,1,08,02,39,097,42,11,33,098,40,12,62,044,25,22,24,306,38*7F
$GPGSV,2,2,08,24,45,147,29,25,58,303,37,29,38,215,35,32,31,284,45*7D
$GPGLL,4048.14250,N,01410.39990,E,094357.00,A,A*61
$GPGST,094357.00,20,,,,3.0,1.3,5.6*5B
!AIVDM,1,1,,B,402FhaivI69cn0w`wpGCWSW00@P3,0*5C
$GPRMC,094358.00,A,4048.14250,N,01410.39990,E,0.000,0.00,120422,3.76,E,A*37
$GPVTG,0.00,T,356.23,M,0.000,N,0.000,K,A*22
$GPGGA,094358.00,4048.14250,N,01410.39990,E,1,07,1.23,11.6,M,41.3,M,,*6C
$GPGSA,A,3,25,32,24,02,12,29,22,,,,,,3.02,1.23,2.76*0A
$GPGSV,2,1,08,02,39,097,41,11,33,098,40,12,62,044,25,22,24,306,41*72
$GPGSV,2,2,08,24,45,147,33,25,58,303,34,29,38,215,35,32,31,284,46*76
$GPGLL,4048.14250,N,01410.39990,E,094358.00,A,A*6E
$GPGST,094358.00,20,,,,3.0,1.3,5.7*55
!AIVDM,1,1,,B,13cVcS0P1f10kMRGEEwS8gwf0<1f,0*16
$GPRMC,094359.00,A,4048.14250,N,01410.39990,E,0.000,0.00,120422,3.76,E,A*36
$GPVTG,0.00,T,356.23,M,0.000,N,0.000,K,A*22
$GPGGA,094359.00,4048.14250,N,01410.39990,E,1,07,1.23,11.6,M,41.3,M,,*6D
$GPGSA,A,3,25,32,24,02,12,29,22,,,,,,3.02,1.23,2.76*0A
$GPGSV,2,1,08,02,39,097,41,11,33,098,39,12,62,044,27,22,24,306,37*7F
$GPGSV,2,2,08,24,45,147,28,25,58,303,36,29,38,215,35,32,31,284,45*7D
$GPGLL,4048.14250,N,01410.39990,E,094359.00,A,A*6F
$GPGST,094359.00,19,,,,3.0,1.3,5.9*50
!AIVDM,1,1,,B,13cVV50P1V10GdHGE:>SGwwf08Qm,0*5C
!AIVDM,1,1,,A,33cVTQ0P1QQ0=mdGDvF`@Owh001S,0*62
$GPRMC,094400.00,A,4048.14250,N,01410.39990,E,0.000,0.00,120422,3.76,E,A*3D
$GPVTG,0.00,T,356.23,M,0.000,N,0.000,K,A*22
$GPGGA,094400.00,4048.14250,N,01410.39990,E,1,07,1.23,11.6,M,41.3,M,,*66
$GPGSA,A,3,25,32,24,02,12,29,22,,,,,,3.02,1.23,2.76*0A
$GPGSV,2,1,08,02,39,097,42,11,33,098,42,12,62,044,33,22,24,306,37*75
$GPGSV,2,2,08,24,45,147,26,25,58,303,33,29,38,215,31,32,31,284,44*73
$GPGLL,4048.14250,N,01410.39990,E,094400.00,A,A*64
$GPGST,094400.00,19,,,,3.1,1.3,6.0*50
$GPRMC,094401.00,A,4048.14250,N,01410.39990,E,0.000,0.00,120422,3.76,E,A*3C
$GPVTG,0.00,T,356.23,M,0.000,N,0.000,K,A*22
$GPGGA,094401.00,4048.14250,N,01410.39990,E,1,07,1.23,11.6,M,41.3,M,,*67
$GPGSA,A,3,25,32,24,02,12,29,22,,,,,,3.02,1.23,2.76*0A
$GPGSV,2,1,08,02,39,097,41,11,33,098,42,12,62,044,36,22,24,306,34*70
$GPGSV,2,2,08,24,45,147,25,25,58,303,37,29,38,215,35,32,31,284,44*70
$GPGLL,4048.14250,N,01410.39990,E,094401.00,A,A*65
$GPGST,094401.00,18,,,,3.1,1.3,6.0*50
$GPRMC,094402.00,A,4048.14250,N,01410.39990,E,0.000,0.00,120422,3.76,E,A*3F
$GPVTG,0.00,T,356.23,M,0.000,N,0.000,K,A*22
$GPGGA,094402.00,4048.14250,N,01410.39990,E,1,07,1.23,11.6,M,41.3,M,,*64
$GPGSA,A,3,25,32,24,02,12,29,22,,,,,,3.02,1.23,2.76*0A
$GPGSV,2,1,08,02,39,097,40,11,33,098,40,12,62,044,36,22,24,306,38*7F
$GPGSV,2,2,08,24,45,147,31,25,58,303,38,29,38,215,33,32,31,284,45*7D
$GPGLL,4048.14250,N,01410.39990,E,094402.00,A,A*66
$GPGST,094402.00,12,,,,3.1,1.3,5.8*52
!AIVDM,1,1,,A,13cT8b0P1w113`pGEhBRHgwl0<1m,0*52
$GPRMC,094403.00,A,4048.14250,N,01410.39990,E,0.000,0.00,120422,3.76,E,A*3E
$GPVTG,0.00,T,356.23,M,0.000,N,0.000,K,A*22
$GPGGA,094403.00,4048.14250,N,01410.39990,E,1,07,1.23,11.6,M,41.3,M,,*65
$GPGSA,A,3,25,32,24,02,12,29,22,,,,,,3.02,1.23,2.76*0A
$GPGSV,2,1,08,02,39,097,37,11,33,098,39,12,62,044,36,22,24,306,39*70
$GPGSV,2,2,08,24,45,147,29,25,58,303,37,29,38,215,33,32,31,284,45*7B
$GPGLL,4048.14250,N,01410.39990,E,094403.00,A,A*67
$GPGST,094403.00,14,,,,3.1,1.3,5.8*55
$GPRMC,094404.00,A,4048.14250,N,01410.39990,E,0.000,0.00,120422,3.76,E,A*39
$GPVTG,0.00,T,356.23,M,0.000,N,0.000,K,A*22
$GPGGA,094404.00,4048.14250,N,01410.39990,E,1,07,1.23,11.6,M,41.3,M,,*62
$GPGSA,A,3,25,32,24,02,12,29,22,,,,,,3.02,1.23,2.76*0A
$GPGSV,2,1,08,02,39,097,39,11,33,098,41,12,62,044,37,22,24,306,41*7F
$GPGSV,2,2,08,24,45,147,28,25,58,303,34,29,38,215,28,32,31,284,41*77
$GPGLL,4048.14250,N,01410.39990,E,094404.00,A,A*60
$GPGST,094404.00,23,,,,3.1,1.3,5.8*56
$GPRMC,094405.00,A,4048.14250,N,01410.39990,E,0.000,0.00,120422,3.76,E,A*38
$GPVTG,0.00,T,356.23,M,0.000,N,0.000,K,A*22
$GPGGA,094405.00,4048.14250,N,01410.39990,E,1,07,1.23,11.6,M,41.3,M,,*63
$GPGSA,A,3,25,32,24,02,12,29,22,,,,,,3.02,1.23,2.76*0A
$GPGSV,2,1,08,02,39,097,38,11,33,098,39,12,62,044,39,22,24,306,39*70
$GPGSV,2,2,08,24,45,147,28,25,58,303,38,29,38,215,34,32,31,284,44*73
$GPGLL,4048.14250,N,01410.39990,E,094405.00,A,A*61
$GPGST,094405.00,18,,,,3.1,1.4,5.5*55
$GPRMC,094406.00,A,4048.14250,N,01410.39990,E,0.000,0.00,120422,3.76,E,A*3B
$GPVTG,0.00,T,356.23,M,0.000,N,0.000,K,A*22
$GPGGA,094406.00,4048.14250,N,01410.39990,E,1,07,1.23,11.6,M,41.3,M,,*60
$GPGSA,A,3,25,32,24,02,12,29,22,,,,,,3.02,1.23,2.76*0A
$GPGSV,2,1,08,02,39,097,39,11,33,098,39,12,62,044,30,22,24,306,43*75
$GPGSV,2,2,08,24,45,147,29,25,58,303,39,29,38,215,35,32,31,284,43*75
$GPGLL,4048.14250,N,01410.39990,E,094406.00,A,A*62
$GPGST,094406.00,17,,,,3.2,1.4,5.4*5B
!AIVDM,1,1,,A,D02Fhah2LN?b<`N00m8v000,2*29
$GPRMC,094407.00,A,4048.14250,N,01410.39990,E,0.000,0.00,120422,3.76,E,A*3A
$GPVTG,0.00,T,356.23,M,0.000,N,0.000,K,A*22
$GPGGA,094407.00,4048.14250,N,01410.39990,E,1,07,1.23,11.6,M,41.3,M,,*61
$GPGSA,A,3,25,32,24,02,12,29,22,,,,,,3.02,1.23,2.76*0A
$GPGSV,2,1,08,02,39,097,40,11,33,098,39,12,62,044,34,22,24,306,43*7F
$GPGSV,2,2,08,24,45,147,29,25,58,303,37,29,38,215,31,32,31,284,43*7F
$GPGLL,4048.14250,N,01410.39990,E,094407.00,A,A*63
$GPGST,094407.00,15,,,,3.2,1.4,5.4*58
!AIVDM,1,1,,A,402FhaivI69d40w`wpGCWSW0082h,0*43
$GPRMC,094408.00,A,4048.14250,N,01410.39990,E,0.000,0.00,120422,3.76,E,A*35
$GPVTG,0.00,T,356.23,M,0.000,N,0.000,K,A*22
$GPGGA,094408.00,4048.14250,N,01410.39990,E,1,07,1.23,11.6,M,41.3,M,,*6E
$GPGSA,A,3,25,32,24,02,12,29,22,,,,,,3.02,1.23,2.76*0A
$GPGSV,2,1,08,02,39,097,40,11,33,098,39,12,62,044,34,22,24,306,43*7F
$GPGSV,2,2,08,24,45,147,28,25,58,303,38,29,38,215,30,32,31,284,43*70
$GPGLL,4048.14250,N,01410.39990,E,094408.00,A,A*6C
$GPGST,094408.00,16,,,,3.2,1.4,5.3*53
!AIVDM,1,1,,A,13cVcS0P1f10kajGEF@S8wv:0D1f,0*00
$GPRMC,094409.00,A,4048.14250,N,01410.39990,E,0.000,0.00,120422,3.76,E,A*34
$GPVTG,0.00,T,356.23,M,0.000,N,0.000,K,A*22
$GPGGA,094409.00,4048.14250,N,01410.39990,E,1,07,1.23,11.6,M,41.3,M,,*6F
$GPGSA,A,3,25,32,24,02,12,29,22,,,,,,3.02,1.23,2.76*0A
$GPGSV,2,1,08,02,39,097,40,11,33,098,39,12,62,044,34,22,24,306,43*7F
$GPGSV,2,2,08,24,45,147,28,25,58,303,38,29,38,215,30,32,31,284,43*70
$GPGLL,4048.14250,N,01410.39990,E,094409.00,A,A*6D
$GPGST,094409.00,16,,,,3.2,1.4,5.2*53
$GPRMC,094410.00,A,4048.14250,N,01410.39990,E,0.000,0.00,120422,3.76,E,A*3C
$GPVTG,0.00,T,356.23,M,0.000,N,0.000,K,A*22
$GPGGA,094410.00,4048.14250,N,01410.39990,E,1,07,1.23,11.6,M,41.3,M,,*67
$GPGSA,A,3,25,32,24,02,12,29,22,,,,,,3.02,1.23,2.76*0A
$GPGSV,2,1,08,02,39,097,39,11,33,098,39,12,62,044,34,22,24,306,43*71
$GPGSV,2,2,08,24,45,147,28,25,58,303,38,29,38,215,30,32,31,284,43*70
$GPGLL,4048.14250,N,01410.39990,E,094410.00,A,A*65
$GPGST,094410.00,16,,,,3.2,1.4,5.2*5B
!AIVDM,1,1,,A,13cVV50P1U10Gq6GE:CkJ?v<05:h,0*0F
$GPRMC,094411.00,A,4048.14250,N,01410.39990,E,0.000,0.00,120422,3.76,E,A*3D
$GPVTG,0.00,T,356.23,M,0.000,N,0.000,K,A*22
$GPGGA,094411.00,4048.14250,N,01410.39990,E,1,07,1.23,11.6,M,41.3,M,,*66
$GPGSA,A,3,25,32,24,02,12,29,22,,,,,,3.02,1.23,2.76*0A
$GPGSV,2,1,08,02,39,097,39,11,33,098,39,12,62,044,34,22,24,306,43*71
$GPGSV,2,2,08,24,45,147,27,25,58,303,38,29,38,215,30,32,31,284,43*7F
$GPGLL,4048.14250,N,01410.39990,E,094411.00,A,A*64
$GPGST,094411.00,17,,,,3.3,1.4,5.1*59
!AIVDM,1,1,,B,13cT8b0P1w113l>GEhqjGgv>085S,0*7A
!AIVDM,1,1,,A,13cVTQ0P1FQ0=hdGDuR8<gv>0D2<,0*26
$GPRMC,094412.00,A,4048.14250,N,01410.39990,E,0.000,0.00,120422,3.76,E,A*3E
$GPVTG,0.00,T,356.23,M,0.000,N,0.000,K,A*22
$GPGGA,094412.00,4048.14250,N,01410.39990,E,1,07,1.23,11.6,M,41.3,M,,*65
$GPGSA,A,3,25,32,24,02,12,29,22,,,,,,3.02,1.23,2.76*0A
$GPGSV,2,1,08,02,39,097,41,11,33,098,40,12,62,044,35,22,24,306,44*76
$GPGSV,2,2,08,24,45,147,27,25,58,303,39,29,38,215,30,32,31,284,44*79
$GPGLL,4048.14250,N,01410.39990,E,094412.00,A,A*67
$GPGST,094412.00,23,,,,3.3,1.4,5.0*5C
$GPRMC,094413.00,A,4048.14250,N,01410.39990,E,0.000,0.00,120422,3.76,E,A*3F
$GPVTG,0.00,T,356.23,M,0.000,N,0.000,K,A*22
$GPGGA,094413.00,4048.14250,N,01410.39990,E,1,07,1.23,11.6,M,41.3,M,,*64
$GPGSA,A,3,25,32,24,02,12,29,22,,,,,,3.02,1.23,2.76*0A
$GPGSV,2,1,08,02,39,097,40,11,33,098,40,12,62,044,35,22,24,306,44*77
$GPGSV,2,2,08,24,45,147,27,25,58,303,39,29,38,215,30,32,31,284,44*79
$GPGLL,4048.14250,N,01410.39990,E,094413.00,A,A*66
$GPGST,094413.00,20,,,,3.3,1.4,4.9*56
$GPRMC,094414.00,A,4048.14250,N,01410.39990,E,0.000,0.00,120422,3.76,E,A*38
$GPVTG,0.00,T,356.23,M,0.000,N,0.000,K,A*22
$GPGGA,094414.00,4048.14250,N,01410.39990,E,1,07,1.23,11.6,M,41.3,M,,*63
$GPGSA,A,3,25,32,24,02,12,29,22,,,,,,3.02,1.23,2.76*0A
$GPGSV,2,1,08,02,39,097,40,11,33,098,40,12,62,044,35,22,24,306,44*77
$GPGSV,2,2,08,24,45,147,27,25,58,303,39,29,38,215,30,32,31,284,44*79
$GPGLL,4048.14250,N,01410.39990,E,094414.00,A,A*61
$GPGST,094414.00,18,,,,3.3,1.4,4.8*5B
$GPRMC,094415.00,A,4048.14250,N,01410.39990,E,0.000,0.00,120422,3.76,E,A*39
$GPVTG,0.00,T,356.23,M,0.000,N,0.000,K,A*22
$GPGGA,094415.00,4048.14250,N,01410.39990,E,1,07,1.23,11.6,M,41.3,M,,*62
$GPGSA,A,3,25,32,24,02,12,29,22,,,,,,3.02,1.23,2.76*0A
$GPGSV,2,1,08,02,39,097,40,11,33,098,39,12,62,044,35,22,24,306,43*7E
$GPGSV,2,2,08,24,45,147,27,25,58,303,39,29,38,215,30,32,31,284,43*7E
$GPGLL,4048.14250,N,01410.39990,E,094415.00,A,A*60
$GPGST,094415.00,17,,,,3.3,1.4,4.7*5A
$GPRMC,094416.00,A,4048.14250,N,01410.39990,E,0.000,0.00,120422,3.76,E,A*3A
$GPVTG,0.00,T,356.23,M,0.000,N,0.000,K,A*22
$GPGGA,094416.00,4048.14250,N,01410.39990,E,1,07,1.23,11.6,M,41.3,M,,*61
$GPGSA,A,3,25,32,24,02,12,29,22,,,,,,3.02,1.23,2.76*0A
$GPGSV,2,1,08,02,39,097,40,11,33,098,39,12,62,044,35,22,24,306,43*7E
$GPGSV,2,2,08,24,45,147,28,25,58,303,38,29,38,215,30,32,31,284,43*70
$GPGLL,4048.14250,N,01410.39990,E,094416.00,A,A*63
$GPGST,094416.00,16,,,,3.3,1.4,4.7*58
$GPRMC,094417.00,A,4048.14250,N,01410.39990,E,0.000,0.00,120422,3.76,E,A*3B
$GPVTG,0.00,T,356.23,M,0.000,N,0.000,K,A*22
$GPGGA,094417.00,4048.14250,N,01410.39990,E,1,07,1.23,11.6,M,41.3,M,,*60
$GPGSA,A,3,25,32,24,02,12,29,22,,,,,,3.02,1.23,2.76*0A
$GPGSV,2,1,08,02,40,096,40,11,33,098,40,12,62,044,35,22,24,306,44*78
$GPGSV,2,2,08,24,45,147,28,25,58,303,39,29,38,215,30,32,31,284,44*76
$GPGLL,4048.14250,N,01410.39990,E,094417.00,A,A*62
$GPGST,094417.00,16,,,,3.3,1.4,4.6*58
!AIVDM,1,1,,B,B3eIJr00@8@<ShUmD6PjwwW5oP06,0*54
!AIVDM,1,1,,B,13cVTQ0P1BQ0=epGDu6`<?vJ0@8M,0*57
!AIVDM,1,1,,B,402FhaivI69d>0w`wpGCWSW00D2J,0*14
$GPRMC,094418.00,A,4048.14250,N,01410.39990,E,0.000,0.00,120422,3.76,E,A*34
$GPVTG,0.00,T,356.23,M,0.000,N,0.000,K,A*22
!AIVDM,1,1,,B,13cVcS0P1f10km8GEFJS9gvL05:h,0*44
$GPGGA,094418.00,4048.14250,N,01410.39990,E,1,07,1.23,11.6,M,41.3,M,,*6F
$GPGSA,A,3,25,32,24,02,12,29,22,,,,,,3.02,1.23,2.76*0A
$GPGSV,2,1,08,02,40,096,40,11,33,098,38,12,62,044,35,22,24,306,43*70
$GPGSV,2,2,08,24,45,147,28,25,58,303,38,29,38,215,30,32,31,284,43*70
$GPGLL,4048.14250,N,01410.39990,E,094418.00,A,A*6D
$GPGST,094418.00,16,,,,3.3,1.4,4.6*57
$GPRMC,094419.00,A,4048.14250,N,01410.39990,E,0.000,0.00,120422,3.76,E,A*35
$GPVTG,0.00,T,356.23,M,0.000,N,0.000,K,A*22
$GPGGA,094419.00,4048.14250,N,01410.39990,E,1,07,1.23,11.6,M,41.3,M,,*6E
$GPGSA,A,3,25,32,24,02,12,29,22,,,,,,3.02,1.23,2.76*0A
$GPGSV,2,1,08,02,40,096,39,11,33,098,39,12,62,044,35,22,24,306,43*7F
$GPGSV,2,2,08,24,45,147,28,25,58,303,38,29,38,215,30,32,31,284,43*70
$GPGLL,4048.14250,N,01410.39990,E,094419.00,A,A*6C
$GPGST,094419.00,16,,,,3.3,1.4,4.6*56
$GPRMC,094420.00,A,4048.14250,N,01410.39990,E,0.000,0.00,120422,3.76,E,A*3F
$GPVTG,0.00,T,356.23,M,0.000,N,0.000,K,A*22
$GPGGA,094420.00,4048.14250,N,01410.39990,E,1,07,1.23,11.6,M,41.3,M,,*64
$GPGSA,A,3,25,32,24,02,12,29,22,,,,,,3.02,1.23,2.76*0A
$GPGSV,2,1,08,02,40,096,39,11,33,098,39,12,62,044,35,22,24,306,43*7F
$GPGSV,2,2,08,24,45,147,28,25,58,303,38,29,38,215,30,32,31,284,43*70
$GPGLL,4048.14250,N,01410.39990,E,094420.00,A,A*66
$GPGST,094420.00,16,,,,3.3,1.4,4.5*5F
!AIVDM,1,1,,B,13cVV50P1U10H4`GE:H3J?vP08;7,0*7C
$GPRMC,094421.00,A,4048.14250,N,01410.39990,E,0.000,0.00,120422,3.76,E,A*3E
$GPVTG,0.00,T,356.23,M,0.000,N,0.000,K,A*22
$GPGGA,094421.00,4048.14250,N,01410.39990,E,1,07,1.23,11.6,M,41.3,M,,*65
$GPGSA,A,3,25,32,24,02,12,29,22,,,,,,3.02,1.23,2.76*0A
$GPGSV,2,1,08,02,40,096,40,11,33,098,39,12,62,044,35,22,24,306,43*71
$GPGSV,2,2,08,24,45,147,28,25,58,303,38,29,38,215,30,32,31,284,44*77
$GPGLL,4048.14250,N,01410.39990,E,094421.00,A,A*67
$GPGST,094421.00,16,,,,3.3,1.4,4.5*5E
!AIVDM,1,1,,A,13cT8b0P1v1140hGEiURGOvR08;c,0*12
$GPRMC,094422.00,A,4048.14250,N,01410.39990,E,0.000,0.00,120422,3.76,E,A*3D
$GPVTG,0.00,T,356.23,M,0.000,N,0.000,K,A*22
$GPGGA,094422.00,4048.14250,N,01410.39990,E,1,07,1.23,11.6,M,41.3,M,,*66
$GPGSA,A,3,25,32,24,02,12,29,22,,,,,,3.02,1.23,2.76*0A
$GPGSV,2,1,08,02,40,096,39,11,33,098,39,12,62,044,35,22,24,306,43*7F
$GPGSV,2,2,08,24,45,147,28,25,58,303,38,29,38,215,30,32,31,284,44*77
$GPGLL,4048.14250,N,01410.39990,E,094422.00,A,A*64
$GPGST,094422.00,16,,,,3.3,1.4,4.5*5D
!AIVDM,1,1,,B,D02FhaiRHN?b<`N01ptv000,2*1F
$GPRMC,094423.00,A,4048.14250,N,01410.39990,E,0.000,0.00,120422,3.76,E,A*3C
$GPVTG,0.00,T,356.23,M,0.000,N,0.000,K,A*22
$GPGGA,094423.00,4048.14250,N,01410.39990,E,1,07,1.23,11.6,M,41.3,M,,*67
$GPGSA,A,3,25,32,24,02,12,29,22,,,,,,3.02,1.23,2.76*0A
!AIVDM,1,1,,B,B3clC>P0@8@8RjUmF`v7Kwb5oP06,0*73
$GPGSV,2,1,08,02,40,096,39,11,33,098,39,12,62,044,35,22,24,306,43*7F
$GPGSV,2,2,08,24,45,147,28,25,58,303,38,29,38,215,30,32,31,284,44*77
$GPGLL,4048.14250,N,01410.39990,E,094423.00,A,A*65
