$GPRMC,164616.00,A,4049.39531,N,01413.14164,E,0.049,0.00,071021,3.71,E,A*3F
$GPVTG,0.00,T,356.29,M,0.049,N,0.091,K,A*2D
$GPGGA,164616.00,4049.39531,N,01413.14164,E,1,06,1.46,9.6,M,41.2,M,,*56
$GPGSA,A,3,14,20,30,05,07,13,,,,,,,3.18,1.46,2.82*07
$GPGSV,2,1,08,05,55,260,32,07,24,061,23,08,05,038,,13,54,313,37*75
$GPGSV,2,2,08,14,62,131,30,20,42,210,35,28,52,160,35,30,56,049,37*74
$GPGLL,4049.39531,N,01413.14164,E,164616.00,A,A*6E
$GPGST,164616.00,29,,,,4.7,3.4,25*73
!AIVDM,1,1,,A,13cqIV?v@0Q17:TGG6RskJBJ20Sh,0*2E
!AIVDM,1,1,,A,13cWA3000111@FLGGQVsK`fL062p,0*18
$GPRMC,164617.00,A,4049.39534,N,01413.14164,E,0.049,0.00,071021,3.71,E,A*3B
$GPVTG,0.00,T,356.29,M,0.049,N,0.090,K,A*2C
$GPGGA,164617.00,4049.39534,N,01413.14164,E,1,06,1.46,9.4,M,41.2,M,,*50
$GPGSA,A,3,14,20,30,05,07,13,,,,,,,3.18,1.46,2.82*07
$GPGSV,2,1,08,05,55,259,33,07,24,061,23,08,05,038,,13,54,313,36*7F
$GPGSV,2,2,08,14,62,131,31,20,42,210,35,28,52,160,34,30,56,049,36*75
$GPGLL,4049.39534,N,01413.14164,E,164617.00,A,A*6A
$GPGST,164617.00,28,,,,4.7,3.4,25*73
!AIVDM,1,1,,A,13cWAL0P4GQ1F9DGEEn0>?vJ088G,0*06
!AIVDM,1,1,,B,14i80v0P01117E>GG7gPPOvN0<1S,0*53
!AIVDM,1,1,,A,36;Sc8500011GPhGGcRct6FN0DbJ,0*2E
!AIVDM,1,1,,A,13ci>S0P00Q1CmbGGhKf4?vL288`,0*29
$GPRMC,164618.00,A,4049.39536,N,01413.14165,E,0.022,0.00,071021,3.71,E,A*3A
$GPVTG,0.00,T,356.29,M,0.022,N,0.040,K,A*2C
!AIVDM,1,1,,A,14`W41002FQ1>v4GEM08IVbJ0V2p,0*2D
$GPGGA,164618.00,4049.39536,N,01413.14165,E,1,06,1.46,9.3,M,41.2,M,,*5B
$GPGSA,A,3,14,20,30,05,07,13,,,,,,,3.18,1.46,2.82*07
!AIVDM,1,1,,B,13cVCE0PB>11CFNGFU3221PJ0@8n,0*29
$GPGSV,2,1,08,05,55,259,34,07,24,061,23,08,05,038,,13,54,313,36*78
$GPGSV,2,2,08,14,62,131,31,20,42,210,35,28,52,160,34,30,56,049,36*75
$GPGLL,4049.39536,N,01413.14165,E,164618.00,A,A*66
$GPGST,164618.00,28,,,,4.7,3.4,25*7C
!AIVDM,1,1,,A,33KCtj04ANQ1G`bGFoK6s5TN20qQ,0*73
$GPRMC,164619.00,A,4049.39540,N,01413.14166,E,0.022,0.00,071021,3.71,E,A*39
$GPVTG,0.00,T,356.29,M,0.022,N,0.041,K,A*2D
$GPGGA,164619.00,4049.39540,N,01413.14166,E,1,06,1.46,9.1,M,41.2,M,,*5A
$GPGSA,A,3,14,20,30,05,07,13,,,,,,,3.17,1.46,2.82*08
$GPGSV,2,1,08,05,55,259,34,07,24,061,25,08,05,038,,13,54,313,36*7E
$GPGSV,2,2,08,14,62,131,31,20,42,210,35,28,52,160,33,30,56,049,36*72
$GPGLL,4049.39540,N,01413.14166,E,164619.00,A,A*65
$GPGST,164619.00,27,,,,4.6,3.4,24*72
!AIVDM,1,1,,B,13cWAL0P4GQ1F9`GEFM@<gvN0<0l,0*08
!AIVDM,2,1,2,A,55BL2<02A9TlQ1QN220tlE:0@4@5ThV2222222009HA786bd0A4381i6H888,0*4B
!AIVDM,2,2,2,A,88888888880,2*26
!AIVDM,1,1,,A,13cVlR0P4FQ1U2VGCRdF<OvP0D0r,0*7B
$GPRMC,164620.00,A,4049.39540,N,01413.14166,E,0.000,0.00,071021,3.71,E,A*33
$GPVTG,0.00,T,356.29,M,0.000,N,0.000,K,A*28
$GPGGA,164620.00,4049.39540,N,01413.14166,E,1,06,1.46,9.1,M,41.2,M,,*50
$GPGSA,A,3,14,20,30,05,07,13,,,,,,,3.17,1.46,2.82*08
$GPGSV,2,1,08,05,55,259,34,07,24,061,26,08,05,038,,13,54,313,36*7D
$GPGSV,2,2,08,14,62,131,31,20,42,210,35,28,52,160,33,30,56,049,37*73
$GPGLL,4049.39540,N,01413.14166,E,164620.00,A,A*6F
$GPGST,164620.00,26,,,,4.6,3.4,24*79
$GPRMC,164621.00,A,4049.39540,N,01413.14166,E,0.000,0.00,071021,3.71,E,A*32
$GPVTG,0.00,T,356.29,M,0.000,N,0.000,K,A*28
$GPGGA,164621.00,4049.39540,N,01413.14166,E,1,06,1.46,9.1,M,41.2,M,,*51
$GPGSA,A,3,14,20,30,05,07,13,,,,,,,3.17,1.46,2.82*08
$GPGSV,2,1,08,05,55,259,34,07,24,061,27,08,05,038,,13,54,313,36*7C
$GPGSV,2,2,08,14,62,131,32,20,42,210,34,28,52,160,32,30,56,049,37*70
!AIVDM,1,1,,A,13cWAL0P4HQ1F9lGEG4@;?vR08:`,0*31
$GPGLL,4049.39540,N,01413.14166,E,164621.00,A,A*6E
$GPGST,164621.00,26,,,,4.6,3.4,23*7F
!AIVDM,1,1,,B,33KCtj0tiJQ1G`vGFo86hmRT2000,0*04
!AIVDM,1,1,,A,13cf4V0P00Q2?jjGBGLf4?vT2H:m,0*13
!AIVDM,1,1,,B,13cVlR0P4EQ1U4vGCR8n<OvT08;3,0*1B
$GPRMC,164622.00,A,4049.39540,N,01413.14166,E,0.000,0.00,071021,3.71,E,A*31
$GPVTG,0.00,T,356.29,M,0.000,N,0.000,K,A*28
$GPGGA,164622.00,4049.39540,N,01413.14166,E,1,06,1.46,9.1,M,41.2,M,,*52
$GPGSA,A,3,14,20,30,05,07,13,,,,,,,3.17,1.46,2.81*0B
$GPGSV,2,1,08,05,55,259,34,07,24,061,28,08,05,038,,13,54,313,36*73
$GPGSV,2,2,08,14,62,131,31,20,42,210,35,28,52,160,33,30,56,049,37*73
$GPGLL,4049.39540,N,01413.14166,E,164622.00,A,A*6D
$GPGST,164622.00,25,,,,4.5,3.4,23*7C
!AIVDM,1,1,,A,D02FhOQRHN?b<`N01ptv000,2*0A
!AIVDM,1,1,,B,17f6F1P00011EgfGGhNGTEPV0L0l,0*76
$GPRMC,164623.00,A,4049.39540,N,01413.14166,E,0.000,0.00,071021,3.71,E,A*30
$GPVTG,0.00,T,356.29,M,0.000,N,0.000,K,A*28
!AIVDM,1,1,,B,13cWAL0P4HQ1F:0GEGc@9wvV0@;i,0*04
$GPGGA,164623.00,4049.39540,N,01413.14166,E,1,06,1.46,9.1,M,41.2,M,,*53
$GPGSA,A,3,14,20,30,05,07,13,,,,,,,3.17,1.46,2.81*0B
$GPGSV,2,1,08,05,55,259,34,07,24,061,28,08,05,038,,13,54,313,36*73
$GPGSV,2,2,08,14,62,131,32,20,42,210,35,28,52,160,34,30,56,049,38*78
$GPGLL,4049.39540,N,01413.14166,E,164623.00,A,A*6C
$GPGST,164623.00,25,,,,4.5,3.4,22*7C
!AIVDM,1,1,,B,18Ht1A0022Q0dd2G@tR9jolN0@;n,0*29
!AIVDM,1,1,,A,13c`;@0P01Q1C;BGGfBGlgvT0<0w,0*66
!AIVDM,1,1,,B,ENjOWwk2psHr@1Pab2V67h2CTaQPOuhE;alu`10888N0022@@0,4*56
!AIVDM,1,1,,A,13cVlR0P4EQ1U7NGCQUF;Ov`062p,0*12
$GPRMC,164624.00,A,4049.39540,N,01413.14166,E,0.000,0.00,071021,3.71,E,A*37
$GPVTG,0.00,T,356.29,M,0.000,N,0.000,K,A*28
$GPGGA,164624.00,4049.39540,N,01413.14166,E,1,06,1.46,9.1,M,41.2,M,,*54
$GPGSA,A,3,14,20,30,05,07,13,,,,,,,3.17,1.46,2.81*0B
$GPGSV,2,1,08,05,55,259,34,07,24,061,28,08,05,038,,13,54,313,36*73
!AIVDM,1,1,,B,14`W41002FQ1>p<GEL;pHnbV0h<H,0*4F
$GPGSV,2,2,08,14,62,131,31,20,42,210,35,28,52,160,33,30,56,049,38*7C
$GPGLL,4049.39540,N,01413.14166,E,164624.00,A,A*6B
$GPGST,164624.00,26,,,,4.5,3.4,22*78
!AIVDM,1,1,,A,13cVCE002>11COPGFU`QwQRV00Ri,0*3B
!AIVDM,1,1,,A,402FhOQvFShfE11BePGGgg700<16,0*73
!AIVDM,1,1,,A,33KCtj051OQ1Ga>GFnlVqmTb210h,0*17
$GPRMC,164625.00,A,4049.39540,N,01413.14166,E,0.000,0.00,071021,3.71,E,A*36
$GPVTG,0.00,T,356.29,M,0.000,N,0.000,K,A*28
$GPGGA,164625.00,4049.39540,N,01413.14166,E,1,06,1.46,9.1,M,41.2,M,,*55
$GPGSA,A,3,14,20,30,05,07,13,,,,,,,3.17,1.46,2.81*0B
$GPGSV,2,1,08,05,55,259,33,07,24,061,27,08,05,038,,13,55,313,36*7A
$GPGSV,2,2,08,14,62,131,31,20,42,210,33,28,52,160,34,30,56,049,38*7D
$GPGLL,4049.39540,N,01413.14166,E,164625.00,A,A*6A
$GPGST,164625.00,27,,,,4.5,3.4,22*78
!AIVDM,1,1,,B,13cVlR0P4EQ1U9tGCQ26;?vd0@=I,0*06
$GPRMC,164626.00,A,4049.39540,N,01413.14166,E,0.000,0.00,071021,3.71,E,A*35
$GPVTG,0.00,T,356.29,M,0.000,N,0.000,K,A*28
$GPGGA,164626.00,4049.39540,N,01413.14166,E,1,06,1.46,9.1,M,41.2,M,,*56
$GPGSA,A,3,14,20,30,05,07,13,,,,,,,3.17,1.46,2.81*0B
!AIVDM,1,1,,B,33ci>S0P00Q1CmdGGhJf4?vd200k,0*0C
$GPGSV,2,1,08,05,55,259,33,07,24,061,26,08,05,038,,13,55,313,36*7B
$GPGSV,2,2,08,14,62,130,32,20,42,210,34,28,52,160,35,30,56,049,38*79
$GPGLL,4049.39540,N,01413.14166,E,164626.00,A,A*69
$GPGST,164626.00,27,,,,4.5,3.5,22*7A
!AIVDM,2,1,3,B,53ci>S81gLb4UEaP00058TE>1@T@D0000000001?10h48uHaN;CPD3k2K@hD,0*7A
!AIVDM,2,2,3,B,4RKCPD3k2@8,2*7C
!AIVDM,1,1,,B,13cWA30P@211@FVGGQWsu8`h062p,0*57
!AIVDM,1,1,,A,ENjO`0C2psIH@1P`7h6TaRW7P000P?lb;bc2`10888N000,4*2E
$GPRMC,164627.00,A,4049.39540,N,01413.14166,E,0.000,0.00,071021,3.71,E,A*34
!AIVDM,1,1,,A,33nPCV500011EU@GGh0h202f0Dg:,0*17
$GPVTG,0.00,T,356.29,M,0.000,N,0.000,K,A*28
$GPGGA,164627.00,4049.39540,N,01413.14166,E,1,06,1.46,9.1,M,41.2,M,,*57
$GPGSA,A,3,14,20,30,05,07,13,,,,,,,3.17,1.46,2.81*0B
$GPGSV,2,1,08,05,55,259,33,07,24,061,26,08,05,038,,13,55,313,36*7B
$GPGSV,2,2,08,14,62,130,32,20,42,210,34,28,52,160,36,30,56,049,39*7B
$GPGLL,4049.39540,N,01413.14166,E,164627.00,A,A*68
$GPGST,164627.00,27,,,,4.5,3.5,21*78
!AIVDM,1,1,,B,13cWAL0P4IQ1F:PGEHr08Ovf0H>@,0*26
!AIVDM,1,1,,B,33KCtj021KQ1Ga8GFnQG5mVh210i,0*70
!AIVDM,1,1,,A,14i80v0P01117E:GG7gPPOvj08>T,0*7C
$GPRMC,164628.00,A,4049.39540,N,01413.14166,E,0.000,0.00,071021,3.71,E,A*3B
$GPVTG,0.00,T,356.29,M,0.000,N,0.000,K,A*28
$GPGGA,164628.00,4049.39540,N,01413.14166,E,1,06,1.46,9.1,M,41.2,M,,*58
$GPGSA,A,3,14,20,30,05,07,13,,,,,,,3.17,1.46,2.81*0B
$GPGSV,2,1,08,05,55,259,34,07,24,061,26,08,05,038,,13,55,313,36*7C
$GPGSV,2,2,08,14,62,130,33,20,42,210,33,28,52,160,36,30,56,049,39*7D
$GPGLL,4049.39540,N,01413.14166,E,164628.00,A,A*67
$GPGST,164628.00,26,,,,4.4,3.5,21*77
!AIVDM,1,1,,B,13cbV17P00Q1gl@GE`WrrOvj28>v,0*29
$GPRMC,164629.00,A,4049.39540,N,01413.14166,E,0.000,0.00,071021,3.71,E,A*3A
$GPVTG,0.00,T,356.29,M,0.000,N,0.000,K,A*28
$GPGGA,164629.00,4049.39540,N,01413.14166,E,1,06,1.47,9.1,M,41.2,M,,*58
$GPGSA,A,3,14,20,30,05,07,13,,,,,,,3.17,1.47,2.81*0A
$GPGSV,2,1,08,05,55,259,34,07,24,061,25,08,05,038,,13,55,313,36*7F
$GPGSV,2,2,08,14,62,130,33,20,42,210,33,28,52,160,36,30,56,049,38*7C
$GPGLL,4049.39540,N,01413.14166,E,164629.00,A,A*66
$GPGST,164629.00,27,,,,4.4,3.5,21*77
!AIVDM,1,1,,A,13cWAL0P4JQ1F:hGEIQP7wvj0D0e,0*40
!AIVDM,1,1,,B,13cVCE002>11CUhGFV9Qu1Vh062p,0*67
$GPRMC,164630.00,A,4049.39540,N,01413.14166,E,0.000,0.00,071021,3.71,E,A*32
$GPVTG,0.00,T,356.29,M,0.000,N,0.000,K,A*28
$GPGGA,164630.00,4049.39540,N,01413.14166,E,1,06,1.47,9.1,M,41.2,M,,*50
$GPGSA,A,3,14,20,30,05,07,13,,,,,,,3.17,1.47,2.81*0A
$GPGSV,2,1,08,05,55,259,34,07,24,061,25,08,05,038,,13,55,313,36*7F
$GPGSV,2,2,08,14,62,130,33,20,42,210,33,28,52,160,36,30,56,049,39*7D
$GPGLL,4049.39540,N,01413.14166,E,164630.00,A,A*6E
$GPGST,164630.00,27,,,,4.4,3.4,21*7E
!AIVDM,1,1,,A,14`W41002GQ1>jBGEKHHI6bj0p?s,0*20
$GPRMC,164631.00,A,4049.39540,N,01413.14166,E,0.000,0.00,071021,3.71,E,A*33
$GPVTG,0.00,T,356.29,M,0.000,N,0.000,K,A*28
$GPGGA,164631.00,4049.39540,N,01413.14166,E,1,06,1.47,9.1,M,41.2,M,,*51
$GPGSA,A,3,14,20,30,05,07,13,,,,,,,3.17,1.47,2.81*0A
$GPGSV,2,1,08,05,55,259,33,07,24,061,27,08,05,038,,13,55,313,36*7A
$GPGSV,2,2,08,14,62,130,33,20,42,210,34,28,52,160,35,30,56,049,38*78
$GPGLL,4049.39540,N,01413.14166,E,164631.00,A,A*6F
$GPGST,164631.00,26,,,,4.4,3.4,20*7F
!AIVDM,1,1,,B,13cWAL0P4KQ1F;2GEJ9P7Ovn0D0e,0*4E
!AIVDM,1,1,,A,33KCtj0viNQ1GaFGFn7FomVp2000,0*69
!AIVDM,1,1,,A,13cVlR0P4FQ1U@vGCOEF;Ovp00SA,0*16
$GPRMC,164632.00,A,4049.39540,N,01413.14166,E,0.000,0.00,071021,3.71,E,A*30
$GPVTG,0.00,T,356.29,M,0.000,N,0.000,K,A*28
$GPGGA,164632.00,4049.39540,N,01413.14166,E,1,06,1.47,9.1,M,41.2,M,,*52
$GPGSA,A,3,14,20,30,05,07,13,,,,,,,3.17,1.47,2.81*0A
$GPGSV,2,1,08,05,55,259,33,07,24,061,27,08,05,038,,13,55,313,36*7A
$GPGSV,2,2,08,14,62,130,32,20,42,209,33,28,52,160,34,30,56,049,38*77
$GPGLL,4049.39540,N,01413.14166,E,164632.00,A,A*6C
$GPGST,164632.00,27,,,,4.4,3.4,20*7D
!AIVDM,1,1,,B,34Rk5H1P@3124QnGChKBqbjt0DuJ,0*5F
!AIVDM,1,1,,B,13c`;@0P01Q1C;BGGfBWVgvn08AT,0*23
$GPRMC,164633.00,A,4049.39540,N,01413.14166,E,0.000,0.00,071021,3.71,E,A*31
$GPVTG,0.00,T,356.29,M,0.000,N,0.000,K,A*28
$GPGGA,164633.00,4049.39540,N,01413.14166,E,1,06,1.47,9.1,M,41.2,M,,*53
$GPGSA,A,3,14,20,30,05,07,13,,,,,,,3.17,1.47,2.81*0A
$GPGSV,2,1,08,05,55,259,32,07,24,061,26,08,05,038,,13,55,313,36*7A
$GPGSV,2,2,08,14,62,130,32,20,42,209,34,28,52,160,34,30,56,049,38*70
$GPGLL,4049.39540,N,01413.14166,E,164633.00,A,A*6D
$GPGST,164633.00,27,,,,4.3,3.4,20*7B
!AIVDM,1,1,,A,13cWAL0P4KQ1F;BGEJi06wvr0HAg,0*57
!AIVDM,1,1,,A,18Ht1A0022Q0dN0G@t2qhGjj062p,0*43
!AIVDM,1,1,,B,13cVlR0P4FQ1UC:GCNi6<?vt0L0n,0*44
$GPRMC,164634.00,A,4049.39540,N,01413.14166,E,0.000,0.00,071021,3.71,E,A*36
$GPVTG,0.00,T,356.29,M,0.000,N,0.000,K,A*28
$GPGGA,164634.00,4049.39540,N,01413.14166,E,1,06,1.47,9.1,M,41.2,M,,*54
$GPGSA,A,3,14,20,30,05,07,13,,,,,,,3.16,1.47,2.81*0B
$GPGSV,2,1,08,05,55,259,32,07,24,061,26,08,05,038,,13,55,313,36*7A
$GPGSV,2,2,08,14,62,130,31,20,42,209,33,28,52,160,34,30,56,049,38*74
$GPGLL,4049.39540,N,01413.14166,E,164634.00,A,A*6A
$GPGST,164634.00,28,,,,4.3,3.4,20*73
!AIVDM,1,1,,B,33KCtj02iJQ1GaLGFml6vUVv20v@,0*19
!AIVDM,1,1,,B,402FhOQvFShfO11BePGGgg700D16,0*02
!AIVDM,2,1,4,A,55TLcf02AlHdQ3OO3B058l4@622222222222221S4@D556;808CPD3k2H888,0*1F
!AIVDM,2,2,4,A,88888888880,2*20
$GPRMC,164635.00,A,4049.39540,N,01413.14166,E,0.000,0.00,071021,3.71,E,A*37
$GPVTG,0.00,T,356.29,M,0.000,N,0.000,K,A*28
$GPGGA,164635.00,4049.39540,N,01413.14166,E,1,06,1.47,9.1,M,41.2,M,,*55
$GPGSA,A,3,14,20,30,05,07,13,,,,,,,3.16,1.47,2.80*0A
$GPGSV,2,1,08,05,55,259,33,07,24,061,26,08,05,038,,13,55,313,36*7B
$GPGSV,2,2,08,14,62,130,30,20,42,209,34,28,52,160,33,30,56,049,38*75
$GPGLL,4049.39540,N,01413.14166,E,164635.00,A,A*6B
$GPGST,164635.00,28,,,,4.3,3.4,20*72
!AIVDM,1,1,,B,13cWAL0P4LQ1F;PGEKHh6Ovv00SA,0*49
!AIVDM,2,1,5,A,53cWAL427vwTTTq>221<p5J04i@4U:222222220t2PF825vP040hD4RH3PD3,0*2B
!AIVDM,2,2,5,A,k2H88888880,2*08
!AIVDM,1,1,,B,14`W41002FQ1>dHGEJTHI6bv0V2p,0*0F
$GPRMC,164636.00,A,4049.39540,N,01413.14166,E,0.000,0.00,071021,3.71,E,A*34
$GPVTG,0.00,T,356.29,M,0.000,N,0.000,K,A*28
$GPGGA,164636.00,4049.39540,N,01413.14166,E,1,06,1.47,9.1,M,41.2,M,,*56
$GPGSA,A,3,14,20,30,05,07,13,,,,,,,3.16,1.47,2.80*0A
$GPGSV,2,1,08,05,55,259,35,07,24,061,25,08,05,038,,13,55,313,36*7E
$GPGSV,2,2,08,14,62,130,35,20,42,209,34,28,52,160,33,30,56,049,38*70
$GPGLL,4049.39540,N,01413.14166,E,164636.00,A,A*68
$GPGST,164636.00,25,,,,4.3,3.4,19*76
!AIVDM,1,1,,A,13cVCE002=11Ce@GFVd1wQTv08CO,0*7C
!AIVDM,1,1,,A,13ci>S0P00Q1CmnGGhJf4?w220S8,0*60
$GPRMC,164637.00,A,4049.39540,N,01413.14166,E,0.000,0.00,071021,3.71,E,A*35
!AIVDM,1,1,,A,13cWAL0P4LQ1F;fGEKwh6?w20D0f,0*46
$GPVTG,0.00,T,356.29,M,0.000,N,0.000,K,A*28
$GPGGA,164637.00,4049.39540,N,01413.14166,E,1,06,1.47,9.1,M,41.2,M,,*57
$GPGSA,A,3,14,20,30,05,07,13,,,,,,,3.16,1.47,2.80*0A
!AIVDM,1,1,,A,33KCtj021OQ1GaHGFmW75ma2216Q,0*21
$GPGSV,2,1,08,05,55,259,33,07,24,061,26,08,05,038,,13,55,313,36*7B
$GPGSV,2,2,08,14,62,130,34,20,42,209,33,28,52,160,34,30,56,049,35*7C
$GPGLL,4049.39540,N,01413.14166,E,164637.00,A,A*69
$GPGST,164637.00,27,,,,4.3,3.4,19*75
!AIVDM,1,1,,B,14i80v0P01117E:GG7fhPOw60<1S,0*17
!AIVDM,1,1,,A,13cWA30P@311@FPGGQW=BpQ608D@,0*45
!AIVDM,1,1,,B,13cVlR0P4FQ1UGlGCM`V<?w40<0p,0*53
$GPRMC,164638.00,A,4049.39540,N,01413.14166,E,0.000,0.00,071021,3.71,E,A*3A
$GPVTG,0.00,T,356.29,M,0.000,N,0.000,K,A*28
$GPGGA,164638.00,4049.39540,N,01413.14166,E,1,06,1.47,9.1,M,41.2,M,,*58
$GPGSA,A,3,14,20,30,05,07,13,,,,,,,3.16,1.47,2.80*0A
$GPGSV,2,1,08,05,55,259,32,07,24,061,26,08,05,038,,13,55,313,36*7A
$GPGSV,2,2,08,14,62,130,34,20,42,209,35,28,52,160,35,30,56,049,36*78
$GPGLL,4049.39540,N,01413.14166,E,164638.00,A,A*66
$GPGST,164638.00,26,,,,4.2,3.4,19*7A
$GPRMC,164639.00,A,4049.39540,N,01413.14166,E,0.000,0.00,071021,3.71,E,A*3B
$GPVTG,0.00,T,356.29,M,0.000,N,0.000,K,A*28
$GPGGA,164639.00,4049.39540,N,01413.14166,E,1,06,1.47,9.1,M,41.2,M,,*59
$GPGSA,A,3,14,20,30,05,07,13,,,,,,,3.16,1.47,2.80*0A
$GPGSV,2,1,08,05,55,259,32,07,24,061,26,08,05,038,,13,55,313,35*79
$GPGSV,2,2,08,14,62,130,34,20,42,209,35,28,52,160,35,30,56,049,36*78
!AIVDM,1,1,,B,13cWAL0P4KQ1F;vGELW05ww600S9,0*2A
$GPGLL,4049.39540,N,01413.14166,E,164639.00,A,A*67
$GPGST,164639.00,26,,,,4.2,3.4,19*7B
$GPRMC,164640.00,A,4049.39540,N,01413.14166,E,0.000,0.00,071021,3.71,E,A*35
$GPVTG,0.00,T,356.29,M,0.000,N,0.000,K,A*28
$GPGGA,164640.00,4049.39540,N,01413.14166,E,1,06,1.47,9.1,M,41.2,M,,*57
$GPGSA,A,3,14,20,30,05,07,13,,,,,,,3.16,1.47,2.80*0A
$GPGSV,2,1,08,05,55,259,33,07,24,061,26,08,05,038,,13,55,313,35*78
$GPGSV,2,2,08,14,62,130,34,20,42,209,35,28,52,160,35,30,56,049,36*78
$GPGLL,4049.39540,N,01413.14166,E,164640.00,A,A*69
$GPGST,164640.00,26,,,,4.2,3.4,19*75
!AIVDM,1,1,,A,13cf4V0P00Q2?jlGBGM>4?w:2@Ev,0*4F
!AIVDM,1,1,,B,33KCtj0tiMQ1GaJGFm=FwUW:2000,0*05
$GPRMC,164641.00,A,4049.39540,N,01413.14166,E,0.000,0.00,071021,3.71,E,A*34
$GPVTG,0.00,T,356.29,M,0.000,N,0.000,K,A*28
$GPGGA,164641.00,4049.39540,N,01413.14166,E,1,06,1.47,9.1,M,41.2,M,,*56
$GPGSA,A,3,14,20,30,05,07,13,,,,,,,3.16,1.47,2.80*0A
$GPGSV,2,1,08,05,55,259,33,07,24,061,26,08,05,038,,13,55,313,36*7B
$GPGSV,2,2,08,14,62,130,34,20,42,209,34,28,52,160,35,30,56,049,37*78
$GPGLL,4049.39540,N,01413.14166,E,164641.00,A,A*68
$GPGST,164641.00,26,,,,4.2,3.4,19*74
!AIVDM,1,1,,A,13cWAL0P4JQ1F<DGEM=@6Ow:08FG,0*52
!AIVDM,2,1,6,B,54hCGm00?J4q`LH:220h4AV20985HF222222220U3pE556Q=H8hhD4RH8888,0*1E
!AIVDM,2,2,6,B,88888888880,2*21
!AIVDM,1,1,,A,13cc0q3P00Q1C8:GGf?e7Ow<0<0v,0*62
$GPRMC,164642.00,A,4049.39540,N,01413.14166,E,0.000,0.00,071021,3.71,E,A*37
$GPVTG,0.00,T,356.29,M,0.000,N,0.000,K,A*28
$GPGGA,164642.00,4049.39540,N,01413.14166,E,1,06,1.47,9.1,M,41.2,M,,*55
$GPGSA,A,3,14,20,30,05,07,13,,,,,,,3.16,1.47,2.80*0A
$GPGSV,2,1,08,05,55,259,34,07,24,061,25,08,05,038,,13,55,313,36*7F
$GPGSV,2,2,08,14,62,130,34,20,42,209,34,28,52,160,35,30,56,049,38*77
$GPGLL,4049.39540,N,01413.14166,E,164642.00,A,A*6B
$GPGST,164642.00,26,,,,4.2,3.5,18*77
!AIVDM,1,1,,A,14`W41002HQ1>VLGEIhpHFc:0hG3,0*07
!AIVDM,1,1,,B,13cVCE002=11CnDGFWG221S:0@G8,0*34
!AIVDM,1,1,,A,13c`;@0P00Q1C;BGGfC86Ow:08GL,0*4C
$GPRMC,164643.00,A,4049.39540,N,01413.14166,E,0.000,0.00,071021,3.71,E,A*36
$GPVTG,0.00,T,356.29,M,0.000,N,0.000,K,A*28
$GPGGA,164643.00,4049.39540,N,01413.14166,E,1,06,1.47,9.1,M,41.2,M,,*54
$GPGSA,A,3,14,20,30,05,07,13,,,,,,,3.16,1.47,2.80*0A
$GPGSV,2,1,08,05,55,259,34,07,24,061,24,08,05,038,,13,55,313,35*7D
$GPGSV,2,2,08,14,62,130,34,20,42,209,34,28,52,160,32,30,56,049,37*7F
$GPGLL,4049.39540,N,01413.14166,E,164643.00,A,A*6A
$GPGST,164643.00,27,,,,4.2,3.5,18*77
!AIVDM,1,1,,B,18Ht1A0022Q0d@6G@sS9gWi608G`,0*4D
!AIVDM,1,1,,B,13cWAL0P4HQ1F<pGEMjP7gw>062p,0*40
!AIVDM,1,1,,B,17f6F1P00011Ef@GGhN8tmQ@00Rk,0*28
$GPRMC,164644.00,A,4049.39540,N,01413.14166,E,0.000,0.00,071021,3.71,E,A*31
$GPVTG,0.00,T,356.29,M,0.000,N,0.000,K,A*28
$GPGGA,164644.00,4049.39540,N,01413.14166,E,1,06,1.47,9.1,M,41.2,M,,*53
$GPGSA,A,3,14,20,30,05,07,13,,,,,,,3.16,1.47,2.80*0A
$GPGSV,2,1,08,05,55,259,34,07,24,061,24,08,05,038,,13,55,313,35*7D
!AIVDM,1,1,,A,H02FhOPp50hE>0U@<L000000000,2*5C
$GPGSV,2,2,08,14,62,130,34,20,42,209,34,28,52,160,33,30,56,049,37*7E
$GPGLL,4049.39540,N,01413.14166,E,164644.00,A,A*6D
$GPGST,164644.00,27,,,,4.2,3.5,18*70
!AIVDM,1,1,,A,402FhOQvFShfa11BePGGgg7000S:,0*35
!AIVDM,1,1,,A,33KCtj04iMQ1GaNGFlk72UaB20wP,0*48
$GPRMC,164645.00,A,4049.39540,N,01413.14166,E,0.000,0.00,071021,3.71,E,A*30
$GPVTG,0.00,T,356.29,M,0.000,N,0.000,K,A*28
$GPGGA,164645.00,4049.39540,N,01413.14166,E,1,06,1.47,9.1,M,41.2,M,,*52
$GPGSA,A,3,14,20,30,05,07,13,,,,,,,3.16,1.47,2.80*0A
$GPGSV,2,1,08,05,55,259,33,07,24,061,23,08,05,038,,13,55,313,36*7E
$GPGSV,2,2,08,14,62,130,32,20,42,209,34,28,52,160,33,30,56,049,36*79
$GPGLL,4049.39540,N,01413.14166,E,164645.00,A,A*6C
$GPGST,164645.00,28,,,,4.2,3.5,18*7E
!AIVDM,1,1,,A,13cWAL0P4DQ1F=dGENFP9gwB0@Hj,0*11
$GPRMC,164646.00,A,4049.39540,N,01413.14166,E,0.000,0.00,071021,3.71,E,A*33
$GPVTG,0.00,T,356.29,M,0.000,N,0.000,K,A*28
$GPGGA,164646.00,4049.39540,N,01413.14166,E,1,06,1.47,9.1,M,41.2,M,,*51
$GPGSA,A,3,14,20,30,05,07,13,,,,,,,3.16,1.47,2.80*0A
$GPGSV,3,1,09,05,55,259,34,07,24,061,24,08,05,038,,09,03,116,*74
$GPGSV,3,2,09,13,55,313,35,14,62,130,33,20,42,209,34,28,52,160,33*75
$GPGSV,3,3,09,30,56,049,37*49
$GPGLL,4049.39540,N,01413.14166,E,164646.00,A,A*6F
$GPGST,164646.00,27,,,,4.2,3.5,18*72
$GPRMC,164647.00,A,4049.39540,N,01413.14166,E,0.000,0.00,071021,3.71,E,A*32
$GPVTG,0.00,T,356.29,M,0.000,N,0.000,K,A*28
$GPGGA,164647.00,4049.39540,N,01413.14166,E,1,06,1.47,9.1,M,41.2,M,,*50
$GPGSA,A,3,14,20,30,05,07,13,,,,,,,3.16,1.47,2.80*0A
$GPGSV,3,1,09,05,55,259,34,07,24,061,23,08,05,038,,09,03,116,*73
$GPGSV,3,2,09,13,55,313,35,14,62,130,33,20,42,209,35,28,52,160,33*74
$GPGSV,3,3,09,30,56,049,37*49
$GPGLL,4049.39540,N,01413.14166,E,164647.00,A,A*6E
$GPGST,164647.00,28,,,,4.2,3.5,18*7C
!AIVDM,1,1,,A,13cVCE002=11CtTGFWoQwQSD062p,0*66
!AIVDM,1,1,,B,13ci>S0P00Q1CmhGGhIf4?wH28J3,0*06
!AIVDM,1,1,,B,13cqIV?000Q17:RGG6RskJCH20Ri,0*1E
!AIVDM,1,1,,A,14i80v0P01117E6GG7g@POwJ0@J?,0*26
$GPRMC,164648.00,A,4049.39540,N,01413.14166,E,0.000,0.00,071021,3.71,E,A*3D
$GPVTG,0.00,T,356.29,M,0.000,N,0.000,K,A*28
$GPGGA,164648.00,4049.39540,N,01413.14166,E,1,06,1.47,9.1,M,41.2,M,,*5F
$GPGSA,A,3,14,20,30,05,07,13,,,,,,,3.16,1.47,2.79*0C
!AIVDM,1,1,,B,14`W410w2GQ1>PRGEHtpHVcF0V2p,0*2D
$GPGSV,3,1,09,05,55,259,33,07,24,061,22,08,05,038,,09,03,116,*75
$GPGSV,3,2,09,13,55,313,36,14,62,130,31,20,42,209,35,28,52,160,33*75
$GPGSV,3,3,09,30,56,049,37*49
$GPGLL,4049.39540,N,01413.14166,E,164648.00,A,A*61
$GPGST,164648.00,29,,,,4.2,3.5,18*72
$GPRMC,164649.00,A,4049.39540,N,01413.14166,E,0.000,0.00,071021,3.71,E,A*3C
$GPVTG,0.00,T,356.29,M,0.000,N,0.000,K,A*28
$GPGGA,164649.00,4049.39540,N,01413.14166,E,1,06,1.47,9.1,M,41.2,M,,*5E
$GPGSA,A,3,14,20,30,05,07,13,,,,,,,3.16,1.47,2.79*0C
$GPGSV,3,1,09,05,55,259,34,07,24,061,20,08,05,038,,09,03,116,*70
$GPGSV,3,2,09,13,55,313,36,14,62,130,31,20,42,209,35,28,52,160,33*75
$GPGSV,3,3,09,30,56,049,38*46
$GPGLL,4049.39540,N,01413.14166,E,164649.00,A,A*60
$GPGST,164649.00,29,,,,4.2,3.5,18*73
!AIVDM,1,1,,A,13cWAL0P48Q1F?hGEOHh>wwJ00S8,0*72
!AIVDM,1,1,,B,13cVlR0P4GQ1UUlGCJ>n<OwL0@KO,0*11
$GPRMC,164650.00,A,4049.39540,N,01413.14166,E,0.000,0.00,071021,3.71,E,A*34
$GPVTG,0.00,T,356.29,M,0.000,N,0.000,K,A*28
$GPGGA,164650.00,4049.39540,N,01413.14166,E,1,06,1.47,9.1,M,41.2,M,,*56
$GPGSA,A,3,14,20,30,05,07,13,,,,,,,3.16,1.47,2.79*0C
$GPGSV,3,1,09,05,55,259,34,07,24,061,20,08,05,038,,09,03,116,*70
$GPGSV,3,2,09,13,55,313,36,14,62,130,32,20,42,209,36,28,52,160,34*72
$GPGSV,3,3,09,30,56,049,38*46
$GPGLL,4049.39540,N,01413.14166,E,164650.00,A,A*68
$GPGST,164650.00,28,,,,4.2,3.5,18*7A
$GPRMC,164651.00,A,4049.39540,N,01413.14166,E,0.000,0.00,071021,3.71,E,A*35
$GPVTG,0.00,T,356.29,M,0.000,N,0.000,K,A*28
$GPGGA,164651.00,4049.39540,N,01413.14166,E,1,06,1.47,9.1,M,41.2,M,,*57
$GPGSA,A,3,14,20,30,05,07,13,,,,,,,3.15,1.47,2.79*0F
$GPGSV,3,1,09,05,55,259,33,07,24,061,22,08,05,038,,09,03,116,*75
$GPGSV,3,2,09,13,55,313,36,14,62,130,33,20,42,209,35,28,52,160,34*70
$GPGSV,3,3,09,30,56,049,37*49
$GPGLL,4049.39540,N,01413.14166,E,164651.00,A,A*69
$GPGST,164651.00,28,,,,4.1,3.5,18*78
!AIVDM,1,1,,B,13cWAL0P43Q1F@vGEOp@AwwN00S6,0*7E
!AIVDM,1,1,,A,33KCtj01iOQ1GaLGFl5VsEaP2000,0*16
!AIVDM,1,1,,A,13cVlR0P4GQ1U`6GCIbn<OwP0L0p,0*76
$GPRMC,164652.00,A,4049.39540,N,01413.14166,E,0.000,0.00,071021,3.71,E,A*36
$GPVTG,0.00,T,356.29,M,0.000,N,0.000,K,A*28
$GPGGA,164652.00,4049.39540,N,01413.14166,E,1,06,1.47,9.1,M,41.2,M,,*54
$GPGSA,A,3,14,20,30,05,07,13,,,,,,,3.15,1.47,2.79*0F
$GPGSV,3,1,09,05,55,259,33,07,24,061,22,08,05,038,,09,03,116,*75
$GPGSV,3,2,09,13,55,313,36,14,62,130,32,20,42,209,35,28,52,160,34*71
$GPGSV,3,3,09,30,56,049,37*49
$GPGLL,4049.39540,N,01413.14166,E,164652.00,A,A*6A
$GPGST,164652.00,28,,,,4.1,3.5,18*7B
$GPRMC,164653.00,A,4049.39540,N,01413.14166,E,0.000,0.00,071021,3.71,E,A*37
$GPVTG,0.00,T,356.29,M,0.000,N,0.000,K,A*28
$GPGGA,164653.00,4049.39540,N,01413.14166,E,1,06,1.47,9.1,M,41.2,M,,*55
$GPGSA,A,3,14,20,30,05,07,13,,,,,,,3.15,1.47,2.79*0F
$GPGSV,3,1,09,05,55,259,34,07,24,061,23,08,05,038,,09,03,116,*73
$GPGSV,3,2,09,13,55,313,36,14,62,130,34,20,42,209,36,28,52,160,33*73
$GPGSV,3,3,09,30,56,049,37*49
$GPGLL,4049.39540,N,01413.14166,E,164653.00,A,A*6B
$GPGST,164653.00,26,,,,4.1,3.5,18*74
!AIVDM,1,1,,A,13cWAL0P3uQ1FB:GEPGPDOwR062p,0*4A
!AIVDM,1,1,,B,3819=i500112A6`GBBw;a6cP0000,0*0D
!AIVDM,1,1,,B,13cVlR0P4HQ1UbJGCI6F<gwT00S;,0*00
!AIVDM,1,1,,B,13cVCE002=11D44GF`LQwQSR00Rv,0*20
$GPRMC,164654.00,A,4049.39540,N,01413.14166,E,0.000,0.00,071021,3.71,E,A*30
$GPVTG,0.00,T,356.29,M,0.000,N,0.000,K,A*28
$GPGGA,164654.00,4049.39540,N,01413.14166,E,1,06,1.47,9.1,M,41.2,M,,*52
$GPGSA,A,3,14,20,30,05,07,13,,,,,,,3.15,1.47,2.79*0F
!AIVDM,1,1,,A,14`W41002EQ1>J`GEH8pI6cR0V2p,0*7A
$GPGSV,3,1,09,05,55,259,34,07,24,061,22,08,05,038,,09,03,116,*72
$GPGSV,3,2,09,13,55,313,37,14,62,130,33,20,42,209,36,28,52,160,32*74
$GPGSV,3,3,09,30,56,049,38*46
$GPGLL,4049.39540,N,01413.14166,E,164654.00,A,A*6C
$GPGST,164654.00,27,,,,4.1,3.5,18*72
!AIVDM,1,1,,B,402FhOQvFShfk11BePGGgg700D16,0*26
$GPRMC,164655.00,A,4049.39540,N,01413.14166,E,0.000,0.00,071021,3.71,E,A*31
$GPVTG,0.00,T,356.29,M,0.000,N,0.000,K,A*28
$GPGGA,164655.00,4049.39540,N,01413.14166,E,1,06,1.47,9.1,M,41.2,M,,*53
$GPGSA,A,3,14,20,30,05,07,13,,,,,,,3.15,1.47,2.79*0F
$GPGSV,3,1,09,05,55,259,35,07,24,061,26,08,05,038,,09,03,116,20*75
$GPGSV,3,2,09,13,55,313,37,14,62,130,32,20,42,209,35,28,52,160,29*7C
$GPGSV,3,3,09,30,56,049,39*47
$GPGLL,4049.39540,N,01413.14166,E,164655.00,A,A*6D
$GPGST,164655.00,26,,,,4.1,3.5,18*72
!AIVDM,1,1,,B,13cWAL0P3qQ1FCBGEPnhEwwV08NU,0*4F
$GPRMC,164656.00,A,4049.39540,N,01413.14166,E,0.000,0.00,071021,3.71,E,A*32
$GPVTG,0.00,T,356.29,M,0.000,N,0.000,K,A*28
$GPGGA,164656.00,4049.39540,N,01413.14166,E,1,06,1.47,9.1,M,41.2,M,,*50
$GPGSA,A,3,14,20,30,05,07,13,,,,,,,3.15,1.47,2.79*0F
$GPGSV,3,1,09,05,55,259,34,07,24,061,26,08,05,038,,09,03,116,19*7E
$GPGSV,3,2,09,13,55,313,37,14,62,130,31,20,42,209,35,28,52,160,28*7E
$GPGSV,3,3,09,30,56,049,39*47
$GPGLL,4049.39540,N,01413.14166,E,164656.00,A,A*6E
$GPGST,164656.00,27,,,,4.1,3.5,18*70
!AIVDM,1,1,,A,33cqIV?2@0Q17:RGG6RskJC`24Fk,0*57
!AIVDM,1,1,,A,13cWA3000111@F8GGQW05HMd00Sd,0*08
!AIVDM,1,1,,A,13ci>S0P00Q1Cm`GGhI>4?wb20Rt,0*28
$GPRMC,164657.00,A,4049.39540,N,01413.14166,E,0.000,0.00,071021,3.71,E,A*33
$GPVTG,0.00,T,356.29,M,0.000,N,0.000,K,A*28
$GPGGA,164657.00,4049.39540,N,01413.14166,E,1,06,1.47,9.1,M,41.2,M,,*51
$GPGSA,A,3,14,20,30,05,07,13,,,,,,,3.15,1.47,2.79*0F
$GPGSV,3,1,09,05,55,259,34,07,24,061,25,08,05,038,,09,03,116,20*77
$GPGSV,3,2,09,13,55,313,37,14,62,130,30,20,42,209,35,28,52,160,28*7F
$GPGSV,3,3,09,30,56,049,40*49
$GPGLL,4049.39540,N,01413.14166,E,164657.00,A,A*6F
$GPGST,164657.00,28,,,,4.1,3.5,18*7E
!AIVDM,1,1,,A,13cWAL0P3nQ1FDJGEQF@GOwb08Ol,0*6B
!AIVDM,1,1,,A,13cbV17P00Q1glFGE`Ur=Owd2HOr,0*6B
$GPRMC,164658.00,A,4049.39540,N,01413.14166,E,0.000,0.00,071021,3.71,E,A*3C
$GPVTG,0.00,T,356.29,M,0.000,N,0.000,K,A*28
$GPGGA,164658.00,4049.39540,N,01413.14166,E,1,06,1.47,9.1,M,41.2,M,,*5E
$GPGSA,A,3,14,20,30,05,07,13,,,,,,,3.15,1.47,2.79*0F
$GPGSV,3,1,09,05,55,259,35,07,24,061,25,08,05,038,,09,03,116,21*77
$GPGSV,3,2,09,13,55,313,37,14,62,130,31,20,42,209,35,28,52,160,29*7F
$GPGSV,3,3,09,30,56,049,39*47
$GPGLL,4049.39540,N,01413.14166,E,164658.00,A,A*60
$GPGST,164658.00,27,,,,4.1,3.5,18*7E
!AIVDM,1,1,,B,14i80v0P00117E8GG7fhPOwh08PQ,0*2D
$GPRMC,164659.00,A,4049.39540,N,01413.14166,E,0.000,0.00,071021,3.71,E,A*3D
$GPVTG,0.00,T,356.29,M,0.000,N,0.000,K,A*28
$GPGGA,164659.00,4049.39540,N,01413.14166,E,1,06,1.47,9.1,M,41.2,M,,*5F
$GPGSA,A,3,14,20,30,05,07,13,,,,,,,3.15,1.47,2.79*0F
$GPGSV,3,1,09,05,55,259,35,07,24,061,25,08,05,038,,09,03,116,21*77
$GPGSV,3,2,09,13,55,313,37,14,62,130,31,20,42,209,35,28,52,160,29*7F
$GPGSV,3,3,09,30,56,049,39*47
$GPGLL,4049.39540,N,01413.14166,E,164659.00,A,A*61
$GPGST,164659.00,27,,,,4.1,3.5,18*7F
!AIVDM,1,1,,A,35E3lN500111LGtGGBh8h4=f0P00,0*7A
!AIVDM,1,1,,B,13cWAL0P3lQ1FEdGEQn0IOwf08Q1,0*54
$GPRMC,164700.00,A,4049.39540,N,01413.14166,E,0.000,0.00,071021,3.71,E,A*30
$GPVTG,0.00,T,356.29,M,0.000,N,0.000,K,A*28
$GPGGA,164700.00,4049.39540,N,01413.14166,E,1,06,1.47,9.1,M,41.2,M,,*52
$GPGSA,A,3,14,20,30,05,07,13,,,,,,,3.15,1.47,2.79*0F
!AIVDM,1,1,,A,13cVCE002=11D;TGFa2Qu1Qf062p,0*07
$GPGSV,3,1,09,05,55,259,35,07,24,061,25,08,05,038,,09,03,116,21*77
$GPGSV,3,2,09,13,55,313,37,14,62,130,31,20,42,209,36,28,52,160,29*7C
$GPGSV,3,3,09,30,56,049,39*47
$GPGLL,4049.39540,N,01413.14166,E,164700.00,A,A*6C
$GPGST,164700.00,26,,,,4.1,3.5,18*73
!AIVDM,1,1,,B,14`W41002HQ1>DfGEGD`I6cf0pQU,0*4B
$GPRMC,164701.00,A,4049.39540,N,01413.14166,E,0.000,0.00,071021,3.71,E,A*31
$GPVTG,0.00,T,356.29,M,0.000,N,0.000,K,A*28
$GPGGA,164701.00,4049.39540,N,01413.14166,E,1,06,1.47,9.1,M,41.2,M,,*53
$GPGSA,A,3,14,20,30,05,07,13,,,,,,,3.15,1.47,2.78*0E
!AIVDM,1,1,,A,13cWAL0P3kQ1FG2GERF@K?wj08R3,0*20
$GPGSV,3,1,09,05,55,259,34,07,24,061,26,08,05,038,,09,03,116,21*75
$GPGSV,3,2,09,13,55,313,37,14,62,130,30,20,42,209,37,28,52,160,29*7C
$GPGSV,3,3,09,30,56,049,39*47
$GPGLL,4049.39540,N,01413.14166,E,164701.00,A,A*6D
$GPGST,164701.00,27,,,,4.1,3.5,18*73
!AIVDM,1,1,,B,33KCtj0vANQ1GaRGFk4FuUel2000,0*5D
$GPRMC,164702.00,A,4049.39540,N,01413.14166,E,0.000,0.00,071021,3.71,E,A*32
$GPVTG,0.00,T,356.29,M,0.000,N,0.000,K,A*28
$GPGGA,164702.00,4049.39540,N,01413.14166,E,1,06,1.47,9.1,M,41.2,M,,*50
$GPGSA,A,3,14,20,30,05,07,13,,,,,,,3.15,1.47,2.78*0E
$GPGSV,3,1,09,05,55,259,35,07,24,061,26,08,05,038,,09,03,116,21*74
$GPGSV,3,2,09,13,55,313,36,14,62,130,31,20,42,209,37,28,52,160,30*74
$GPGSV,3,3,09,30,56,049,39*47
$GPGLL,4049.39540,N,01413.14166,E,164702.00,A,A*6E
$GPGST,164702.00,26,,,,4.1,3.5,17*7E
$GPRMC,164703.00,A,4049.39540,N,01413.14166,E,0.000,0.00,071021,3.71,E,A*33
$GPVTG,0.00,T,356.29,M,0.000,N,0.000,K,A*28
$GPGGA,164703.00,4049.39540,N,01413.14166,E,1,06,1.47,9.1,M,41.2,M,,*51
$GPGSA,A,3,14,20,30,05,07,13,,,,,,,3.15,1.47,2.78*0E
$GPGSV,3,1,09,05,55,259,35,07,24,061,26,08,05,038,,09,03,116,20*75
!AIVDM,1,1,,B,18Ht1A0022Q0clPG@rOac7eh0H05,0*21
$GPGSV,3,2,09,13,55,313,35,14,62,130,32,20,42,209,37,28,52,160,31*75
$GPGSV,3,3,09,30,56,049,38*46
$GPGLL,4049.39540,N,01413.14166,E,164703.00,A,A*6F
$GPGST,164703.00,25,,,,4.1,3.5,17*7C
!AIVDM,1,1,,B,13cWAL0P3jQ1FHRGERnhMOwn00S6,0*33
$GPRMC,164704.00,A,4049.39540,N,01413.14166,E,0.000,0.00,071021,3.71,E,A*34
$GPVTG,0.00,T,356.29,M,0.000,N,0.000,K,A*28
$GPGGA,164704.00,4049.39540,N,01413.14166,E,1,06,1.47,9.1,M,41.2,M,,*56
$GPGSA,A,3,14,20,30,05,07,13,,,,,,,3.15,1.47,2.78*0E
$GPGSV,3,1,09,05,55,259,35,07,24,061,25,08,05,038,,09,03,116,20*76
$GPGSV,3,2,09,13,55,313,35,14,62,130,27,20,42,209,37,28,52,160,30*70
$GPGSV,3,3,09,30,56,049,38*46
$GPGLL,4049.39540,N,01413.14166,E,164704.00,A,A*68
$GPGST,164704.00,29,,,,4.1,3.5,17*77
!AIVDM,1,1,,A,402FhOQvFShg111BePGGgg700<16,0*06
!AIVDM,1,1,,B,17f6F1P00111EfVGGhMVsUP200Rg,0*12
!AIVDM,1,1,,A,33KCtj04QNQ1GaRGFjho6Ed220r0,0*36
$GPRMC,164705.00,A,4049.39540,N,01413.14166,E,0.000,0.00,071021,3.71,E,A*35
$GPVTG,0.00,T,356.29,M,0.000,N,0.000,K,A*28
$GPGGA,164705.00,4049.39540,N,01413.14166,E,1,06,1.47,9.1,M,41.2,M,,*57
$GPGSA,A,3,14,20,30,05,07,13,,,,,,,3.15,1.47,2.78*0E
$GPGSV,3,1,09,05,55,259,35,07,24,061,25,08,05,038,,09,03,116,20*76
$GPGSV,3,2,09,13,55,313,35,14,62,130,30,20,42,209,37,28,52,160,30*76
$GPGSV,3,3,09,30,56,049,38*46
$GPGLL,4049.39540,N,01413.14166,E,164705.00,A,A*69
$GPGST,164705.00,27,,,,4.1,3.5,17*78
!AIVDM,1,1,,A,13cWAL0P3jQ1FIvGESG0Nwv200S7,0*02
!AIVDM,1,1,,A,14`W41002GQ1>>jGEFP`Gnb20PSN,0*1E
$GPRMC,164706.00,A,4049.39540,N,01413.14166,E,0.000,0.00,071021,3.71,E,A*36
$GPVTG,0.00,T,356.29,M,0.000,N,0.000,K,A*28
$GPGGA,164706.00,4049.39540,N,01413.14166,E,1,06,1.47,9.1,M,41.2,M,,*54
$GPGSA,A,3,14,20,30,05,07,13,,,,,,,3.15,1.47,2.78*0E
$GPGSV,3,1,09,05,55,259,35,07,24,061,26,08,05,038,,09,03,116,22*77
$GPGSV,3,2,09,13,55,313,35,14,62,130,29,20,42,209,36,28,52,160,28*76
$GPGSV,3,3,09,30,56,049,39*47
$GPGLL,4049.39540,N,01413.14166,E,164706.00,A,A*6A
$GPGST,164706.00,28,,,,4.1,3.5,17*74
!AIVDM,1,1,,B,13cVCE002=11DDDGFadQu1P20D1f,0*0F
!AIVDM,1,1,,A,14i80v0P00117E>GG7fhPOv800St,0*57
!AIVDM,1,1,,B,13cWA3000111@FJGGQT@5HJ80H2=,0*11
$GPRMC,164707.00,A,4049.39540,N,01413.14166,E,0.000,0.00,071021,3.71,E,A*37
$GPVTG,0.00,T,356.29,M,0.000,N,0.000,K,A*28
$GPGGA,164707.00,4049.39540,N,01413.14166,E,1,06,1.47,9.1,M,41.2,M,,*55
$GPGSA,A,3,14,20,30,05,07,13,,,,,,,3.14,1.47,2.78*0F
$GPGSV,3,1,09,05,55,259,35,07,24,061,26,08,05,038,,09,03,116,23*76
$GPGSV,3,2,09,13,55,313,35,14,62,130,30,20,42,209,36,28,52,160,27*71
$GPGSV,3,3,09,30,56,049,39*47
$GPGLL,4049.39540,N,01413.14166,E,164707.00,A,A*6B
$GPGST,164707.00,27,,,,4.1,3.5,17*7A
!AIVDM,1,1,,B,13cWAL0P3jQ1FKJGESo@POv60H2R,0*39
!AIVDM,1,1,,A,13csFV001;Q2AtdG=NqRnB@820Sd,0*6A
!AIVDM,1,1,,B,33KCtj051MQ1GaJGFjM76mf820v1,0*17
!AIVDM,1,1,,B,13ci>S0P00Q1CmRGGhH>4?v82<1M,0*15
$GPRMC,164708.00,A,4049.39540,N,01413.14166,E,0.000,0.00,071021,3.71,E,A*38
$GPVTG,0.00,T,356.29,M,0.000,N,0.000,K,A*28
$GPGGA,164708.00,4049.39540,N,01413.14166,E,1,06,1.47,9.1,M,41.2,M,,*5A
$GPGSA,A,3,14,20,30,05,07,13,,,,,,,3.14,1.47,2.78*0F
!AIVDM,1,1,,A,ENjOss@ps?@6a9Qh7V14PP000000Ei5<;eEl000000N010,4*2E
$GPGSV,3,1,09,05,55,259,35,07,24,061,25,08,05,038,,09,03,116,23*75
$GPGSV,3,2,09,13,55,313,35,14,62,130,30,20,42,209,36,28,52,160,27*71
$GPGSV,3,3,09,30,56,049,39*47
$GPGLL,4049.39540,N,01413.14166,E,164708.00,A,A*64
$GPGST,164708.00,27,,,,4.1,3.5,17*75
$GPRMC,164709.00,A,4049.39540,N,01413.14166,E,0.000,0.00,071021,3.71,E,A*39
$GPVTG,0.00,T,356.29,M,0.000,N,0.000,K,A*28
$GPGGA,164709.00,4049.39540,N,01413.14166,E,1,06,1.47,9.1,M,41.2,M,,*5B
$GPGSA,A,3,14,20,30,05,07,13,,,,,,,3.14,1.47,2.78*0F
!AIVDM,1,1,,A,13cWAL0P3jQ1FLnGETGhQOv:0@3U,0*1D
$GPGSV,3,1,09,05,55,259,35,07,24,061,25,08,05,038,,09,03,116,23*75
$GPGSV,3,2,09,13,55,313,36,14,62,130,31,20,42,209,36,28,52,160,27*73
$GPGSV,3,3,09,30,56,049,39*47
$GPGLL,4049.39540,N,01413.14166,E,164709.00,A,A*65
$GPGST,164709.00,26,,,,4.1,3.5,17*75
$GPRMC,164710.00,A,4049.39540,N,01413.14166,E,0.000,0.00,071021,3.71,E,A*31
$GPVTG,0.00,T,356.29,M,0.000,N,0.000,K,A*28
$GPGGA,164710.00,4049.39540,N,01413.14166,E,1,06,1.47,9.1,M,41.2,M,,*53
$GPGSA,A,3,14,20,30,05,07,13,,,,,,,3.14,1.47,2.78*0F
$GPGSV,3,1,09,05,55,259,35,07,24,061,26,08,05,038,,09,03,116,22*77
$GPGSV,3,2,09,13,55,313,36,14,62,130,31,20,42,209,36,28,52,160,29*7D
$GPGSV,3,3,09,30,56,049,39*47
$GPGLL,4049.39540,N,01413.14166,E,164710.00,A,A*6D
$GPGST,164710.00,26,,,,4.1,3.5,17*7D
!AIVDM,1,1,,A,ENjOss0pqg@6a9Qh1PSV4Pa4P000Dlb0;>2OP00000N010,4*65
!AIVDM,1,1,,A,33KCtj03iOQ1GaFGFj9VwEh>2000,0*77
$GPRMC,164711.00,A,4049.39540,N,01413.14166,E,0.000,0.00,071021,3.71,E,A*30
$GPVTG,0.00,T,356.29,M,0.000,N,0.000,K,A*28
!AIVDM,1,1,,B,13cWAL0P3jQ1FNFGETohRgv>084g,0*7E
$GPGGA,164711.00,4049.39540,N,01413.14166,E,1,06,1.47,9.1,M,41.2,M,,*52
$GPGSA,A,3,14,20,30,05,07,13,,,,,,,3.14,1.47,2.78*0F
$GPGSV,3,1,09,05,55,259,35,07,24,061,26,08,05,038,,09,03,116,21*74
$GPGSV,3,2,09,13,55,313,36,14,62,130,30,20,42,209,36,28,52,160,28*7D
$GPGSV,3,3,09,30,56,049,39*47
$GPGLL,4049.39540,N,01413.14166,E,164711.00,A,A*6C
$GPGST,164711.00,26,,,,4.0,3.5,17*7D
!AIVDM,1,1,,A,13cVlR0P4HQ1UvjGCCv6=wv@085:,0*66
$GPRMC,164712.00,A,4049.39540,N,01413.14166,E,0.000,0.00,071021,3.71,E,A*33
$GPVTG,0.00,T,356.29,M,0.000,N,0.000,K,A*28
$GPGGA,164712.00,4049.39540,N,01413.14166,E,1,06,1.47,9.1,M,41.2,M,,*51
$GPGSA,A,3,14,20,30,05,07,13,,,,,,,3.14,1.47,2.78*0F
$GPGSV,3,1,09,05,55,259,35,07,24,061,26,08,05,038,,09,03,116,21*74
$GPGSV,3,2,09,13,55,313,36,14,62,130,30,20,42,209,36,28,52,160,28*7D
$GPGSV,3,3,09,30,56,049,37*49
$GPGLL,4049.39540,N,01413.14166,E,164712.00,A,A*6F
$GPGST,164712.00,26,,,,4.0,3.5,17*7E
!AIVDM,1,1,,A,13cVCE002=11DKlGFbDQrQR>085R,0*2D
!AIVDM,1,1,,B,14`W41002GQ1>7pGEET`IFd@0l1q,0*3A
!AIVDM,1,1,,A,18Ht1A0022Q0c`@G@qwa`Wd:062t,0*08
!AIVDM,1,1,,A,17f6F1P00111EfDGGhN7R5PB0D0l,0*4D
$GPRMC,164713.00,A,4049.39540,N,01413.14166,E,0.000,0.00,071021,3.71,E,A*32
$GPVTG,0.00,T,356.29,M,0.000,N,0.000,K,A*28
$GPGGA,164713.00,4049.39540,N,01413.14166,E,1,06,1.47,9.1,M,41.2,M,,*50
$GPGSA,A,3,14,20,30,05,07,13,,,,,,,3.14,1.47,2.78*0F
$GPGSV,3,1,09,05,55,259,35,07,24,061,26,08,05,038,,09,03,116,21*74
$GPGSV,3,2,09,13,55,313,36,14,62,130,31,20,42,209,37,28,52,160,28*7D
$GPGSV,3,3,09,30,56,049,38*46
$GPGLL,4049.39540,N,01413.14166,E,164713.00,A,A*6E
$GPGST,164713.00,26,,,,4.0,3.5,17*7F
!AIVDM,1,1,,A,13cWAL0P3jQ1FOpGEUGhSwvB062t,0*15
$GPRMC,164714.00,A,4049.39540,N,01413.14166,E,0.000,0.00,071021,3.71,E,A*35
$GPVTG,0.00,T,356.29,M,0.000,N,0.000,K,A*28
$GPGGA,164714.00,4049.39540,N,01413.14166,E,1,06,1.47,9.1,M,41.2,M,,*57
$GPGSA,A,3,14,20,30,05,07,13,,,,,,,3.14,1.47,2.78*0F
$GPGSV,3,1,09,05,55,259,35,07,24,061,26,08,05,038,,09,03,116,22*77
$GPGSV,3,2,09,13,55,313,36,14,62,130,30,20,42,209,37,28,52,160,27*73
$GPGSV,3,3,09,30,56,049,39*47
$GPGLL,4049.39540,N,01413.14166,E,164714.00,A,A*69
$GPGST,164714.00,26,,,,4.0,3.5,17*78
!AIVDM,1,1,,B,33KCtj04QNQ1GaLGFigFwEjF20wh,0*68
$GPRMC,164715.00,A,4049.39540,N,01413.14166,E,0.000,0.00,071021,3.71,E,A*34
$GPVTG,0.00,T,356.29,M,0.000,N,0.000,K,A*28
$GPGGA,164715.00,4049.39540,N,01413.14166,E,1,06,1.47,9.1,M,41.2,M,,*56
$GPGSA,A,3,14,20,30,05,07,13,,,,,,,3.14,1.47,2.77*00
$GPGSV,3,1,09,05,55,259,35,07,24,061,27,08,05,038,,09,03,116,23*77
$GPGSV,3,2,09,13,55,313,36,14,62,130,29,20,42,209,37,28,52,160,27*7B
$GPGSV,3,3,09,30,56,049,39*47
$GPGLL,4049.39540,N,01413.14166,E,164715.00,A,A*68
$GPGST,164715.00,26,,,,4.0,3.5,17*79
!AIVDM,1,1,,B,13cWAL0P3iQ1FQDGEUo@TOvF0@7>,0*3D
$GPRMC,164716.00,A,4049.39540,N,01413.14166,E,0.000,0.00,071021,3.71,E,A*37
$GPVTG,0.00,T,356.29,M,0.000,N,0.000,K,A*28
$GPGGA,164716.00,4049.39540,N,01413.14166,E,1,06,1.47,9.1,M,41.2,M,,*55
$GPGSA,A,3,14,20,30,05,07,13,,,,,,,3.14,1.47,2.77*00
$GPGSV,3,1,09,05,55,259,36,07,24,061,27,08,05,038,,09,03,116,23*74
$GPGSV,3,2,09,13,55,313,35,14,62,130,30,20,42,209,37,28,52,160,27*70
$GPGSV,3,3,09,30,56,049,37*49
$GPGLL,4049.39540,N,01413.14166,E,164716.00,A,A*6B
$GPGST,164716.00,26,,,,4.1,3.5,17*7B
!AIVDM,1,1,,A,ENjOsp@qg@6a9Qh1Tc4b0c2QQT4PKwS4;tmkP00000N010@,2*04
!AIVDM,1,1,,A,13cWA3000011@FbGGQWP5HLL00RR,0*2D
!AIVDM,1,1,,A,13cbV17P00Q1gldGE`VIEgvJ288<,0*47
$GPRMC,164717.00,A,4049.39540,N,01413.14166,E,0.000,0.00,071021,3.71,E,A*36
$GPVTG,0.00,T,356.29,M,0.000,N,0.000,K,A*28
$GPGGA,164717.00,4049.39540,N,01413.14166,E,1,06,1.47,9.1,M,41.2,M,,*54
$GPGSA,A,3,14,20,30,05,07,13,,,,,,,3.14,1.47,2.77*00
$GPGSV,3,1,09,05,55,259,36,07,24,061,28,08,05,038,,09,03,116,23*7B
$GPGSV,3,2,09,13,55,313,33,14,62,130,31,20,42,209,36,28,52,160,27*76
$GPGSV,3,3,09,30,56,049,38*46
$GPGLL,4049.39540,N,01413.14166,E,164717.00,A,A*6A
$GPGST,164717.00,26,,,,4.1,3.5,17*7A
!AIVDM,1,1,,A,13cWAL0P3hQ1FRdGEVGPTgvJ062t,0*3A
!AIVDM,1,1,,A,13cqIV?th0Q17:RGG6RskJDL2<0n,0*6B
!AIVDM,1,1,,B,14i80v0P00117E@GG7fPPOvN088R,0*21
$GPRMC,164718.00,A,4049.39540,N,01413.14166,E,0.000,0.00,071021,3.71,E,A*39
$GPVTG,0.00,T,356.29,M,0.000,N,0.000,K,A*28
!AIVDM,1,1,,A,14`W41002GQ1>2tGEDq8HVdJ0PS>,0*4E
$GPGGA,164718.00,4049.39540,N,01413.14166,E,1,06,1.47,9.1,M,41.2,M,,*5B
$GPGSA,A,3,14,20,30,05,07,13,,,,,,,3.14,1.47,2.77*00
!AIVDM,1,1,,B,13cVCE002=11DR4GFbjQu1RJ0<1f,0*66
$GPGSV,3,1,09,05,55,259,36,07,24,061,27,08,05,038,,09,03,116,23*74
$GPGSV,3,2,09,13,55,313,34,14,62,130,31,20,42,209,36,28,52,160,27*71
$GPGSV,3,3,09,30,56,049,39*47
$GPGLL,4049.39540,N,01413.14166,E,164718.00,A,A*65
$GPGST,164718.00,26,,,,4.1,3.5,17*75
!AIVDM,1,1,,A,33KCtj051MQ1Ga<GFiEG<5lN20qi,0*68
$GPRMC,164719.00,A,4049.39540,N,01413.14166,E,0.000,0.00,071021,3.71,E,A*38
$GPVTG,0.00,T,356.29,M,0.000,N,0.000,K,A*28
$GPGGA,164719.00,4049.39540,N,01413.14166,E,1,06,1.47,9.1,M,41.2,M,,*5A
$GPGSA,A,3,14,20,30,05,07,13,,,,,,,3.14,1.47,2.77*00
$GPGSV,3,1,09,05,55,259,36,07,24,061,28,08,05,038,,09,03,116,23*7B
$GPGSV,3,2,09,13,55,313,34,14,62,130,30,20,42,209,36,28,52,160,27*70
$GPGSV,3,3,09,30,56,049,38*46
$GPGLL,4049.39540,N,01413.14166,E,164719.00,A,A*64
$GPGST,164719.00,26,,,,4.1,3.5,16*75
!AIVDM,1,1,,B,13cWAL0P3hQ1FT0GEVp0TOvN089V,0*37
$GPRMC,164720.00,A,4049.39540,N,01413.14166,E,0.000,0.00,071021,3.71,E,A*32
$GPVTG,0.00,T,356.29,M,0.000,N,0.000,K,A*28
$GPGGA,164720.00,4049.39540,N,01413.14166,E,1,06,1.47,9.1,M,41.2,M,,*50
$GPGSA,A,3,14,20,30,05,07,13,,,,,,,3.14,1.47,2.77*00
$GPGSV,3,1,09,05,55,259,36,07,24,061,28,08,05,038,,09,03,116,23*7B
$GPGSV,3,2,09,13,55,313,35,14,62,130,30,20,42,209,36,28,52,160,28*7E
$GPGSV,3,3,09,30,56,049,39*47
$GPGLL,4049.39540,N,01413.14166,E,164720.00,A,A*6E
$GPGST,164720.00,25,,,,4.1,3.5,16*7C
!AIVDM,2,1,7,A,53cvVJ02;RIhT<I4001HTp<Dq`v0Hhu8Tt00000t02l0M6STN?RE43Ch0000,0*51
!AIVDM,2,2,7,A,00000000000,2*23
$GPRMC,164721.00,A,4049.39540,N,01413.14166,E,0.000,0.00,071021,3.71,E,A*33
$GPVTG,0.00,T,356.29,M,0.000,N,0.000,K,A*28
$GPGGA,164721.00,4049.39540,N,01413.14166,E,1,06,1.47,9.1,M,41.2,M,,*51
$GPGSA,A,3,14,20,30,05,07,13,,,,,,,3.14,1.47,2.77*00
$GPGSV,3,1,09,05,55,259,36,07,24,061,28,08,05,038,,09,03,116,23*7B
$GPGSV,3,2,09,13,55,313,35,14,62,130,29,20,42,209,36,28,52,160,29*77
!AIVDM,1,1,,A,13cWAL0P3hQ1FUFGEWHhSwvR062t,0*26
$GPGSV,3,3,09,30,56,049,39*47
$GPGLL,4049.39540,N,01413.14166,E,164721.00,A,A*6F
$GPGST,164721.00,26,,,,4.1,3.5,16*7E
!AIVDM,1,1,,B,33KCtj04QNQ1Ga8GFi874UnR2000,0*6E
!AIVDM,1,1,,B,33cvVJ500011B=>GGa>q0T0P0000,0*42
$GPRMC,164722.00,A,4049.39540,N,01413.14166,E,0.000,0.00,071021,3.71,E,A*30
$GPVTG,0.00,T,356.29,M,0.000,N,0.000,K,A*28
$GPGGA,164722.00,4049.39540,N,01413.14166,E,1,06,1.47,9.1,M,41.2,M,,*52
$GPGSA,A,3,14,20,30,05,07,13,,,,,,,3.14,1.47,2.77*00
$GPGSV,3,1,09,05,55,259,36,07,23,061,27,08,05,038,,09,03,116,24*74
$GPGSV,3,2,09,13,55,313,36,14,62,130,29,20,42,209,36,28,52,160,29*74
$GPGSV,3,3,09,30,56,049,40*49
$GPGLL,4049.39540,N,01413.14166,E,164722.00,A,A*6C
$GPGST,164722.00,26,,,,4.1,3.5,16*7D
!AIVDM,1,1,,A,D02FhOQRHN?b<`N01ptv000,2*0A
!AIVDM,1,1,,B,17f6F1P00011EfHGGhM655RV0H;e,0*3E
$GPRMC,164723.00,A,4049.39540,N,01413.14166,E,0.000,0.00,071021,3.71,E,A*31
$GPVTG,0.00,T,356.29,M,0.000,N,0.000,K,A*28
!AIVDM,1,1,,B,13cWAL0P3iQ1FVdGEWqPSgvV0<0b,0*0E
$GPGGA,164723.00,4049.39540,N,01413.14166,E,1,06,1.47,9.1,M,41.2,M,,*53
$GPGSA,A,3,14,20,30,05,07,13,,,,,,,3.14,1.47,2.77*00
$GPGSV,3,1,09,05,55,259,37,07,23,061,28,08,05,038,,09,03,116,25*7B
$GPGSV,3,2,09,13,55,313,36,14,62,130,31,20,42,209,33,28,52,160,29*78
$GPGSV,3,3,09,30,56,049,39*47
$GPGLL,4049.39540,N,01413.14166,E,164723.00,A,A*6D
$GPGST,164723.00,26,,,,4.1,3.5,16*7C
!AIVDM,1,1,,B,18Ht1A0022Q0cJfG@qKIWGbN0<1:,0*01
!AIVDM,1,1,,A,13cVCE002=11DbPGFcP1u1RV0L1f,0*06
$GPRMC,164724.00,A,4049.39540,N,01413.14166,E,0.000,0.00,071021,3.71,E,A*36
$GPVTG,0.00,T,356.29,M,0.000,N,0.000,K,A*28
$GPGGA,164724.00,4049.39540,N,01413.14166,E,1,06,1.47,9.1,M,41.2,M,,*54
$GPGSA,A,3,14,20,30,05,07,13,,,,,,,3.13,1.47,2.77*07
$GPGSV,3,1,09,05,55,259,36,07,23,061,28,08,05,038,,09,03,116,24*7B
!AIVDM,1,1,,B,14`W41002HQ1=u2GED58GFdV0d1r,0*1D
$GPGSV,3,2,09,13,55,313,36,14,62,130,31,20,42,209,34,28,52,160,36*71
$GPGSV,3,3,09,30,56,049,39*47
$GPGLL,4049.39540,N,01413.14166,E,164724.00,A,A*6A
$GPGST,164724.00,25,,,,4.1,3.5,16*78
!AIVDM,1,1,,A,402FhOQvFShgE11BePGGgg7008<Q,0*1C
!AIVDM,1,1,,A,33KCtj031MQ1G`vGFhf7<mnb20uh,0*04
$GPRMC,164725.00,A,4049.39540,N,01413.14166,E,0.000,0.00,071021,3.71,E,A*37
$GPVTG,0.00,T,356.29,M,0.000,N,0.000,K,A*28
$GPGGA,164725.00,4049.39540,N,01413.14166,E,1,06,1.47,9.1,M,41.2,M,,*55
$GPGSA,A,3,14,20,30,05,07,13,,,,,,,3.13,1.47,2.77*07
$GPGSV,3,1,09,05,55,259,33,07,23,061,28,08,05,038,,09,03,116,24*7E
$GPGSV,3,2,09,13,55,313,37,14,62,130,28,20,42,209,33,28,52,160,35*7C
$GPGSV,3,3,09,30,56,049,39*47
$GPGLL,4049.39540,N,01413.14166,E,164725.00,A,A*6B
$GPGST,164725.00,29,,,,4.1,3.5,16*75
!AIVDM,1,1,,A,13cWAL0P3iQ1F`0GE`JPSOvb0L0b,0*0F
!AIVDM,2,1,8,A,53cqIV42HUWt<7TpAP04pM861@tt00000000000U4h080t0Ht33PD3k2@000,0*21
!AIVDM,2,2,8,A,00000000000,2*2C
$GPRMC,164726.00,A,4049.39540,N,01413.14166,E,0.000,0.00,071021,3.71,E,A*34
$GPVTG,0.00,T,356.29,M,0.000,N,0.000,K,A*28
$GPGGA,164726.00,4049.39540,N,01413.14166,E,1,06,1.47,9.1,M,41.2,M,,*56
$GPGSA,A,3,14,20,30,05,07,13,,,,,,,3.13,1.47,2.77*07
!AIVDM,1,1,,B,13ci>S0P00Q1CmHGGhG>4?vd28=R,0*4B
$GPGSV,3,1,09,05,55,259,34,07,23,061,26,08,05,038,,09,03,116,24*77
$GPGSV,3,2,09,13,55,313,37,14,62,130,25,20,42,209,34,28,52,160,36*75
$GPGSV,3,3,09,30,56,049,39*47
$GPGLL,4049.39540,N,01413.14166,E,164726.00,A,A*68
$GPGST,164726.00,31,,,,4.1,3.6,16*7C
!AIVDM,1,1,,B,13cWA3000111@G0GGQW@5HLh00Rw,0*6D
$GPRMC,164727.00,A,4049.39540,N,01413.14166,E,0.000,0.00,071021,3.71,E,A*35
$GPVTG,0.00,T,356.29,M,0.000,N,0.000,K,A*28
$GPGGA,164727.00,4049.39540,N,01413.14166,E,1,06,1.47,9.1,M,41.2,M,,*57
$GPGSA,A,3,14,20,30,05,07,13,,,,,,,3.13,1.47,2.77*07
$GPGSV,3,1,09,05,55,259,34,07,23,061,26,08,05,038,,09,03,116,24*77
$GPGSV,3,2,09,13,55,313,36,14,62,130,24,20,42,209,33,28,52,160,36*72
$GPGSV,3,3,09,30,56,049,39*47
$GPGLL,4049.39540,N,01413.14166,E,164727.00,A,A*69
$GPGST,164727.00,31,,,,4.2,3.6,16*7E
!AIVDM,1,1,,B,13cWAL0P3jQ1FaFGE`shS?vf0D0b,0*05
!AIVDM,1,1,,B,33KCtj05ANQ1G`bGFhJW?Eph214i,0*54
!AIVDM,1,1,,A,14i80v0P01117EDGG7fPPOvj062t,0*21
$GPRMC,164728.00,A,4049.39540,N,01413.14166,E,0.000,0.00,071021,3.71,E,A*3A
$GPVTG,0.00,T,356.29,M,0.000,N,0.000,K,A*28
$GPGGA,164728.00,4049.39540,N,01413.14166,E,1,06,1.47,9.1,M,41.2,M,,*58
$GPGSA,A,3,14,20,30,05,07,13,,,,,,,3.13,1.47,2.76*06
$GPGSV,3,1,09,05,55,258,37,07,23,061,27,08,05,038,,09,03,116,23*73
$GPGSV,3,2,09,13,55,313,36,14,62,130,25,20,42,209,33,28,52,160,35*70
$GPGSV,3,3,09,30,56,049,39*47
$GPGLL,4049.39540,N,01413.14166,E,164728.00,A,A*66
$GPGST,164728.00,30,,,,4.2,3.6,16*70
!AIVDM,1,1,,B,13cbV17P00Q1gm2GE`Vq1Ovj262t,0*1B
$GPRMC,164729.00,A,4049.39540,N,01413.14166,E,0.000,0.00,071021,3.71,E,A*3B
$GPVTG,0.00,T,356.29,M,0.000,N,0.000,K,A*28
$GPGGA,164729.00,4049.39540,N,01413.14166,E,1,06,1.47,9.1,M,41.2,M,,*59
$GPGSA,A,3,14,20,30,05,07,13,,,,,,,3.13,1.47,2.76*06
$GPGSV,3,1,09,05,55,258,37,07,23,061,28,08,05,038,,09,03,116,23*7C
$GPGSV,3,2,09,13,55,313,36,14,62,130,28,20,42,209,32,28,52,160,36*7F
$GPGSV,3,3,09,30,56,049,38*46
$GPGLL,4049.39540,N,01413.14166,E,164729.00,A,A*67
!AIVDM,1,1,,A,13cWAL0P3jQ1FbhGEaLhS?vj0@?E,0*35
$GPGST,164729.00,28,,,,4.2,3.6,16*78
!AIVDM,1,1,,B,13cVCE002=11DjDGFd51u1Pj00S<,0*01
$GPRMC,164730.00,A,4049.39540,N,01413.14166,E,0.000,0.00,071021,3.71,E,A*33
$GPVTG,0.00,T,356.29,M,0.000,N,0.000,K,A*28
$GPGGA,164730.00,4049.39540,N,01413.14166,E,1,06,1.47,9.1,M,41.2,M,,*51
$GPGSA,A,3,14,20,30,05,07,13,,,,,,,3.13,1.47,2.76*06
$GPGSV,3,1,09,05,55,258,36,07,23,061,28,08,05,038,,09,03,116,22*7C
$GPGSV,3,2,09,13,55,313,37,14,62,130,30,20,42,209,33,28,52,160,37*77
$GPGSV,3,3,09,30,56,049,38*46
$GPGLL,4049.39540,N,01413.14166,E,164730.00,A,A*6F
$GPGST,164730.00,26,,,,4.2,3.6,16*7E
!AIVDM,1,1,,A,14`W410w2HQ1=o6GEC@pFFbj0l1s,0*4F
!AIVDM,1,1,,A,ENjOsohpg@6a9Qh3RW7PP0000000DK64<e8`000000N010,4*3A
!AIVDM,2,1,9,B,53cc0q42<N1HTHib22058l4p@v0@F0@tlDpT<v0l1cgp04Bj0<CPD3k2H888,0*61
!AIVDM,2,2,9,B,88888888880,2*2E
$GPRMC,164731.00,A,4049.39540,N,01413.14166,E,0.000,0.00,071021,3.71,E,A*32
$GPVTG,0.00,T,356.29,M,0.000,N,0.000,K,A*28
$GPGGA,164731.00,4049.39540,N,01413.14166,E,1,06,1.47,9.1,M,41.2,M,,*50
$GPGSA,A,3,14,20,30,05,07,13,,,,,,,3.13,1.47,2.76*06
$GPGSV,3,1,09,05,55,258,36,07,23,061,29,08,05,037,,09,03,116,21*71
$GPGSV,3,2,09,13,55,313,37,14,62,130,33,20,42,209,34,28,52,160,33*77
!AIVDM,1,1,,A,33KCtj03AMQ1G`HGFh77@5pn2000,0*30
$GPGSV,3,3,09,30,56,049,39*47
$GPGLL,4049.39540,N,01413.14166,E,164731.00,A,A*6E
$GPGST,164731.00,23,,,,4.2,3.6,16*7A
!AIVDM,1,1,,B,13cWAL0P3kQ1Fd<GEav0SOvn0@@S,0*1A
!AIVDM,1,1,,A,ENjOsqht?@6a9Qh90c2W70P00000L6vH<ffsP00000N010,4*46
$GPRMC,164732.00,A,4049.39540,N,01413.14166,E,0.000,0.00,071021,3.71,E,A*31
$GPVTG,0.00,T,356.29,M,0.000,N,0.000,K,A*28
$GPGGA,164732.00,4049.39540,N,01413.14166,E,1,06,1.47,9.1,M,41.2,M,,*53
$GPGSA,A,3,14,20,30,05,07,13,,,,,,,3.13,1.47,2.76*06
$GPGSV,3,1,09,05,55,258,36,07,23,061,28,08,05,037,,09,02,116,20*70
$GPGSV,3,2,09,13,55,313,37,14,62,130,33,20,42,209,35,28,52,160,36*73
$GPGSV,3,3,09,30,56,049,39*47
$GPGLL,4049.39540,N,01413.14166,E,164732.00,A,A*6D
$GPGST,164732.00,23,,,,4.2,3.5,16*7A
!AIVDM,1,1,,B,B3cW?3P00H@Ao:5mio7Q3wfUoP06,0*56
$GPRMC,164733.00,A,4049.39540,N,01413.14166,E,0.000,0.00,071021,3.71,E,A*30
$GPVTG,0.00,T,356.29,M,0.000,N,0.000,K,A*28
$GPGGA,164733.00,4049.39540,N,01413.14166,E,1,06,1.47,9.1,M,41.2,M,,*52
$GPGSA,A,3,14,20,30,05,07,13,,,,,,,3.13,1.47,2.76*06
$GPGSV,3,1,09,05,55,258,32,07,23,061,28,08,05,037,,09,02,116,20*74
$GPGSV,3,2,09,13,55,313,37,14,62,130,33,20,42,209,34,28,52,160,36*72
$GPGSV,3,3,09,30,56,049,40*49
$GPGLL,4049.39540,N,01413.14166,E,164733.00,A,A*6C
$GPGST,164733.00,25,,,,4.2,3.5,16*7D
!AIVDM,1,1,,A,13cWAL0P3mQ1FefGEbOPSwvr0D0b,0*7F
!AIVDM,1,1,,A,17f6F1P00011Ef`GGhM8D5Pt0L0l,0*4C
$GPRMC,164734.00,A,4049.39540,N,01413.14166,E,0.000,0.00,071021,3.71,E,A*37
$GPVTG,0.00,T,356.29,M,0.000,N,0.000,K,A*28
$GPGGA,164734.00,4049.39540,N,01413.14166,E,1,06,1.47,9.1,M,41.2,M,,*55
$GPGSA,A,3,14,20,30,05,07,13,,,,,,,3.13,1.47,2.76*06
$GPGSV,3,1,09,05,55,258,34,07,23,061,28,08,05,037,,09,02,116,19*78
$GPGSV,3,2,09,13,55,313,37,14,62,130,33,20,42,209,33,28,52,160,36*75
$GPGSV,3,3,09,30,56,049,40*49
$GPGLL,4049.39540,N,01413.14166,E,164734.00,A,A*6B
$GPGST,164734.00,25,,,,4.2,3.5,16*7A
!AIVDM,1,1,,B,402FhOQvFShgO11BePGGgg700@BH,0*0A
!AIVDM,1,1,,B,33KCtj041LQ1GWrGFge7CUrv20q@,0*5D
$GPRMC,164735.00,A,4049.39540,N,01413.14166,E,0.000,0.00,071021,3.71,E,A*36
$GPVTG,0.00,T,356.29,M,0.000,N,0.000,K,A*28
$GPGGA,164735.00,4049.39540,N,01413.14166,E,1,06,1.47,9.1,M,41.2,M,,*54
$GPGSA,A,3,14,20,30,05,07,13,,,,,,,3.13,1.47,2.76*06
$GPGSV,3,1,09,05,55,258,35,07,23,061,27,08,05,037,,09,02,116,20*7C
$GPGSV,3,2,09,13,55,313,37,14,62,130,32,20,42,209,33,28,52,160,35*77
$GPGSV,3,3,09,30,56,049,40*49
$GPGLL,4049.39540,N,01413.14166,E,164735.00,A,A*6A
$GPGST,164735.00,26,,,,4.2,3.5,16*78
!AIVDM,1,1,,B,13cWAL0P3oQ1Fg>GEc1PTOvv0<0b,0*18
!AIVDM,1,1,,B,14`W410w2FQ1=i<GEBLpInbv0PRw,0*23
$GPRMC,164736.00,A,4049.39540,N,01413.14166,E,0.000,0.00,071021,3.71,E,A*35
$GPVTG,0.00,T,356.29,M,0.000,N,0.000,K,A*28
$GPGGA,164736.00,4049.39540,N,01413.14166,E,1,06,1.47,9.1,M,41.2,M,,*57
$GPGSA,A,3,14,20,30,05,07,13,,,,,,,3.13,1.47,2.76*06
$GPGSV,3,1,09,05,55,258,35,07,23,061,26,08,05,037,,09,02,116,21*7C
$GPGSV,3,2,09,13,55,314,37,14,62,130,32,20,42,209,32,28,52,160,35*71
$GPGSV,3,3,09,30,56,049,40*49
$GPGLL,4049.39540,N,01413.14166,E,164736.00,A,A*69
$GPGST,164736.00,27,,,,4.2,3.5,16*7A
!AIVDM,1,1,,A,13cVCE002=11DpTGFdS1wQPt062t,0*3D
!AIVDM,1,1,,A,B3clE@P02@@CdOUmjPiOwwhUkP06,0*43
!AIVDM,1,1,,A,13cWAL0P3pQ1FhdGEcSPTOw20@Cu,0*6E
$GPRMC,164737.00,A,4049.39540,N,01413.14166,E,0.000,0.00,071021,3.71,E,A*34
$GPVTG,0.00,T,356.29,M,0.000,N,0.000,K,A*28
$GPGGA,164737.00,4049.39540,N,01413.14166,E,1,06,1.47,9.1,M,41.2,M,,*56
$GPGSA,A,3,14,20,30,05,07,13,,,,,,,3.13,1.47,2.76*06
!AIVDM,1,1,,A,33KCtj041NQ1GWbGFgPGA5s2216A,0*69
$GPGSV,3,1,09,05,55,258,35,07,23,061,27,08,05,037,,09,02,116,20*7C
$GPGSV,3,2,09,13,55,314,37,14,63,129,33,20,42,209,32,28,52,160,35*79
$GPGSV,3,3,09,30,56,049,39*47
$GPGLL,4049.39540,N,01413.14166,E,164737.00,A,A*68
$GPGST,164737.00,26,,,,4.2,3.5,16*7A
!AIVDM,1,1,,B,14i80v0P00117EFGG7f@POw608D<,0*5C
!AIVDM,1,1,,A,13cWA3000111@F@GGQUP5HM6062t,0*37
!AIVDM,1,1,,A,13cbV17P00Q1glpGE`VId?w42HDC,0*26
$GPRMC,164738.00,A,4049.39540,N,01413.14166,E,0.000,0.00,071021,3.71,E,A*3B
$GPVTG,0.00,T,356.29,M,0.000,N,0.000,K,A*28
$GPGGA,164738.00,4049.39540,N,01413.14166,E,1,06,1.47,9.1,M,41.2,M,,*59
$GPGSA,A,3,14,20,30,05,07,13,,,,,,,3.13,1.47,2.76*06
$GPGSV,3,1,09,05,55,258,35,07,23,061,31,08,05,037,,09,02,116,19*71
$GPGSV,3,2,09,13,55,314,37,14,63,129,35,20,42,209,33,28,52,160,36*7D
$GPGSV,3,3,09,30,56,049,39*47
$GPGLL,4049.39540,N,01413.14166,E,164738.00,A,A*67
$GPGST,164738.00,22,,,,4.2,3.5,16*71
$GPRMC,164739.00,A,4049.39540,N,01413.14166,E,0.000,0.00,071021,3.71,E,A*3A
$GPVTG,0.00,T,356.29,M,0.000,N,0.000,K,A*28
$GPGGA,164739.00,4049.39540,N,01413.14166,E,1,06,1.47,9.1,M,41.2,M,,*58
$GPGSA,A,3,14,20,30,05,07,13,,,,,,,3.13,1.47,2.76*06
!AIVDM,1,1,,B,13cWAL0P3qQ1Fj:GEd5@Tgw60@E:,0*24
$GPGSV,3,1,09,05,55,258,34,07,23,061,30,08,05,037,,09,02,116,19*71
$GPGSV,3,2,09,13,55,314,37,14,63,129,31,20,42,209,33,28,52,160,35*7A
$GPGSV,3,3,09,30,56,049,39*47
$GPGLL,4049.39540,N,01413.14166,E,164739.00,A,A*66
$GPGST,164739.00,25,,,,4.2,3.5,16*77
$GPRMC,164740.00,A,4049.39540,N,01413.14166,E,0.000,0.00,071021,3.71,E,A*34
$GPVTG,0.00,T,356.29,M,0.000,N,0.000,K,A*28
$GPGGA,164740.00,4049.39540,N,01413.14166,E,1,06,1.47,9.1,M,41.2,M,,*56
$GPGSA,A,3,14,20,30,05,07,13,,,,,,,3.12,1.47,2.76*07
$GPGSV,3,1,09,05,55,258,34,07,23,061,29,08,05,037,,09,02,116,20*73
$GPGSV,3,2,09,13,55,314,36,14,63,129,33,20,42,209,34,28,52,160,35*7E
$GPGSV,3,3,09,30,56,049,39*47
$GPGLL,4049.39540,N,01413.14166,E,164740.00,A,A*68
$GPGST,164740.00,24,,,,4.1,3.5,15*78
!AIVDM,1,1,,A,13cf4V0P00Q2?jjGBGMN4?w:2<12,0*75
!AIVDM,1,1,,B,33KCtj021LQ1GW:GFg67DUu:2000,0*3D
$GPRMC,164741.00,A,4049.39540,N,01413.14166,E,0.000,0.00,071021,3.71,E,A*35
$GPVTG,0.00,T,356.29,M,0.000,N,0.000,K,A*28
$GPGGA,164741.00,4049.39540,N,01413.14166,E,1,06,1.47,9.1,M,41.2,M,,*57
$GPGSA,A,3,14,20,30,05,07,13,,,,,,,3.12,1.47,2.76*07
$GPGSV,3,1,09,05,55,258,34,07,23,061,28,08,05,037,,09,02,116,23*71
$GPGSV,3,2,09,13,55,314,36,14,63,129,32,20,42,209,36,28,52,160,36*7E
$GPGSV,3,3,09,30,56,049,40*49
$GPGLL,4049.39540,N,01413.14166,E,164741.00,A,A*69
!AIVDM,1,1,,A,13cWAL0P3qQ1FkbGEdVhTww:062t,0*66
$GPGST,164741.00,25,,,,4.1,3.5,15*78
!AIVDM,1,1,,A,13cc0q3P00Q1C8<GGfEDVgw<08Fm,0*1F
$GPRMC,164742.00,A,4049.39540,N,01413.14166,E,0.000,0.00,071021,3.71,E,A*36
$GPVTG,0.00,T,356.29,M,0.000,N,0.000,K,A*28
$GPGGA,164742.00,4049.39540,N,01413.14166,E,1,06,1.47,9.1,M,41.2,M,,*54
$GPGSA,A,3,14,20,30,05,07,13,,,,,,,3.12,1.47,2.75*04
$GPGSV,3,1,09,05,55,258,33,07,23,061,27,08,05,037,,09,02,116,24*7E
$GPGSV,3,2,09,13,55,314,36,14,63,129,33,20,42,209,35,28,52,160,36*7C
$GPGSV,3,3,09,30,56,049,40*49
$GPGLL,4049.39540,N,01413.14166,E,164742.00,A,A*6A
$GPGST,164742.00,25,,,,4.1,3.5,15*7B
!AIVDM,1,1,,A,14`W41002GQ1=cDGEA`pHVc:0d1s,0*1C
!AIVDM,1,1,,B,13cVCE002<11DwhGFe91u1Q:0<1f,0*59
!AIVDM,1,1,,A,13c`;@0P01Q1C;BGGfD92gw:062t,0*24
$GPRMC,164743.00,A,4049.39540,N,01413.14166,E,0.000,0.00,071021,3.71,E,A*37
$GPVTG,0.00,T,356.29,M,0.000,N,0.000,K,A*28
$GPGGA,164743.00,4049.39540,N,01413.14166,E,1,06,1.47,9.1,M,41.2,M,,*55
$GPGSA,A,3,14,20,30,05,07,13,,,,,,,3.12,1.47,2.75*04
$GPGSV,3,1,09,05,55,258,34,07,23,061,28,08,05,037,,09,02,116,24*76
$GPGSV,3,2,09,13,55,314,37,14,63,129,34,20,41,209,35,28,52,160,36*79
!AIVDM,1,1,,B,33cfkN5000Q1DbPGGWs9;c=>0000,0*50
$GPGSV,3,3,09,30,56,049,40*49
$GPGLL,4049.39540,N,01413.14166,E,164743.00,A,A*6B
$GPGST,164743.00,24,,,,4.1,3.5,15*7B
!AIVDM,1,1,,B,18Ht1A0022Q0c6vG@pRIS7W6062t,0*0B
!AIVDM,1,1,,B,13cWAL0P3qQ1Fm6GEe8@Tww>00S0,0*57
!AIVDM,1,1,,B,17f6F1P00011EfhGGhOHj5Q@0<0l,0*5E
$GPRMC,164744.00,A,4049.39540,N,01413.14166,E,0.000,0.00,071021,3.71,E,A*30
$GPVTG,0.00,T,356.29,M,0.000,N,0.000,K,A*28
$GPGGA,164744.00,4049.39540,N,01413.14166,E,1,06,1.47,9.1,M,41.2,M,,*52
$GPGSA,A,3,14,20,30,05,07,13,,,,,,,3.12,1.47,2.75*04
$GPGSV,3,1,09,05,55,258,35,07,23,061,27,08,05,037,,09,02,116,24*78
$GPGSV,3,2,09,13,55,314,36,14,63,129,34,20,41,209,34,28,52,160,37*78
$GPGSV,3,3,09,30,56,049,40*49
$GPGLL,4049.39540,N,01413.14166,E,164744.00,A,A*6C
$GPGST,164744.00,17,,,,4.0,3.3,15*7B
!AIVDM,1,1,,A,402FhOQvFShga11BePGGgg700@H?,0*5A
!AIVDM,1,1,,A,33KCtj051QQ1GVRGFfd7FmwB20s@,0*6D
$GPRMC,164745.00,A,4049.39540,N,01413.14166,E,0.000,0.00,071021,3.71,E,A*31
$GPVTG,0.00,T,356.29,M,0.000,N,0.000,K,A*28
$GPGGA,164745.00,4049.39540,N,01413.14166,E,1,06,1.47,9.1,M,41.2,M,,*53
$GPGSA,A,3,14,20,30,05,07,13,,,,,,,3.12,1.47,2.75*04
$GPGSV,3,1,09,05,55,258,35,07,23,061,27,08,05,037,,09,02,116,23*7F
$GPGSV,3,2,09,13,55,314,37,14,63,129,34,20,41,209,34,28,52,160,37*79
$GPGSV,3,3,09,30,56,049,40*49
$GPGLL,4049.39540,N,01413.14166,E,164745.00,A,A*6D
$GPGST,164745.00,17,,,,3.9,3.2,15*75
!AIVDM,1,1,,A,13cWAL0P3rQ1FnNGEebhTgwB0<0c,0*0E
!AIVDM,1,1,,B,H3cV76TUCBD5?de00000002`333t,0*00
$GPRMC,164746.00,A,4049.39540,N,01413.14166,E,0.000,0.00,071021,3.71,E,A*32
$GPVTG,0.00,T,356.29,M,0.000,N,0.000,K,A*28
$GPGGA,164746.00,4049.39540,N,01413.14166,E,1,06,1.47,9.1,M,41.2,M,,*50
$GPGSA,A,3,14,20,30,05,07,13,,,,,,,3.12,1.47,2.75*04
$GPGSV,3,1,09,05,55,258,34,07,23,061,28,08,05,037,,09,02,116,22*70
$GPGSV,3,2,09,13,55,314,36,14,63,129,35,20,41,209,34,28,52,160,37*79
$GPGSV,3,3,09,30,56,049,39*47
$GPGLL,4049.39540,N,01413.14166,E,164746.00,A,A*6E
$GPGST,164746.00,16,,,,3.8,3.1,15*75
!AIVDM,1,1,,B,13cqIV?3@0Q17:PGG6RskJCF2L0n,0*78
$GPRMC,164747.00,A,4049.39540,N,01413.14166,E,0.000,0.00,071021,3.71,E,A*33
$GPVTG,0.00,T,356.29,M,0.000,N,0.000,K,A*28
$GPGGA,164747.00,4049.39540,N,01413.14166,E,1,06,1.47,9.1,M,41.2,M,,*51
$GPGSA,A,3,14,20,30,05,07,13,,,,,,,3.12,1.47,2.75*04
$GPGSV,3,1,09,05,55,258,35,07,23,061,28,08,05,037,,09,02,116,22*71
$GPGSV,3,2,09,13,55,314,35,14,63,129,34,20,41,209,33,28,52,160,35*7E
$GPGSV,3,3,09,30,56,049,40*49
$GPGLL,4049.39540,N,01413.14166,E,164747.00,A,A*6F
$GPGST,164747.00,17,,,,3.8,3.0,14*75
!AIVDM,1,1,,A,13cVCE002=11E8PGFen1u1OF00Sf,0*76
!AIVDM,1,1,,B,13ci>S0P00Q1CmRGGhF>4?wH262t,0*5A
!AIVDM,1,1,,B,33KCtj021LQ1GV0GFfHWJ5wH211Q,0*56
!AIVDM,1,1,,A,14i80v0P00117EFGG7ehPOwJ0<1Q,0*14
$GPRMC,164748.00,A,4049.39540,N,01413.14166,E,0.000,0.00,071021,3.71,E,A*3C
$GPVTG,0.00,T,356.29,M,0.000,N,0.000,K,A*28
$GPGGA,164748.00,4049.39540,N,01413.14166,E,1,06,1.47,9.1,M,41.2,M,,*5E
$GPGSA,A,3,14,20,30,05,07,13,,,,,,,3.12,1.47,2.75*04
!AIVDM,1,1,,B,14`W41002IQ1=UJGE@l8GFcF0PSH,0*62
$GPGSV,3,1,09,05,55,258,35,07,23,061,27,08,05,037,,09,02,116,22*7E
$GPGSV,3,2,09,13,55,314,35,14,63,129,33,20,41,209,33,28,52,160,35*79
$GPGSV,3,3,09,30,56,049,40*49
$GPGLL,4049.39540,N,01413.14166,E,164748.00,A,A*60
$GPGST,164748.00,18,,,,3.8,3.0,14*75
$GPRMC,164749.00,A,4049.39540,N,01413.14166,E,0.000,0.00,071021,3.71,E,A*3D
$GPVTG,0.00,T,356.29,M,0.000,N,0.000,K,A*28
$GPGGA,164749.00,4049.39540,N,01413.14166,E,1,06,1.47,9.1,M,41.2,M,,*5F
$GPGSA,A,3,14,20,30,05,07,13,,,,,,,3.12,1.47,2.75*04
$GPGSV,3,1,09,05,55,258,35,07,23,061,27,08,05,037,,09,02,116,21*7D
$GPGSV,3,2,09,13,55,314,35,14,63,129,33,20,41,209,33,28,52,160,36*7A
$GPGSV,3,3,09,30,56,049,40*49
$GPGLL,4049.39540,N,01413.14166,E,164749.00,A,A*61
$GPGST,164749.00,18,,,,3.7,2.9,14*73
!AIVDM,1,1,,A,13cWAL0P3tQ1Fq:GEfh0SOwJ0@K5,0*44
$GPRMC,164750.00,A,4049.39540,N,01413.14166,E,0.000,0.00,071021,3.71,E,A*35
$GPVTG,0.00,T,356.29,M,0.000,N,0.000,K,A*28
$GPGGA,164750.00,4049.39540,N,01413.14166,E,1,06,1.47,9.1,M,41.2,M,,*57
$GPGSA,A,3,14,20,30,05,07,13,,,,,,,3.12,1.47,2.75*04
$GPGSV,3,1,09,05,55,258,35,07,23,061,27,08,05,037,,09,02,116,20*7C
$GPGSV,3,2,09,13,55,314,35,14,63,129,34,20,41,209,33,28,52,160,37*7C
$GPGSV,3,3,09,30,56,049,41*48
$GPGLL,4049.39540,N,01413.14166,E,164750.00,A,A*69
$GPGST,164750.00,17,,,,3.7,2.9,14*74
!AIVDM,1,1,,A,33KCtj041SQ1GUTGFf57E5wN2000,0*5E
$GPRMC,164751.00,A,4049.39540,N,01413.14166,E,0.000,0.00,071021,3.71,E,A*34
$GPVTG,0.00,T,356.29,M,0.000,N,0.000,K,A*28
!AIVDM,1,1,,B,13cWAL0P3uQ1FrTGEgBhS?wN0D0c,0*05
$GPGGA,164751.00,4049.39540,N,01413.14166,E,1,06,1.47,9.1,M,41.2,M,,*56
$GPGSA,A,3,14,20,30,05,07,13,,,,,,,3.12,1.47,2.75*04
$GPGSV,3,1,09,05,55,258,35,07,23,061,27,08,05,037,,09,02,116,21*7D
$GPGSV,3,2,09,13,55,314,35,14,63,129,34,20,41,209,33,28,53,159,34*74
$GPGSV,3,3,09,30,56,049,40*49
$GPGLL,4049.39540,N,01413.14166,E,164751.00,A,A*68
$GPGST,164751.00,17,,,,3.7,2.9,14*75
$GPRMC,164752.00,A,4049.39540,N,01413.14166,E,0.000,0.00,071021,3.71,E,A*37
$GPVTG,0.00,T,356.29,M,0.000,N,0.000,K,A*28
