$GPGSV,3,1,09,05,46,303,36,07,52,048,45,08,02,066,29,09,23,096,46*79
$GPGSV,3,2,09,13,30,291,34,14,36,157,44,20,62,261,29,28,19,173,40*75
$GPGSV,3,3,09,30,79,034,35*4C
$GPGLL,4049.59638,N,01413.22908,E,043707.00,A,A*60
$GPGST,043707.00,15,,,,1.5,1.5,5.1*50
!AIVDM,1,1,,B,13cf4V0P00Q2A@`GB@V`B?v20l0d,0*60
!AIVDM,1,1,,A,13cvGu0000Q1C6PGGfu7K;8600RV,0*18
!AIVDM,1,1,,B,13cmw`000011B;NGGeIR9l:604RD,0*3C
$GPRMC,043708.00,A,4049.59638,N,01413.22908,E,0.000,0.00,180322,3.76,E,A*3B
$GPVTG,0.00,T,356.23,M,0.000,N,0.000,K,A*22
$GPGGA,043708.00,4049.59638,N,01413.22908,E,1,07,1.31,15.6,M,41.2,M,,*6B
$GPGSA,A,3,20,30,05,07,09,13,14,,,,,,2.40,1.31,2.01*09
$GPGSV,3,1,09,05,46,303,36,07,52,048,45,08,02,066,30,09,23,096,46*71
$GPGSV,3,2,09,13,30,291,34,14,36,157,44,20,62,261,28,28,19,173,40*74
$GPGSV,3,3,09,30,79,034,36*4F
$GPGLL,4049.59638,N,01413.22908,E,043708.00,A,A*6F
$GPGST,043708.00,15,,,,1.5,1.5,5.0*5E
!AIVDM,1,1,,B,13ku:J000811IvnGGQfiJnh80@33,0*4A
!AIVDM,1,1,,A,13cwdf0P0011EfdGGh3`Rwv:04RD,0*55
!AIVDM,1,1,,A,35TLcf51P0117InGG7S:1:3qRP00,0*5C
$GPRMC,043709.00,A,4049.59638,N,01413.22908,E,0.000,0.00,180322,3.76,E,A*3A
$GPVTG,0.00,T,356.23,M,0.000,N,0.000,K,A*22
$GPGGA,043709.00,4049.59638,N,01413.22908,E,1,07,1.31,15.6,M,41.2,M,,*6A
$AITXT,01,01,05,CSTDMA acquisition complete*39
$GPGSA,A,3,20,30,05,07,09,13,14,,,,,,2.40,1.31,2.01*09
$GPGSV,3,1,09,05,46,303,36,07,52,048,45,08,02,066,30,09,23,096,46*71
$GPGSV,3,2,09,13,30,291,35,14,36,157,44,20,62,261,29,28,19,173,40*74
$GPGSV,3,3,09,30,79,034,36*4F
$GPGLL,4049.59638,N,01413.22908,E,043709.00,A,A*6E
$GPGST,043709.00,14,,,,1.5,1.5,4.9*56
!AIVDM,2,1,3,A,53cvGu02>=RDT<4v2221<:0HhDM8D6222222221A8`D774pk0:3PD3k2H888,0*28
!AIVDM,2,2,3,A,88888888880,2*27
!AIVDM,1,1,,B,13clsA001kQ0mJbGA>E1B16:0<1G,0*2D
!AIVDM,1,1,,B,13cmfm0P0011C;<GGeP07gv<00Ra,0*2A
$GPRMC,043710.00,A,4049.59638,N,01413.22908,E,0.000,0.00,180322,3.76,E,A*32
$GPVTG,0.00,T,356.23,M,0.000,N,0.000,K,A*22
$GPGGA,043710.00,4049.59638,N,01413.22908,E,1,07,1.31,15.6,M,41.2,M,,*62
$GPGSA,A,3,20,30,05,07,09,13,14,,,,,,2.40,1.31,2.01*09
$GPGSV,3,1,09,05,46,303,38,07,52,048,44,08,02,066,27,09,23,096,45*7B
$GPGSV,3,2,09,13,30,291,38,14,36,157,44,20,62,261,31,28,19,173,40*70
$GPGSV,3,3,09,30,79,034,36*4F
$GPGLL,4049.59638,N,01413.22908,E,043710.00,A,A*66
$GPGST,043710.00,10,,,,1.5,1.5,4.7*54
!AIVDM,1,1,,A,13cf8P0P0111D@TGGcPe2gv>00SB,0*22
$GPRMC,043711.00,A,4049.59638,N,01413.22908,E,0.000,0.00,180322,3.76,E,A*33
$GPVTG,0.00,T,356.23,M,0.000,N,0.000,K,A*22
!AIVDM,1,1,,B,13cc0q3P00Q1C2DGGfbCJgv<04RD,0*62
$GPGGA,043711.00,4049.59638,N,01413.22908,E,1,07,1.31,15.6,M,41.2,M,,*63
$GPGSA,A,3,20,30,05,07,09,13,14,,,,,,2.40,1.31,2.01*09
$GPGSV,3,1,09,05,46,303,38,07,52,048,44,08,02,066,25,09,23,096,45*79
$GPGSV,3,2,09,13,30,291,40,14,36,157,44,20,62,261,33,28,19,173,40*7D
$GPGSV,3,3,09,30,79,034,36*4F
$GPGLL,4049.59638,N,01413.22908,E,043711.00,A,A*67
$GPGST,043711.00,8.7,,,,1.4,1.4,4.5*77
!AIVDM,1,1,,A,33cVTQ0P00Q1B74GGdR8lOv@001S,0*2E
$GPRMC,043712.00,A,4049.59638,N,01413.22908,E,0.000,0.00,180322,3.76,E,A*30
$GPVTG,0.00,T,356.23,M,0.000,N,0.000,K,A*22
$GPGGA,043712.00,4049.59638,N,01413.22908,E,1,07,1.31,15.6,M,41.2,M,,*60
$GPGSA,A,3,20,30,05,07,09,13,14,,,,,,2.40,1.31,2.01*09
$GPGSV,3,1,09,05,46,303,38,07,52,048,44,08,02,066,26,09,23,096,45*7A
$GPGSV,3,2,09,13,30,291,37,14,36,157,44,20,62,261,34,28,19,173,40*7A
$GPGSV,3,3,09,30,79,034,35*4C
$GPGLL,4049.59638,N,01413.22908,E,043712.00,A,A*64
$GPGST,043712.00,8.9,,,,1.4,1.3,4.4*7C
!AIVDM,2,1,4,A,53cVTQ41mhL<U@E@000H5Dpt000000000000000t2Hj774f7e8l4ShjA0Dhj,0*18
!AIVDM,2,2,4,A,2@@00000000,2*22
$GPRMC,043713.00,A,4049.59638,N,01413.22908,E,0.000,0.00,180322,3.76,E,A*31
$GPVTG,0.00,T,356.23,M,0.000,N,0.000,K,A*22
$GPGGA,043713.00,4049.59638,N,01413.22908,E,1,07,1.31,15.6,M,41.2,M,,*61
$GPGSA,A,3,20,30,05,07,09,13,14,,,,,,2.40,1.31,2.01*09
$GPGSV,3,1,09,05,46,303,37,07,52,048,44,08,02,066,28,09,23,096,45*7B
$GPGSV,3,2,09,13,30,291,37,14,36,157,44,20,62,261,34,28,19,173,40*7A
$GPGSV,3,3,09,30,79,034,36*4F
$GPGLL,4049.59638,N,01413.22908,E,043713.00,A,A*65
$GPGST,043713.00,8.7,,,,1.4,1.3,4.3*74
!AIVDM,1,1,,B,19NSUJm00011GpnGGUr0S0LB00Sa,0*63
$GPRMC,043714.00,A,4049.59638,N,01413.22908,E,0.000,0.00,180322,3.76,E,A*36
$GPVTG,0.00,T,356.23,M,0.000,N,0.000,K,A*22
$GPGGA,043714.00,4049.59638,N,01413.22908,E,1,07,1.31,15.6,M,41.2,M,,*66
$GPGSA,A,3,20,30,05,07,09,13,14,,,,,,2.40,1.31,2.01*09
$GPGSV,3,1,09,05,46,303,37,07,52,048,44,08,02,066,28,09,23,096,46*78
$GPGSV,3,2,09,13,30,291,37,14,36,157,44,20,62,261,34,28,19,173,40*7A
$GPGSV,3,3,09,30,79,034,35*4C
$GPGLL,4049.59638,N,01413.22908,E,043714.00,A,A*62
$GPGST,043714.00,9.2,,,,1.4,1.3,4.3*77
!AIVDM,1,1,,B,402FhOQvHq4U;11BePGGgg700<0j,0*10
!AIVDM,1,1,,A,15U0t25000Q1GiDGGcVl=kVF2H6m,0*30
$GPRMC,043715.00,A,4049.59638,N,01413.22908,E,0.000,0.00,180322,3.76,E,A*37
$GPVTG,0.00,T,356.23,M,0.000,N,0.000,K,A*22
$GPGGA,043715.00,4049.59638,N,01413.22908,E,1,07,1.31,15.6,M,41.2,M,,*67
$GPGSA,A,3,20,30,05,07,09,13,14,,,,,,2.40,1.31,2.01*09
$GPGSV,3,1,09,05,46,303,37,07,52,048,44,08,02,066,29,09,23,096,46*79
$GPGSV,3,2,09,13,30,291,37,14,36,157,44,20,62,261,34,28,19,173,40*7A
$GPGSV,3,3,09,30,79,034,34*4D
$GPGLL,4049.59638,N,01413.22908,E,043715.00,A,A*63
$GPGST,043715.00,9.6,,,,1.4,1.3,4.2*73
!AIVDM,1,1,,A,13crNF0P01Q1C>0GGg`9=wvF04RD,0*27
!AIVDM,1,1,,A,138ac<0001Q1D@@GGeEe:5`F8@7A,0*65
!AIVDM,1,1,,B,34h>S`500011EW4GGcJP0;>F0000,0*6E
!AIVDM,1,1,,B,13cbV17P0oQ1OjLGEn@cQwvH24RD,0*37
!AIVDM,1,1,,B,33cvAe5001Q1Cd0GGf;7RU`D005C,0*58
$GPRMC,043716.00,A,4049.59638,N,01413.22908,E,0.000,0.00,180322,3.76,E,A*34
$GPVTG,0.00,T,356.23,M,0.000,N,0.000,K,A*22
$GPGGA,043716.00,4049.59638,N,01413.22908,E,1,07,1.31,15.6,M,41.2,M,,*64
!AIVDM,1,1,,A,13d4a88P0011BsPGGIp@0?vH00Rw,0*49
$GPGSA,A,3,20,30,05,07,09,13,14,,,,,,2.40,1.31,2.01*09
$GPGSV,3,1,09,05,46,302,39,07,52,048,44,08,02,066,29,09,23,096,46*76
$GPGSV,3,2,09,13,30,291,37,14,36,157,44,20,62,261,34,28,19,173,40*7A
$GPGSV,3,3,09,30,79,034,34*4D
$GPGLL,4049.59638,N,01413.22908,E,043716.00,A,A*60
$GPGST,043716.00,9.2,,,,1.4,1.3,4.1*77
!AIVDM,2,1,5,B,53cvAe821fdDT<M@000LqJ058TE<0000000000153JH@94k<0=2E83PD0000,0*21
!AIVDM,2,2,5,B,00000000000,2*22
!AIVDM,1,1,,B,13cvGu0001Q1C6rGGg3eL;8H0881,0*51
!AIVDM,1,1,,A,13cbKUgP?w000000000>4?wp0h87,0*11
!AIVDM,1,1,,A,13cmw`000011B;NGGeIR9l:J0@8>,0*27
$GPRMC,043717.00,A,4049.59638,N,01413.22908,E,0.000,0.00,180322,3.76,E,A*35
$GPVTG,0.00,T,356.23,M,0.000,N,0.000,K,A*22
$GPGGA,043717.00,4049.59638,N,01413.22908,E,1,07,1.31,15.6,M,41.2,M,,*65
$GPGSA,A,3,20,30,05,07,09,13,14,,,,,,2.40,1.31,2.01*09
$GPGSV,3,1,09,05,46,302,38,07,52,048,44,08,02,066,30,09,23,096,46*7F
$GPGSV,3,2,09,13,30,291,37,14,36,157,43,20,62,261,34,28,19,173,40*7D
$GPGSV,3,3,09,30,79,034,34*4D
$GPGLL,4049.59638,N,01413.22908,E,043717.00,A,A*61
$GPGST,043717.00,9.3,,,,1.4,1.2,4.1*76
!AIVDM,1,1,,A,13c`;@0P01Q1C9RGGfF95gvJ00Rt,0*24
!AIVDM,1,1,,B,13cwdf0P0011EfJGGh3p=OvL04RD,0*49
$GPRMC,043718.00,A,4049.59638,N,01413.22908,E,0.000,0.00,180322,3.76,E,A*3A
$GPVTG,0.00,T,356.23,M,0.000,N,0.000,K,A*22
!AIVDM,1,1,,B,ENjOsr0tg@6a9Qh;2W4QRP000000L;g4<wpI000000N010,4*2A
$GPGGA,043718.00,4049.59638,N,01413.22908,E,1,07,1.31,15.6,M,41.2,M,,*6A
$GPGSA,A,3,20,30,05,07,09,13,14,,,,,,2.40,1.31,2.01*09
$GPGSV,3,1,09,05,46,302,39,07,52,048,44,08,02,066,30,09,23,096,46*7E
$GPGSV,3,2,09,13,30,291,37,14,36,157,43,20,62,261,34,28,19,173,40*7D
$GPGSV,3,3,09,30,79,034,35*4C
!AIVDM,1,1,,A,13cf4V0P00Q2A@`GB@V`=?vJ0PS7,0*68
$GPGLL,4049.59638,N,01413.22908,E,043718.00,A,A*6E
$GPGST,043718.00,8.7,,,,1.4,1.2,4.0*7D
!AIVDM,1,1,,A,33ku:J000911IwRGGQkQRFfL00=C,0*06
$GPRMC,043719.00,A,4049.59638,N,01413.22908,E,0.000,0.00,180322,3.76,E,A*3B
$GPVTG,0.00,T,356.23,M,0.000,N,0.000,K,A*22
$GPGGA,043719.00,4049.59638,N,01413.22908,E,1,07,1.31,15.6,M,41.2,M,,*6B
$GPGSA,A,3,20,30,05,07,09,13,14,,,,,,2.40,1.31,2.01*09
$GPGSV,3,1,09,05,46,302,39,07,52,048,44,08,02,066,29,09,23,096,46*76
$GPGSV,3,2,09,13,30,291,36,14,36,157,44,20,62,261,35,28,19,173,40*7A
$GPGSV,3,3,09,30,79,034,35*4C
$GPGLL,4049.59638,N,01413.22908,E,043719.00,A,A*6F
$GPGST,043719.00,8.5,,,,1.4,1.2,4.0*7E
!AIVDM,1,1,,A,13cmfm0P0011C;<GGeP07gvP04RD,0*64
!AIVDM,2,1,6,A,53ku:J82<52l=4U?H00`thiV08iDD0000000001?=166A4q40?jE3PD00000,0*1A
!AIVDM,2,2,6,A,00000000000,2*22
$GPRMC,043720.00,A,4049.59638,N,01413.22908,E,0.000,0.00,180322,3.76,E,A*31
$GPVTG,0.00,T,356.23,M,0.000,N,0.000,K,A*22
$GPGGA,043720.00,4049.59638,N,01413.22908,E,1,07,1.31,15.6,M,41.2,M,,*61
$GPGSA,A,3,20,30,05,07,09,13,14,,,,,,2.40,1.31,2.01*09
$GPGSV,3,1,09,05,46,302,39,07,52,048,44,08,02,066,27,09,23,096,46*78
$GPGSV,3,2,09,13,30,291,33,14,36,157,44,20,62,261,36,28,19,173,40*7C
$GPGSV,3,3,09,30,79,034,36*4F
$GPGLL,4049.59638,N,01413.22908,E,043720.00,A,A*65
$GPGST,043720.00,9.3,,,,1.4,1.2,4.0*73
!AIVDM,1,1,,B,13cVTQ0P00Q1B74GGdR8lOvP00Rt,0*7B
$GPRMC,043721.00,A,4049.59638,N,01413.22908,E,0.000,0.00,180322,3.76,E,A*30
$GPVTG,0.00,T,356.23,M,0.000,N,0.000,K,A*22
$GPGGA,043721.00,4049.59638,N,01413.22908,E,1,07,1.31,15.6,M,41.2,M,,*60
$GPGSA,A,3,20,30,05,07,09,13,14,,,,,,2.40,1.31,2.01*09
$GPGSV,3,1,09,05,46,302,39,07,52,048,44,08,02,066,29,09,23,096,46*76
$GPGSV,3,2,09,13,30,291,36,14,36,157,44,20,62,261,36,28,19,173,40*79
$GPGSV,3,3,09,30,79,034,35*4C
$GPGLL,4049.59638,N,01413.22908,E,043721.00,A,A*64
$GPGST,043721.00,8.1,,,,1.3,1.2,3.9*78
!AIVDM,1,1,,B,13cvVJ002c10oA:G@8L19i2P0<0q,0*57
!AIVDM,1,1,,B,13cf8P0P0011D@NGGcQe7?vV08:w,0*5A
!AIVDM,1,1,,B,ENjOWwk2psHr@1Pab2V67h2CTaQPOuhE;alu`10888N0022@@0,4*56
$GPRMC,043722.00,A,4049.59638,N,01413.22908,E,0.000,0.00,180322,3.76,E,A*33
$GPVTG,0.00,T,356.23,M,0.000,N,0.000,K,A*22
$GPGGA,043722.00,4049.59638,N,01413.22908,E,1,07,1.31,15.6,M,41.2,M,,*63
$GPGSA,A,3,20,30,05,07,09,13,14,,,,,,2.40,1.31,2.01*09
$GPGSV,3,1,09,05,46,302,39,07,52,048,44,08,02,066,34,09,23,096,46*7A
$GPGSV,3,2,09,13,30,291,36,14,36,157,44,20,62,261,36,28,19,173,41*78
$GPGSV,3,3,09,30,79,034,34*4D
$GPGLL,4049.59638,N,01413.22908,E,043722.00,A,A*67
$GPGST,043722.00,8.6,,,,1.3,1.2,3.9*7C
$GPRMC,043723.00,A,4049.59638,N,01413.22908,E,0.000,0.00,180322,3.76,E,A*32
$GPVTG,0.00,T,356.23,M,0.000,N,0.000,K,A*22
$GPGGA,043723.00,4049.59638,N,01413.22908,E,1,07,1.31,15.6,M,41.2,M,,*62
$GPGSA,A,3,20,30,05,07,09,13,14,,,,,,2.40,1.31,2.01*09
!AIVDM,1,1,,A,19NSUJm00011GpnGGUr0S0LT0<0d,0*1C
$GPGSV,3,1,09,05,46,302,38,07,52,048,44,08,02,066,33,09,23,096,46*7C
$GPGSV,3,2,09,13,30,291,36,14,36,157,45,20,62,261,36,28,19,173,41*79
$GPGSV,3,3,09,30,79,034,35*4C
$GPGLL,4049.59638,N,01413.22908,E,043723.00,A,A*66
$GPGST,043723.00,8.3,,,,1.3,1.2,3.9*78
!AIVDM,1,1,,B,138ac<0001Q1D@@GGeEVbm``88<E,0*04
$GPRMC,043724.00,A,4049.59638,N,01413.22908,E,0.000,0.00,180322,3.76,E,A*35
$GPVTG,0.00,T,356.23,M,0.000,N,0.000,K,A*22
$GPGGA,043724.00,4049.59638,N,01413.22908,E,1,07,1.31,15.6,M,41.2,M,,*65
$GPGSA,A,3,20,30,05,07,09,13,14,,,,,,2.40,1.31,2.01*09
$GPGSV,3,1,09,05,46,302,37,07,52,048,44,08,02,066,30,09,23,096,46*70
$GPGSV,3,2,09,13,30,291,33,14,36,157,44,20,62,261,36,28,19,173,40*7C
$GPGSV,3,3,09,30,79,034,34*4D
$GPGLL,4049.59638,N,01413.22908,E,043724.00,A,A*61
$GPGST,043724.00,10,,,,1.3,1.2,3.9*5B
!AIVDM,1,1,,B,13crNF0P01Q1C=rGGgWa:wv`00SP,0*3A
$GPRMC,043725.00,A,4049.59638,N,01413.22908,E,0.000,0.00,180322,3.76,E,A*34
$GPVTG,0.00,T,356.23,M,0.000,N,0.000,K,A*22
$GPGGA,043725.00,4049.59638,N,01413.22908,E,1,07,1.31,15.6,M,41.2,M,,*64
$GPGSA,A,3,20,30,05,07,09,13,14,,,,,,2.40,1.31,2.01*09
$GPGSV,3,1,09,05,46,302,36,07,52,048,44,08,02,066,27,09,23,096,46*77
$GPGSV,3,2,09,13,30,291,33,14,36,157,44,20,62,261,36,28,19,173,39*72
$GPGSV,3,3,09,30,79,034,34*4D
$GPGLL,4049.59638,N,01413.22908,E,043725.00,A,A*60
$GPGST,043725.00,11,,,,1.3,1.2,3.9*5B
!AIVDM,1,1,,B,35U0t25000Q1GiDGGcVl=kVd22cQ,0*00
$GPRMC,043726.00,A,4049.59638,N,01413.22908,E,0.000,0.00,180322,3.76,E,A*37
$GPVTG,0.00,T,356.23,M,0.000,N,0.000,K,A*22
$GPGGA,043726.00,4049.59638,N,01413.22908,E,1,07,1.31,15.6,M,41.2,M,,*67
$GPGSA,A,3,20,30,05,07,09,13,14,,,,,,2.40,1.31,2.01*09
$GPGSV,3,1,09,05,46,302,38,07,52,048,45,08,02,066,24,09,23,096,46*7B
$GPGSV,3,2,09,13,30,291,34,14,36,157,43,20,62,261,37,28,19,173,39*73
$GPGSV,3,3,09,30,79,034,35*4C
$GPGLL,4049.59638,N,01413.22908,E,043726.00,A,A*63
$GPGST,043726.00,9.0,,,,1.3,1.2,3.9*7F
!AIVDM,1,1,,B,13d4a88P0011BsPGGIp@0?vd0<0i,0*16
$GPRMC,043727.00,A,4049.59638,N,01413.22908,E,0.000,0.00,180322,3.76,E,A*36
$GPVTG,0.00,T,356.23,M,0.000,N,0.000,K,A*22
$GPGGA,043727.00,4049.59638,N,01413.22908,E,1,07,1.31,15.6,M,41.2,M,,*66
$GPGSA,A,3,20,30,05,07,09,13,14,,,,,,2.40,1.31,2.01*09
$GPGSV,3,1,09,05,46,302,40,07,52,048,44,08,02,066,21,09,23,096,45*73
!AIVDM,1,1,,A,13cvVJ002c10oF0G@9@A9i2b0<0q,0*16
$GPGSV,3,2,09,13,30,291,38,14,36,157,43,20,62,261,37,28,19,173,40*71
$GPGSV,3,3,09,30,79,034,35*4C
$GPGLL,4049.59638,N,01413.22908,E,043727.00,A,A*62
$GPGST,043727.00,7.3,,,,1.3,1.2,3.8*72
!AIVDM,2,1,7,A,55U0t242;vLK<HP?P00HN0hEHDq@000000000016:p<>34mR0:RE83PD0000,0*65
!AIVDM,2,2,7,A,00000000000,2*23
!AIVDM,1,1,,A,13cvGu0000Q1C6PGGfu8Nc8f0L0g,0*35
!AIVDM,1,1,,A,13cwdf0P0011EflGGgw7agvh0D0M,0*2B
!AIVDM,1,1,,B,13cmw`000011B;NGGeIR9l:f0D0t,0*4E
!AIVDM,1,1,,B,13cf4V0P00Q2A@`GB@V`8?vf0d0d,0*46
$GPRMC,043728.00,A,4049.59638,N,01413.22908,E,0.000,0.00,180322,3.76,E,A*39
$GPVTG,0.00,T,356.23,M,0.000,N,0.000,K,A*22
$GPGGA,043728.00,4049.59638,N,01413.22908,E,1,07,1.31,15.6,M,41.2,M,,*69
$GPGSA,A,3,20,30,05,07,09,13,14,,,,,,2.40,1.31,2.01*09
$GPGSV,3,1,09,05,46,302,40,07,52,048,44,08,02,066,,09,23,096,46*73
$GPGSV,3,2,09,13,30,291,38,14,36,157,44,20,62,261,37,28,19,173,40*76
$GPGSV,3,3,09,30,79,034,33*4A
$GPGLL,4049.59638,N,01413.22908,E,043728.00,A,A*6D
$GPGST,043728.00,8.5,,,,1.3,1.1,3.8*77
$GPRMC,043729.00,A,4049.59638,N,01413.22908,E,0.000,0.00,180322,3.76,E,A*38
$GPVTG,0.00,T,356.23,M,0.000,N,0.000,K,A*22
$GPGGA,043729.00,4049.59638,N,01413.22908,E,1,07,1.31,15.6,M,41.2,M,,*68
$GPGSA,A,3,20,30,05,07,09,13,14,,,,,,2.40,1.31,2.01*09
$GPGSV,3,1,09,05,46,302,39,07,52,048,44,08,02,066,24,09,23,096,47*7A
$GPGSV,3,2,09,13,30,291,35,14,36,157,43,20,62,261,36,28,19,173,40*7D
$GPGSV,3,3,09,30,79,034,33*4A
$GPGLL,4049.59638,N,01413.22908,E,043729.00,A,A*6C
$GPGST,043729.00,9.8,,,,1.3,1.1,3.8*7A
!AIVDM,1,1,,B,13ku:J000811J0>GGQq1Gndj04RD,0*21
$GPRMC,043730.00,A,4049.59638,N,01413.22908,E,0.000,0.00,180322,3.76,E,A*30
$GPVTG,0.00,T,356.23,M,0.000,N,0.000,K,A*22
$GPGGA,043730.00,4049.59638,N,01413.22908,E,1,07,1.31,15.6,M,41.2,M,,*60
$GPGSA,A,3,20,30,05,07,09,13,14,,,,,,2.40,1.31,2.01*09
$GPGSV,3,1,09,05,46,302,39,07,52,048,45,08,02,066,25,09,23,096,46*7B
$GPGSV,3,2,09,13,30,291,36,14,36,157,43,20,62,261,36,28,19,173,41*7F
$GPGSV,3,3,09,30,79,034,33*4A
$GPGLL,4049.59638,N,01413.22908,E,043730.00,A,A*64
$GPGST,043730.00,9.3,,,,1.3,1.1,3.7*76
!AIVDM,1,1,,B,13cmfm0P0011C;<GGeP07gvl04RD,0*5B
!AIVDM,1,1,,A,13cVTQ0P00Q1B74GGdR8lOvn04RD,0*72
$GPRMC,043731.00,A,4049.59638,N,01413.22908,E,0.000,0.00,180322,3.76,E,A*31
$GPVTG,0.00,T,356.23,M,0.000,N,0.000,K,A*22
$GPGGA,043731.00,4049.59638,N,01413.22908,E,1,07,1.31,15.6,M,41.2,M,,*61
$GPGSA,A,3,20,30,05,07,09,13,14,,,,,,2.40,1.31,2.01*09
$GPGSV,3,1,09,05,46,302,39,07,52,048,44,08,02,066,26,09,23,096,47*78
$GPGSV,3,2,09,13,30,291,36,14,36,157,42,20,62,261,36,28,19,173,40*7F
$GPGSV,3,3,09,30,79,034,33*4A
$GPGLL,4049.59638,N,01413.22908,E,043731.00,A,A*65
$GPGST,043731.00,9.4,,,,1.3,1.1,3.7*70
!AIVDM,1,1,,B,13cc0q3P00Q1C3@GGfbSJgvn08@S,0*2C
!AIVDM,1,1,,B,13clsA001lQ0mbFGA@aA@i8p0<1H,0*1D
$GPRMC,043732.00,A,4049.59638,N,01413.22908,E,0.000,0.00,180322,3.76,E,A*32
$GPVTG,0.00,T,356.23,M,0.000,N,0.000,K,A*22
$GPGGA,043732.00,4049.59638,N,01413.22908,E,1,07,1.31,15.6,M,41.2,M,,*62
$GPGSA,A,3,20,30,05,07,09,13,14,,,,,,2.40,1.31,2.01*09
$GPGSV,3,1,09,05,46,302,39,07,52,048,44,08,02,066,25,09,23,096,46*7A
$GPGSV,3,2,09,13,30,291,36,14,36,157,43,20,62,261,36,28,19,173,40*7E
$GPGSV,3,3,09,30,79,034,34*4D
$GPGLL,4049.59638,N,01413.22908,E,043732.00,A,A*66
$GPGST,043732.00,8.6,,,,1.3,1.1,3.7*70
$GPRMC,043733.00,A,4049.59638,N,01413.22908,E,0.000,0.00,180322,3.76,E,A*33
$GPVTG,0.00,T,356.23,M,0.000,N,0.000,K,A*22
$GPGGA,043733.00,4049.59638,N,01413.22908,E,1,07,1.31,15.6,M,41.2,M,,*63
$GPGSA,A,3,20,30,05,07,09,13,14,,,,,,2.40,1.31,2.01*09
$GPGSV,3,1,09,05,46,302,38,07,52,048,45,08,02,066,25,09,23,096,46*7A
$GPGSV,3,2,09,13,30,291,36,14,36,157,44,20,62,261,37,28,19,173,41*79
$GPGSV,3,3,09,30,79,034,35*4C
$GPGLL,4049.59638,N,01413.22908,E,043733.00,A,A*67
$GPGST,043733.00,7.9,,,,1.3,1.1,3.7*71
!AIVDM,1,1,,A,138ac<0000Q1D@@GGeEaIE`t84RD,0*45
$GPRMC,043734.00,A,4049.59638,N,01413.22908,E,0.000,0.00,180322,3.76,E,A*34
$GPVTG,0.00,T,356.23,M,0.000,N,0.000,K,A*22
$GPGGA,043734.00,4049.59638,N,01413.22908,E,1,07,1.31,15.6,M,41.2,M,,*64
$GPGSA,A,3,20,30,05,07,09,13,14,,,,,,2.40,1.31,2.01*09
$GPGSV,3,1,09,05,46,302,38,07,52,048,45,08,02,066,24,09,23,096,46*7B
$GPGSV,3,2,09,13,30,291,34,14,36,157,44,20,62,261,36,28,19,173,40*7B
$GPGSV,3,3,09,30,79,034,35*4C
$GPGLL,4049.59638,N,01413.22908,E,043734.00,A,A*60
$GPGST,043734.00,9.2,,,,1.3,1.1,3.7*73
!AIVDM,1,1,,A,13crNF0P01Q1C=rGGgWa@Ovt0HBH,0*1E
!AIVDM,1,1,,B,19NSUJm00011GpnGGUr0S0Lt0<0c,0*38
$GPRMC,043735.00,A,4049.59638,N,01413.22908,E,0.000,0.00,180322,3.76,E,A*35
$GPVTG,0.00,T,356.23,M,0.000,N,0.000,K,A*22
$GPGGA,043735.00,4049.59638,N,01413.22908,E,1,07,1.31,15.6,M,41.2,M,,*65
$GPGSA,A,3,20,30,05,07,09,13,14,,,,,,2.40,1.31,2.01*09
$GPGSV,3,1,09,05,46,302,38,07,52,048,44,08,02,066,24,09,23,096,46*7A
$GPGSV,3,2,09,13,30,291,28,14,36,157,42,20,62,261,35,28,19,173,39*7D
$GPGSV,3,3,09,30,79,034,34*4D
$GPGLL,4049.59638,N,01413.22908,E,043735.00,A,A*61
$GPGST,043735.00,17,,,,1.3,1.1,3.7*51
!AIVDM,1,1,,A,15U0t25000Q1GdTGGch0fkVf2<1>,0*14
!AIVDM,1,1,,B,13cvAe5002Q1Cd0GGf;1BU`t0<1<,0*08
!AIVDM,1,1,,B,13cbV17P0oQ1OVjGEni;OOw028C8,0*62
$GPRMC,043736.00,A,4049.59638,N,01413.22908,E,0.000,0.00,180322,3.76,E,A*36
$GPVTG,0.00,T,356.23,M,0.000,N,0.000,K,A*22
$GPGGA,043736.00,4049.59638,N,01413.22908,E,1,07,1.31,15.6,M,41.2,M,,*66
$GPGSA,A,3,20,30,05,07,09,13,14,,,,,,2.40,1.31,2.01*09
$GPGSV,3,1,09,05,46,302,38,07,52,048,44,08,02,066,23,09,23,096,46*7D
$GPGSV,3,2,09,13,30,291,26,14,36,157,43,20,62,261,37,28,19,173,39*70
$GPGSV,3,3,09,30,79,034,35*4C
$GPGLL,4049.59638,N,01413.22908,E,043736.00,A,A*62
$GPGST,043736.00,18,,,,1.3,1.1,3.7*5D
!AIVDM,1,1,,A,13cmw`000011B;NGGeIR9l;00<0t,0*62
!AIVDM,1,1,,A,13d4a88P0011BsPGGIp@0?w00<0i,0*40
!AIVDM,1,1,,B,13cvGu0001Q1C6hGGg51Gc900<0g,0*69
!AIVDM,1,1,,A,13cbKUgP?w000000000>4?wp0PS;,0*4E
!AIVDM,1,1,,A,13cf4V0P00Q2A@`GB@V`B?vv0pCk,0*47
!AIVDM,1,1,,B,13cwdf0P0011Eg<GGh2on?w208Cp,0*55
$GPRMC,043737.00,A,4049.59638,N,01413.22908,E,0.000,0.00,180322,3.76,E,A*37
$GPVTG,0.00,T,356.23,M,0.000,N,0.000,K,A*22
$GPGGA,043737.00,4049.59638,N,01413.22908,E,1,07,1.31,15.6,M,41.2,M,,*67
$GPGSA,A,3,20,30,05,07,09,13,14,,,,,,2.40,1.31,2.01*09
$GPGSV,3,1,09,05,46,302,38,07,52,048,44,08,02,066,23,09,23,096,46*7D
$GPGSV,3,2,09,13,30,291,27,14,36,157,42,20,62,261,37,28,19,173,40*7E
$GPGSV,3,3,09,30,79,034,35*4C
$GPGLL,4049.59638,N,01413.22908,E,043737.00,A,A*63
$GPGST,043737.00,15,,,,1.3,1.2,3.8*5D
!AIVDM,1,1,,A,13c`;@0P01Q1C9NGGfF96gw20<0a,0*39
!AIVDM,2,1,8,A,55?Alj42A:>O<Hh;R20fp@4@5ThV222222222216<hD<44rA0<2E853hOQT`,0*7C
!AIVDM,2,2,8,A,1Slp8888880,2*52
$GPRMC,043738.00,A,4049.59638,N,01413.22908,E,0.000,0.00,180322,3.76,E,A*38
$GPVTG,0.00,T,356.23,M,0.000,N,0.000,K,A*22
$GPGGA,043738.00,4049.59638,N,01413.22908,E,1,07,1.31,15.6,M,41.2,M,,*68
$GPGSA,A,3,20,30,05,07,09,13,14,,,,,,2.40,1.31,2.01*09
$GPGSV,3,1,09,05,46,302,38,07,52,048,44,08,02,066,23,09,23,096,46*7D
$GPGSV,3,2,09,13,30,291,29,14,36,157,43,20,62,261,37,28,19,173,40*71
$GPGSV,3,3,09,30,79,034,34*4D
$GPGLL,4049.59638,N,01413.22908,E,043738.00,A,A*6C
$GPGST,043738.00,13,,,,1.3,1.2,3.8*54
!AIVDM,1,1,,A,13cvVJ002b10oQpG@;?A:1320@E6,0*79
$GPRMC,043739.00,A,4049.59638,N,01413.22908,E,0.000,0.00,180322,3.76,E,A*39
$GPVTG,0.00,T,356.23,M,0.000,N,0.000,K,A*22
$GPGGA,043739.00,4049.59638,N,01413.22908,E,1,07,1.31,15.6,M,41.2,M,,*69
$GPGSA,A,3,20,30,05,07,09,13,14,,,,,,2.40,1.31,2.01*09
$GPGSV,3,1,09,05,46,302,38,07,52,048,44,08,02,066,25,09,23,096,46*7B
$GPGSV,3,2,09,13,30,291,30,14,36,157,42,20,62,261,37,28,19,173,39*76
$GPGSV,3,3,09,30,79,034,33*4A
$GPGLL,4049.59638,N,01413.22908,E,043739.00,A,A*6D
$GPGST,043739.00,13,,,,1.3,1.2,3.8*55
!AIVDM,1,1,,A,13ku:J000811J0lGGQuiAVc600ST,0*5C
$GPRMC,043740.00,A,4049.59638,N,01413.22908,E,0.000,0.00,180322,3.76,E,A*37
$GPVTG,0.00,T,356.23,M,0.000,N,0.000,K,A*22
$GPGGA,043740.00,4049.59638,N,01413.22908,E,1,07,1.31,15.6,M,41.2,M,,*67
!AIVDM,1,1,,A,13cmfm0P0011C;<GGeP07gw80<11,0*13
$GPGSA,A,3,20,30,05,07,09,13,14,,,,,,2.40,1.31,2.01*09
$GPGSV,3,1,09,05,46,302,36,07,52,048,45,08,02,066,25,09,23,096,46*74
$GPGSV,3,2,09,13,30,291,22,14,36,157,42,20,62,261,35,28,19,173,39*77
$GPGSV,3,3,09,30,79,034,28*40
$GPGLL,4049.59638,N,01413.22908,E,043740.00,A,A*63
$GPGST,043740.00,31,,,,1.4,1.2,3.9*5D
!AIVDM,1,1,,A,13cc0q3P00Q1C3BGGf`kJgw80<0k,0*0C
!AIVDM,1,1,,A,13clsA001lQ0mhrGAAUABQ7:0<1H,0*6A
!AIVDM,1,1,,B,13cVTQ0P00Q1B74GGdR8lOw:00SQ,0*34
$GPRMC,043741.00,A,4049.59638,N,01413.22908,E,0.000,0.00,180322,3.76,E,A*36
$GPVTG,0.00,T,356.23,M,0.000,N,0.000,K,A*22
$GPGGA,043741.00,4049.59638,N,01413.22908,E,1,07,1.31,15.6,M,41.2,M,,*66
$GPGSA,A,3,20,30,05,07,09,13,14,,,,,,2.40,1.31,2.01*09
$GPGSV,3,1,09,05,46,302,37,07,52,048,46,08,02,066,26,09,23,096,46*75
$GPGSV,3,2,09,13,30,291,30,14,36,157,43,20,62,261,35,28,19,173,39*75
$GPGSV,3,3,09,30,79,034,30*49
$GPGLL,4049.59638,N,01413.22908,E,043741.00,A,A*62
$GPGST,043741.00,16,,,,1.4,1.3,3.9*58
!AIVDM,1,1,,B,13cf8P0P0111D@PGGcReIww>08Fh,0*7A
!AIVDM,1,1,,A,13cVcS0P1e10JWHGE0UJ@?w<04RD,0*4A
$GPRMC,043742.00,A,4049.59638,N,01413.22908,E,0.000,0.00,180322,3.76,E,A*35
$GPVTG,0.00,T,356.23,M,0.000,N,0.000,K,A*22
$GPGGA,043742.00,4049.59638,N,01413.22908,E,1,07,1.31,15.6,M,41.2,M,,*65
$GPGSA,A,3,20,30,05,07,09,13,14,,,,,,2.40,1.31,2.01*09
$GPGSV,3,1,09,05,46,302,38,07,52,048,45,08,02,066,25,09,23,096,46*7A
$GPGSV,3,2,09,13,30,291,30,14,36,157,43,20,62,261,35,28,19,173,39*75
$GPGSV,3,3,09,30,79,034,31*48
$GPGLL,4049.59638,N,01413.22908,E,043742.00,A,A*61
$GPGST,043742.00,15,,,,1.4,1.3,3.9*58
$GPRMC,043743.00,A,4049.59638,N,01413.22908,E,0.000,0.00,180322,3.76,E,A*34
$GPVTG,0.00,T,356.23,M,0.000,N,0.000,K,A*22
$GPGGA,043743.00,4049.59638,N,01413.22908,E,1,07,1.31,15.6,M,41.2,M,,*64
$GPGSA,A,3,20,30,05,07,09,13,14,,,,,,2.40,1.31,2.01*09
$GPGSV,3,1,09,05,46,302,35,07,52,048,45,08,02,066,21,09,23,096,45*70
$GPGSV,3,2,09,13,30,291,30,14,36,157,42,20,62,261,35,28,19,173,38*75
$GPGSV,3,3,09,30,79,034,34*4D
$GPGLL,4049.59638,N,01413.22908,E,043743.00,A,A*60
$GPGST,043743.00,13,,,,1.4,1.3,4.0*51
!AIVDM,1,1,,A,19NSUJm00011GpnGGUr0S0M@08Gt,0*6A
!AIVDM,1,1,,B,13crNF0P01Q1C=pGGgWICww@04RD,0*59
$GPRMC,043744.00,A,4049.59638,N,01413.22908,E,0.000,0.00,180322,3.76,E,A*33
$GPVTG,0.00,T,356.23,M,0.000,N,0.000,K,A*22
$GPGGA,043744.00,4049.59638,N,01413.22908,E,1,07,1.31,15.6,M,41.2,M,,*63
!AIVDM,1,1,,A,13ci>S0P1SQ1BohGAl77E?w@2@H5,0*4C
$GPGSA,A,3,20,30,05,07,09,13,14,,,,,,2.40,1.31,2.01*09
$GPGSV,3,1,09,05,46,302,38,07,52,048,45,08,02,066,19,09,23,096,45*76
$GPGSV,3,2,09,13,30,291,30,14,36,157,42,20,62,261,35,28,19,173,38*75
$GPGSV,3,3,09,30,79,034,35*4C
$GPGLL,4049.59638,N,01413.22908,E,043744.00,A,A*67
$GPGST,043744.00,12,,,,1.4,1.3,4.0*57
!AIVDM,1,1,,B,138ac<0001Q1D@@GGeEe45a@80SV,0*6C
!AIVDM,1,1,,B,15U0t25000Q1GdTGGch0fkVf2<1?,0*16
!AIVDM,2,1,9,B,55U0t242;vLK<HP?P00HN0hEHDq@000000000016:p<>3tmR0:RE83PD0000,0*28
!AIVDM,2,2,9,B,00000000000,2*2E
$GPRMC,043745.00,A,4049.59638,N,01413.22908,E,0.000,0.00,180322,3.76,E,A*32
$GPVTG,0.00,T,356.23,M,0.000,N,0.000,K,A*22
$GPGGA,043745.00,4049.59638,N,01413.22908,E,1,07,1.31,15.6,M,41.2,M,,*62
$GPGSA,A,3,20,30,05,07,09,13,14,,,,,,2.40,1.31,2.01*09
$GPGSV,3,1,09,05,46,302,38,07,52,048,44,08,02,066,24,09,23,096,45*79
$GPGSV,3,2,09,13,30,291,30,14,36,157,44,20,62,261,35,28,19,173,42*7E
$GPGSV,3,3,09,30,79,034,34*4D
$GPGLL,4049.59638,N,01413.22908,E,043745.00,A,A*66
$GPGST,043745.00,12,,,,1.4,1.3,4.0*56
!AIVDM,1,1,,A,13cbV17P0oQ1OQ2GEo1;PgwD24RD,0*45
$GPRMC,043746.00,A,4049.59638,N,01413.22908,E,0.000,0.00,180322,3.76,E,A*31
$GPVTG,0.00,T,356.23,M,0.000,N,0.000,K,A*22
$GPGGA,043746.00,4049.59638,N,01413.22908,E,1,07,1.31,15.6,M,41.2,M,,*61
$GPGSA,A,3,20,30,05,07,09,13,14,,,,,,2.40,1.31,2.01*09
$GPGSV,3,1,09,05,46,302,38,07,52,048,44,08,02,066,23,09,23,096,45*7E
$GPGSV,3,2,09,13,30,291,30,14,36,157,44,20,62,261,36,28,19,173,42*7D
$GPGSV,3,3,09,30,79,034,34*4D
$GPGLL,4049.59638,N,01413.22908,E,043746.00,A,A*65
$GPGST,043746.00,12,,,,1.4,1.3,4.0*55
!AIVDM,1,1,,B,13cmw`000011B;NGGeIR9l;D00S?,0*31
!AIVDM,1,1,,A,13cvAe5001Q1Cd0GGf;0e5aD0<1;,0*78
!AIVDM,1,1,,A,13cvGu0002Q1C6fGGg5ho;9D00SO,0*7D
$GPRMC,043747.00,A,4049.59638,N,01413.22908,E,0.000,0.00,180322,3.76,E,A*30
$GPVTG,0.00,T,356.23,M,0.000,N,0.000,K,A*22
$GPGGA,043747.00,4049.59638,N,01413.22908,E,1,07,1.31,15.6,M,41.2,M,,*60
$GPGSA,A,3,20,30,05,07,09,13,14,,,,,,2.40,1.31,2.01*09
$GPGSV,3,1,09,05,46,302,37,07,52,048,45,08,02,066,23,09,23,096,45*70
$GPGSV,3,2,09,13,30,291,32,14,36,157,44,20,62,261,36,28,19,173,42*7F
$GPGSV,3,3,09,30,79,034,32*4B
$GPGLL,4049.59638,N,01413.22908,E,043747.00,A,A*64
!AIVDM,1,1,,B,13d4a88P0011BsPGGIp@0?wF08Ip,0*51
$GPGST,043747.00,12,,,,1.4,1.3,4.1*55
!AIVDM,1,1,,A,13cwdf0P0011Eh<GGh8H>wwH0@JI,0*5E
$GPRMC,043748.00,A,4049.59638,N,01413.22908,E,0.000,0.00,180322,3.76,E,A*3F
$GPVTG,0.00,T,356.23,M,0.000,N,0.000,K,A*22
$GPGGA,043748.00,4049.59638,N,01413.22908,E,1,07,1.31,15.6,M,41.2,M,,*6F
$GPGSA,A,3,20,30,05,07,09,13,14,,,,,,2.40,1.31,2.01*09
$GPGSV,3,1,09,05,46,302,38,07,52,048,45,08,02,066,22,09,23,096,45*7E
$GPGSV,3,2,09,13,30,291,30,14,36,157,43,20,62,261,35,28,19,173,42*79
$GPGSV,3,3,09,30,79,034,32*4B
$GPGLL,4049.59638,N,01413.22908,E,043748.00,A,A*6B
$GPGST,043748.00,14,,,,1.4,1.3,4.1*5C
$GPRMC,043749.00,A,4049.59638,N,01413.22908,E,0.000,0.00,180322,3.76,E,A*3E
$GPVTG,0.00,T,356.23,M,0.000,N,0.000,K,A*22
$GPGGA,043749.00,4049.59638,N,01413.22908,E,1,07,1.31,15.6,M,41.2,M,,*6E
$GPGSA,A,3,20,30,05,07,09,13,14,,,,,,2.40,1.31,2.01*09
$GPGSV,3,1,09,05,46,302,39,07,52,048,44,08,02,066,21,09,23,096,45*7D
$GPGSV,3,2,09,13,30,291,31,14,36,157,43,20,62,261,35,28,19,173,40*7A
$GPGSV,3,3,09,30,79,034,33*4A
$GPGLL,4049.59638,N,01413.22908,E,043749.00,A,A*6A
$GPGST,043749.00,12,,,,1.4,1.3,4.1*5B
!AIVDM,1,1,,B,13ku:J000711J1BGGR2A>VWJ0<1<,0*22
$GPRMC,043750.00,A,4049.59638,N,01413.22908,E,0.000,0.00,180322,3.76,E,A*36
$GPVTG,0.00,T,356.23,M,0.000,N,0.000,K,A*22
$GPGGA,043750.00,4049.59638,N,01413.22908,E,1,07,1.31,15.6,M,41.2,M,,*66
$GPGSA,A,3,20,30,05,07,09,13,14,,,,,,2.40,1.31,2.01*09
$GPGSV,3,1,09,05,46,302,38,07,52,048,44,08,02,066,21,09,23,096,46*7F
$GPGSV,3,2,09,13,30,291,30,14,36,157,42,20,62,261,36,28,19,173,40*79
$GPGSV,3,3,09,30,79,034,32*4B
!AIVDM,1,1,,B,13cc0q3P00Q1C3BGGf`SJgwJ0@K`,0*49
$GPGLL,4049.59638,N,01413.22908,E,043750.00,A,A*62
$GPGST,043750.00,14,,,,1.4,1.3,4.1*55
!AIVDM,1,1,,B,13cmfm0P0011C;<GGeP07gwL04RD,0*7A
!AIVDM,1,1,,B,13clsA001kQ0molGABa1Bi7N0<1H,0*7C
$GPRMC,043751.00,A,4049.59638,N,01413.22908,E,0.000,0.00,180322,3.76,E,A*37
$GPVTG,0.00,T,356.23,M,0.000,N,0.000,K,A*22
$GPGGA,043751.00,4049.59638,N,01413.22908,E,1,07,1.31,15.6,M,41.2,M,,*67
$GPGSA,A,3,20,30,05,07,09,13,14,,,,,,2.40,1.31,2.01*09
$GPGSV,3,1,09,05,46,302,37,07,52,048,45,08,02,066,20,09,22,097,45*73
$GPGSV,3,2,09,13,30,291,28,14,36,157,43,20,62,261,37,28,19,173,40*70
$GPGSV,3,3,09,30,79,034,33*4A
$GPGLL,4049.59638,N,01413.22908,E,043751.00,A,A*63
$GPGST,043751.00,15,,,,1.4,1.3,4.1*55
!AIVDM,1,1,,A,13cf8P0P0111D@TGGcReNOwP04RD,0*18
!AIVDM,1,1,,A,13cVTQ0P00Q1B74GGdR8lOwN00RT,0*47
!AIVDM,2,1,0,B,54h>S`01pvnE`=TkF20H4hdu:22222222222221J3Po774m80>2E83PD8888,0*05
!AIVDM,2,2,0,B,88888888880,2*27
$GPRMC,043752.00,A,4049.59638,N,01413.22908,E,0.000,0.00,180322,3.76,E,A*34
$GPVTG,0.00,T,356.23,M,0.000,N,0.000,K,A*22
$GPGGA,043752.00,4049.59638,N,01413.22908,E,1,07,1.31,15.6,M,41.2,M,,*64
$GPGSA,A,3,20,30,05,07,09,13,14,,,,,,2.40,1.31,2.01*09
$GPGSV,3,1,09,05,46,302,37,07,52,048,44,08,02,066,21,09,22,097,44*72
$GPGSV,3,2,09,13,30,291,30,14,36,157,43,20,62,261,38,28,19,173,39*78
$GPGSV,3,3,09,30,79,034,33*4A
$GPGLL,4049.59638,N,01413.22908,E,043752.00,A,A*60
$GPGST,043752.00,12,,,,1.4,1.4,4.1*56
!AIVDM,1,1,,B,13cVcS0P1e10JJ4GE0JrEwwR0D10,0*4B
$GPRMC,043753.00,A,4049.59638,N,01413.22908,E,0.000,0.00,180322,3.76,E,A*35
$GPVTG,0.00,T,356.23,M,0.000,N,0.000,K,A*22
$GPGGA,043753.00,4049.59638,N,01413.22908,E,1,07,1.31,15.6,M,41.2,M,,*65
$GPGSA,A,3,20,30,05,07,09,13,14,,,,,,2.40,1.31,2.01*09
$GPGSV,3,1,09,05,46,302,36,07,52,048,44,08,02,066,22,09,22,097,45*71
$GPGSV,3,2,09,13,30,291,30,14,36,157,44,20,62,261,38,28,19,173,39*7F
$GPGSV,3,3,09,30,79,034,33*4A
$GPGLL,4049.59638,N,01413.22908,E,043753.00,A,A*61
$GPGST,043753.00,13,,,,1.4,1.4,4.1*56
!AIVDM,1,1,,A,13crNF0P01Q1C=nGGgWaH?wT0@Mo,0*7B
$GPRMC,043754.00,A,4049.59638,N,01413.22908,E,0.000,0.00,180322,3.76,E,A*32
$GPVTG,0.00,T,356.23,M,0.000,N,0.000,K,A*22
$GPGGA,043754.00,4049.59638,N,01413.22908,E,1,07,1.31,15.6,M,41.2,M,,*62
$GPGSA,A,3,20,30,05,07,09,13,14,,,,,,2.40,1.31,2.01*09
$GPGSV,3,1,09,05,46,302,37,07,52,048,44,08,02,066,22,09,22,097,45*70
$GPGSV,3,2,09,13,30,291,26,14,36,157,44,20,62,261,39,28,19,173,39*79
$GPGSV,3,3,09,30,79,034,34*4D
$GPGLL,4049.59638,N,01413.22908,E,043754.00,A,A*66
$GPGST,043754.00,17,,,,1.4,1.4,4.1*55
!AIVDM,1,1,,A,138ac<0000Q1D@@GGeE`T5aV8HNF,0*68
!AIVDM,1,1,,B,19NSUJm00011GpnGGUr0S0MV0@NI,0*33
$GPRMC,043755.00,A,4049.59638,N,01413.22908,E,0.000,0.00,180322,3.76,E,A*33
$GPVTG,0.00,T,356.23,M,0.000,N,0.000,K,A*22
$GPGGA,043755.00,4049.59638,N,01413.22908,E,1,07,1.31,15.6,M,41.2,M,,*63
$GPGSA,A,3,20,30,05,07,09,13,14,,,,,,2.40,1.31,2.01*09
$GPGSV,3,1,09,05,46,302,37,07,52,048,45,08,02,066,20,09,22,097,45*73
$GPGSV,3,2,09,13,30,291,26,14,36,157,44,20,62,261,39,28,19,173,38*78
$GPGSV,3,3,09,30,79,034,33*4A
$GPGLL,4049.59638,N,01413.22908,E,043755.00,A,A*67
$GPGST,043755.00,17,,,,1.4,1.4,4.2*57
!AIVDM,1,1,,B,13cvAe5001Q1Cd0GGf;7WUaT08Np,0*0E
!AIVDM,1,1,,B,13cbV17P0nQ1OKDGEo@sQgw`24RD,0*37
!AIVDM,1,1,,A,15U0t25000Q1GiDGGcVl=kW`2HNv,0*74
!AIVDM,1,1,,A,13d4a88P0011BsPGGIp@0?w`00S9,0*2F
$GPRMC,043756.00,A,4049.59638,N,01413.22908,E,0.000,0.00,180322,3.76,E,A*30
$GPVTG,0.00,T,356.23,M,0.000,N,0.000,K,A*22
$GPGGA,043756.00,4049.59638,N,01413.22908,E,1,07,1.31,15.6,M,41.2,M,,*60
$GPGSA,A,3,20,30,05,07,09,13,14,,,,,,2.40,1.31,2.01*09
$GPGSV,3,1,09,05,46,302,38,07,52,048,45,08,02,066,19,09,22,097,46*75
$GPGSV,3,2,09,13,30,291,28,14,37,157,44,20,62,261,38,28,19,173,38*76
$GPGSV,3,3,09,30,79,034,34*4D
$GPGLL,4049.59638,N,01413.22908,E,043756.00,A,A*64
$GPGST,043756.00,14,,,,1.4,1.4,4.2*57
!AIVDM,1,1,,A,13cmw`000011B;NGGeIR9l;`08ON,0*73
!AIVDM,1,1,,B,13cvGu0000Q1C6PGGfu<q;9b04RD,0*69
$GPRMC,043757.00,A,4049.59638,N,01413.22908,E,0.000,0.00,180322,3.76,E,A*31
$GPVTG,0.00,T,356.23,M,0.000,N,0.000,K,A*22
$GPGGA,043757.00,4049.59638,N,01413.22908,E,1,07,1.31,15.6,M,41.2,M,,*61
$GPGSA,A,3,20,30,05,07,09,13,14,,,,,,2.40,1.31,2.01*09
$GPGSV,3,1,09,05,46,302,37,07,52,048,45,08,02,066,20,09,22,097,45*73
$GPGSV,3,2,09,13,30,291,29,14,37,157,44,20,62,261,38,28,19,173,38*77
$GPGSV,3,3,09,30,79,034,35*4C
$GPGLL,4049.59638,N,01413.22908,E,043757.00,A,A*65
$GPGST,043757.00,13,,,,1.4,1.4,4.2*51
!AIVDM,1,1,,A,13c`;@0P01Q1C9PGGfFHvgwb00Rq,0*38
!AIVDM,1,1,,B,13cvVJ002b10ol@G@>Bi:A3`0<0r,0*48
!AIVDM,1,1,,B,13cwdf0P0011Eg8GGh0p;?wd08P4,0*18
$GPRMC,043758.00,A,4049.59638,N,01413.22908,E,0.000,0.00,180322,3.76,E,A*3E
$GPVTG,0.00,T,356.23,M,0.000,N,0.000,K,A*22
$GPGGA,043758.00,4049.59638,N,01413.22908,E,1,07,1.31,15.6,M,41.2,M,,*6E
$GPGSA,A,3,20,30,05,07,09,13,14,,,,,,2.40,1.31,2.01*09
$GPGSV,3,1,09,05,46,302,37,07,52,048,45,08,02,066,22,09,22,097,44*70
$GPGSV,3,2,09,13,30,291,30,14,37,157,44,20,62,261,38,28,19,173,40*70
$GPGSV,3,3,09,30,79,034,35*4C
$GPGLL,4049.59638,N,01413.22908,E,043758.00,A,A*6A
$GPGST,043758.00,12,,,,1.4,1.4,4.2*5F
$GPRMC,043759.00,A,4049.59638,N,01413.22908,E,0.000,0.00,180322,3.76,E,A*3F
$GPVTG,0.00,T,356.23,M,0.000,N,0.000,K,A*22
$GPGGA,043759.00,4049.59638,N,01413.22908,E,1,07,1.31,15.6,M,41.2,M,,*6F
$GPGSA,A,3,20,30,05,07,09,13,14,,,,,,2.40,1.31,2.02*0A
$GPGSV,3,1,09,05,46,302,36,07,52,048,45,08,02,066,22,09,22,097,44*71
$GPGSV,3,2,09,13,30,291,31,14,37,157,43,20,62,261,38,28,19,173,40*76
$GPGSV,3,3,09,30,79,034,35*4C
$GPGLL,4049.59638,N,01413.22908,E,043759.00,A,A*6B
$GPGST,043759.00,11,,,,1.4,1.4,4.2*5D
!AIVDM,1,1,,A,13ku:J000511J1`GGR6A9VUf08Pt,0*01
!AIVDM,1,1,,A,13cmfm0P0011C;PGGeV07gwh08Q?,0*43
!AIVDM,1,1,,A,13cc0q3P00Q1C3FGGfaCJgwf00SD,0*3F
!AIVDM,1,1,,A,13clsA001lQ0mvJGACUQCA7h08QI,0*78
$GPRMC,043800.00,A,4049.59638,N,01413.22908,E,0.000,0.00,180322,3.76,E,A*3C
$GPVTG,0.00,T,356.23,M,0.000,N,0.000,K,A*22
$GPGGA,043800.00,4049.59638,N,01413.22908,E,1,07,1.31,15.6,M,41.2,M,,*6C
$GPGSA,A,3,20,30,05,07,09,13,14,,,,,,2.40,1.31,2.02*0A
$GPGSV,3,1,09,05,46,302,36,07,52,048,44,08,02,066,20,09,22,097,45*73
$GPGSV,3,2,09,13,30,291,33,14,37,157,43,20,62,261,39,28,19,173,40*75
$GPGSV,3,3,09,30,79,034,33*4A
$GPGLL,4049.59638,N,01413.22908,E,043800.00,A,A*68
$GPGST,043800.00,11,,,,1.4,1.4,4.2*5E
$GPRMC,043801.00,A,4049.59638,N,01413.22908,E,0.000,0.00,180322,3.76,E,A*3D
$GPVTG,0.00,T,356.23,M,0.000,N,0.000,K,A*22
$GPGGA,043801.00,4049.59638,N,01413.22908,E,1,07,1.31,15.6,M,41.2,M,,*6D
$GPGSA,A,3,20,30,05,07,09,13,14,,,,,,2.40,1.31,2.02*0A
$GPGSV,3,1,09,05,46,302,38,07,52,048,45,08,02,066,,09,22,097,44*7F
$GPGSV,3,2,09,13,30,291,34,14,37,157,43,20,62,261,38,28,19,173,40*73
$GPGSV,3,3,09,30,79,034,34*4D
$GPGLL,4049.59638,N,01413.22908,E,043801.00,A,A*69
$GPGST,043801.00,9.2,,,,1.4,1.4,4.2*7A
!AIVDM,1,1,,B,13cf8P0P0111D@TGGcS=`Owl0D0t,0*72
!AIVDM,1,1,,B,13cVTQ0P00Q1B74GGdR8lOwj08RD,0*78
$GPRMC,043802.00,A,4049.59638,N,01413.22908,E,0.000,0.00,180322,3.76,E,A*3E
$GPVTG,0.00,T,356.23,M,0.000,N,0.000,K,A*22
$GPGGA,043802.00,4049.59638,N,01413.22908,E,1,07,1.31,15.6,M,41.2,M,,*6E
$GPGSA,A,3,20,30,05,07,09,13,14,,,,,,2.40,1.31,2.02*0A
$GPGSV,3,1,09,05,46,302,38,07,52,048,45,08,02,066,20,09,22,097,44*7D
$GPGSV,3,2,09,13,30,291,33,14,37,157,43,20,62,260,38,28,19,173,39*7B
$GPGSV,3,3,09,30,79,034,34*4D
$GPGLL,4049.59638,N,01413.22908,E,043802.00,A,A*6A
$GPGST,043802.00,9.7,,,,1.4,1.4,4.2*7C
$GPRMC,043803.00,A,4049.59638,N,01413.22908,E,0.000,0.00,180322,3.76,E,A*3F
$GPVTG,0.00,T,356.23,M,0.000,N,0.000,K,A*22
$GPGGA,043803.00,4049.59638,N,01413.22908,E,1,07,1.31,15.6,M,41.2,M,,*6F
$GPGSA,A,3,20,30,05,07,09,13,14,,,,,,2.40,1.31,2.02*0A
$GPGSV,3,1,09,05,46,302,38,07,52,048,44,08,02,066,23,09,22,097,45*7E
$GPGSV,3,2,09,13,30,291,32,14,37,157,44,20,62,260,37,28,19,173,39*72
$GPGSV,3,3,09,30,79,034,35*4C
$GPGLL,4049.59638,N,01413.22908,E,043803.00,A,A*6B
$GPGST,043803.00,10,,,,1.4,1.4,4.1*5F
!AIVDM,1,1,,A,13cvVJ002b10or2G@?@1:A3l0<0r,0*70
$GPRMC,043804.00,A,4049.59638,N,01413.22908,E,0.000,0.00,180322,3.76,E,A*38
$GPVTG,0.00,T,356.23,M,0.000,N,0.000,K,A*22
$GPGGA,043804.00,4049.59638,N,01413.22908,E,1,07,1.31,15.6,M,41.2,M,,*68
$GPGSA,A,3,20,30,05,07,09,13,14,,,,,,2.40,1.31,2.02*0A
$GPGSV,3,1,09,05,46,302,38,07,52,048,45,08,02,066,24,09,22,097,45*78
$GPGSV,3,2,09,13,30,291,30,14,37,157,43,20,62,260,38,28,19,173,39*78
$GPGSV,3,3,09,30,79,034,36*4F
$GPGLL,4049.59638,N,01413.22908,E,043804.00,A,A*6C
$GPGST,043804.00,11,,,,1.4,1.4,4.1*59
!AIVDM,1,1,,A,19NSUJm00011GplGGUr0S0L00813,0*28
!AIVDM,1,1,,B,138ac<0000Q1D@@GGeEQkm`284RH,0*36
$GPRMC,043805.00,A,4049.59638,N,01413.22908,E,0.000,0.00,180322,3.76,E,A*39
$GPVTG,0.00,T,356.23,M,0.000,N,0.000,K,A*22
$GPGGA,043805.00,4049.59638,N,01413.22908,E,1,07,1.31,15.6,M,41.2,M,,*69
$GPGSA,A,3,20,30,05,07,09,13,14,,,,,,2.40,1.31,2.02*0A
$GPGSV,3,1,09,05,46,302,39,07,52,048,45,08,02,066,25,09,22,097,45*78
$GPGSV,3,2,09,13,30,291,31,14,37,157,43,20,62,260,37,28,19,173,39*76
$GPGSV,3,3,09,30,79,034,36*4F
$GPGLL,4049.59638,N,01413.22908,E,043805.00,A,A*6D
$GPGST,043805.00,11,,,,1.4,1.4,4.1*58
!AIVDM,1,1,,B,13crNF0P01Q1C=jGGgWaNgv20D1=,0*6F
!AIVDM,1,1,,A,13cvAe5001Q1Cd0GGf;1f5`00<1:,0*0E
!AIVDM,1,1,,B,15U0t25000Q1GiDGGcVl=kV4281O,0*14
!AIVDM,1,1,,B,13d4a88P0011BsPGGIp@0?v40<0c,0*4C
$GPRMC,043806.00,A,4049.59638,N,01413.22908,E,0.000,0.00,180322,3.76,E,A*3A
$GPVTG,0.00,T,356.23,M,0.000,N,0.000,K,A*22
$GPGGA,043806.00,4049.59638,N,01413.22908,E,1,07,1.31,15.6,M,41.2,M,,*6A
$GPGSA,A,3,20,30,05,07,09,13,14,,,,,,2.40,1.31,2.02*0A
$GPGSV,3,1,09,05,46,302,39,07,52,048,45,08,02,066,27,09,22,097,44*7B
$GPGSV,3,2,09,13,30,291,31,14,37,157,43,20,62,260,37,28,19,173,40*78
$GPGSV,3,3,09,30,79,034,37*4E
$GPGLL,4049.59638,N,01413.22908,E,043806.00,A,A*6E
$GPGST,043806.00,10,,,,1.4,1.3,4.1*5D
!AIVDM,1,1,,A,13cvGu0001Q1C6PGGg9;6;840L0V,0*39
!AIVDM,1,1,,B,D02FhOP2LN?b<`N00m8v000,2*3C
!AIVDM,1,1,,A,13cbV17P0pQ1ODpGEoTcb?v620SB,0*2A
!AIVDM,1,1,,B,13c`;@0P01Q1C9TGGfFI0Ov4082C,0*5D
$GPRMC,043807.00,A,4049.59638,N,01413.22908,E,0.000,0.00,180322,3.76,E,A*3B
$GPVTG,0.00,T,356.23,M,0.000,N,0.000,K,A*22
$GPGGA,043807.00,4049.59638,N,01413.22908,E,1,07,1.31,15.6,M,41.2,M,,*6B
$GPGSA,A,3,20,30,05,07,09,13,14,,,,,,2.40,1.31,2.02*0A
$GPGSV,3,1,09,05,46,302,39,07,52,048,45,08,02,066,27,09,22,097,43*7C
$GPGSV,3,2,09,13,30,291,30,14,37,157,42,20,62,260,38,28,19,173,40*77
$GPGSV,3,3,09,30,79,034,37*4E
$GPGLL,4049.59638,N,01413.22908,E,043807.00,A,A*6F
$GPGST,043807.00,11,,,,1.4,1.3,4.1*5D
!AIVDM,1,1,,B,13cf4V0P00Q2A@`GB@a8V?v40h2P,0*2F
!AIVDM,1,1,,B,13cmw`000011B;NGGeIR9l:600RH,0*34
$GPRMC,043808.00,A,4049.59638,N,01413.22908,E,0.000,0.00,180322,3.76,E,A*34
$GPVTG,0.00,T,356.23,M,0.000,N,0.000,K,A*22
$GPGGA,043808.00,4049.59638,N,01413.22908,E,1,07,1.31,15.6,M,41.2,M,,*64
$GPGSA,A,3,20,30,05,07,09,13,14,,,,,,2.40,1.31,2.02*0A
$GPGSV,3,1,09,05,46,302,39,07,52,048,45,08,02,066,27,09,22,097,45*7A
!AIVDM,1,1,,B,ENjOss0pqg@6a9Qh1PSV4Pa4P000Dlb0;>2OP00000N010,4*66
$GPGSV,3,2,09,13,30,291,31,14,37,157,43,20,62,260,38,28,19,173,40*77
$GPGSV,3,3,09,30,79,034,36*4F
$GPGLL,4049.59638,N,01413.22908,E,043808.00,A,A*60
$GPGST,043808.00,10,,,,1.4,1.3,4.1*53
!AIVDM,1,1,,B,13ku:J000411J1pGGR9A36R80<1=,0*03
!AIVDM,1,1,,B,13cvVJ002b10ovjG@@2i:Q260@3J,0*76
$GPRMC,043809.00,A,4049.59638,N,01413.22908,E,0.000,0.00,180322,3.76,E,A*35
$GPVTG,0.00,T,356.23,M,0.000,N,0.000,K,A*22
!AIVDM,1,1,,B,13cmfm0P0011C;PGGeS07gv:0H3T,0*6F
$GPGGA,043809.00,4049.59638,N,01413.22908,E,1,07,1.31,15.6,M,41.2,M,,*65
$GPGSA,A,3,20,30,05,07,09,13,14,,,,,,2.40,1.31,2.02*0A
$GPGSV,3,1,09,05,46,302,38,07,52,048,45,08,02,066,27,09,22,097,45*7B
$GPGSV,3,2,09,13,30,291,32,14,37,157,43,20,62,260,38,28,19,173,40*74
$GPGSV,3,3,09,30,79,034,36*4F
$GPGLL,4049.59638,N,01413.22908,E,043809.00,A,A*61
$GPGST,043809.00,9.4,,,,1.4,1.3,4.1*70
!AIVDM,1,1,,B,13clsA001kQ0n5HGADaQB16<083t,0*76
$GPRMC,043810.00,A,4049.59638,N,01413.22908,E,0.000,0.00,180322,3.76,E,A*3D
$GPVTG,0.00,T,356.23,M,0.000,N,0.000,K,A*22
$GPGGA,043810.00,4049.59638,N,01413.22908,E,1,07,1.31,15.6,M,41.2,M,,*6D
$GPGSA,A,3,20,30,05,07,09,13,14,,,,,,2.40,1.31,2.02*0A
$GPGSV,3,1,09,05,46,302,39,07,52,048,45,08,02,066,27,09,22,097,44*7B
!AIVDM,1,1,,B,ENjOsq0s?@6a9Qh10a4P00000000VVf@;i7s000000N010,4*2D
$GPGSV,3,2,09,13,30,291,32,14,37,157,43,20,62,260,38,28,19,173,39*7A
$GPGSV,3,3,09,30,79,034,37*4E
$GPGLL,4049.59638,N,01413.22908,E,043810.00,A,A*69
$GPGST,043810.00,9.1,,,,1.4,1.3,4.0*7C
!AIVDM,1,1,,A,13cf8P0P0111D@VGGcR=c?v@0<0u,0*55
$GPRMC,043811.00,A,4049.59638,N,01413.22908,E,0.000,0.00,180322,3.76,E,A*3C
$GPVTG,0.00,T,356.23,M,0.000,N,0.000,K,A*22
!AIVDM,1,1,,B,13cc0q3P00Q1C3RGGfbkJgv<00S>,0*22
$GPGGA,043811.00,4049.59638,N,01413.22908,E,1,07,1.31,15.6,M,41.2,M,,*6C
$GPGSA,A,3,20,30,05,07,09,13,14,,,,,,2.40,1.31,2.02*0A
$GPGSV,3,1,09,05,46,302,38,07,52,048,45,08,02,066,27,09,22,097,45*7B
$GPGSV,3,2,09,13,30,291,32,14,37,157,43,20,62,260,38,28,19,173,39*7A
$GPGSV,3,3,09,30,79,034,36*4F
$GPGLL,4049.59638,N,01413.22908,E,043811.00,A,A*68
$GPGST,043811.00,9.6,,,,1.4,1.3,4.0*7A
!AIVDM,1,1,,A,13cVTQ0P00Q1B74GGdT`lOv@085A,0*6C
$GPRMC,043812.00,A,4049.59638,N,01413.22908,E,0.000,0.00,180322,3.76,E,A*3F
$GPVTG,0.00,T,356.23,M,0.000,N,0.000,K,A*22
$GPGGA,043812.00,4049.59638,N,01413.22908,E,1,07,1.31,15.6,M,41.2,M,,*6F
$GPGSA,A,3,20,30,05,07,09,13,14,,,,,,2.40,1.31,2.02*0A
$GPGSV,3,1,09,05,46,302,39,07,52,048,45,08,02,066,26,09,22,097,45*7B
$GPGSV,3,2,09,13,30,291,33,14,37,157,42,20,62,260,37,28,19,173,39*75
$GPGSV,3,3,09,30,78,035,36*4F
$GPGLL,4049.59638,N,01413.22908,E,043812.00,A,A*6B
$GPGST,043812.00,9.0,,,,1.3,1.3,4.0*78
!AIVDM,1,1,,A,13cbSI`P19Q1B9TGDpsHq?vB2<0A,0*05
$GPRMC,043813.00,A,4049.59638,N,01413.22908,E,0.000,0.00,180322,3.76,E,A*3E
$GPVTG,0.00,T,356.23,M,0.000,N,0.000,K,A*22
$GPGGA,043813.00,4049.59638,N,01413.22908,E,1,07,1.31,15.6,M,41.2,M,,*6E
$GPGSA,A,3,20,30,05,07,09,13,14,,,,,,2.40,1.31,2.02*0A
$GPGSV,3,1,09,05,46,302,39,07,52,048,45,08,02,066,25,09,22,097,44*79
$GPGSV,3,2,09,13,30,291,33,14,37,157,43,20,62,260,37,28,19,173,39*74
$GPGSV,3,3,09,30,78,035,36*4F
$GPGLL,4049.59638,N,01413.22908,E,043813.00,A,A*6A
$GPGST,043813.00,8.9,,,,1.3,1.3,3.9*7F
!AIVDM,1,1,,A,ENjOsphrg@6a9Qh92SSTWh1PV0Q0Slm@:r;8000000N014R@@0,4*23
$GPRMC,043814.00,A,4049.59638,N,01413.22908,E,0.000,0.00,180322,3.76,E,A*39
$GPVTG,0.00,T,356.23,M,0.000,N,0.000,K,A*22
$GPGGA,043814.00,4049.59638,N,01413.22908,E,1,07,1.31,15.6,M,41.2,M,,*69
$GPGSA,A,3,20,30,05,07,09,13,14,,,,,,2.40,1.31,2.02*0A
$GPGSV,3,1,09,05,46,302,39,07,52,048,45,08,02,066,26,09,22,097,44*7A
$GPGSV,3,2,09,13,30,291,31,14,37,157,43,20,62,260,37,28,19,173,39*76
$GPGSV,3,3,09,30,78,035,36*4F
$GPGLL,4049.59638,N,01413.22908,E,043814.00,A,A*6D
$GPGST,043814.00,10,,,,1.3,1.3,3.9*56
!AIVDM,1,1,,B,19NSUJm00011GplGGUr0S0LD0D0e,0*74
!AIVDM,1,1,,B,402FhOQvHq4V;11BePGGgg70086b,0*19
!AIVDM,1,1,,A,15U0t25000Q1GiDGGcVl=kVF2D1?,0*69
$GPRMC,043815.00,A,4049.59638,N,01413.22908,E,0.000,0.00,180322,3.76,E,A*38
$GPVTG,0.00,T,356.23,M,0.000,N,0.000,K,A*22
$GPGGA,043815.00,4049.59638,N,01413.22908,E,1,07,1.31,15.6,M,41.2,M,,*68
$GPGSA,A,3,20,30,05,07,09,13,14,,,,,,2.40,1.31,2.02*0A
!AIVDM,2,1,1,A,53cbV1400000Tdu?800vN118E<T@Dq@D0000000N10<15t0Ht053lTQH11C8,0*3D
!AIVDM,2,2,1,A,1lQ@kh00000,2*6A
$GPGSV,3,1,09,05,46,302,39,07,52,048,45,08,02,066,26,09,22,097,44*7A
$GPGSV,3,2,09,13,30,291,30,14,37,157,44,20,62,260,37,28,19,173,39*70
$GPGSV,3,3,09,30,78,035,35*4C
$GPGLL,4049.59638,N,01413.22908,E,043815.00,A,A*6C
$GPGST,043815.00,12,,,,1.3,1.2,3.9*54
!AIVDM,1,1,,A,13crNF0P01Q1C=fGGgWaQOvF00RQ,0*58
!AIVDM,1,1,,A,138ac<0000Q1D@@GGeEP6U`F8<0e,0*62
!AIVDM,1,1,,B,33cSeD5000Q1E?BGGSuqmVol0000,0*06
!AIVDM,1,1,,A,13d4a88P0011BsPGGIp@0?vH0H7P,0*73
!AIVDM,1,1,,B,13cbV17P0oQ1O?nGEomch?vH20S<,0*60
!AIVDM,1,1,,B,13cvAe5001Q1CcjGGf5G7?vH04RH,0*04
$GPRMC,043816.00,A,4049.59638,N,01413.22908,E,0.000,0.00,180322,3.76,E,A*3B
$GPVTG,0.00,T,356.23,M,0.000,N,0.000,K,A*22
$GPGGA,043816.00,4049.59638,N,01413.22908,E,1,07,1.31,15.6,M,41.2,M,,*6B
$GPGSA,A,3,20,30,05,07,09,13,14,,,,,,2.40,1.31,2.02*0A
$GPGSV,3,1,09,05,46,302,39,07,52,049,44,08,02,066,25,09,22,097,44*79
$GPGSV,3,2,09,13,30,291,31,14,37,157,43,20,62,260,37,28,19,173,39*76
$GPGSV,3,3,09,30,78,035,35*4C
$GPGLL,4049.59638,N,01413.22908,E,043816.00,A,A*6F
$GPGST,043816.00,11,,,,1.3,1.2,3.9*54
!AIVDM,1,1,,B,13cvGu0000Q1C6FGGg9Qcc8H04RH,0*32
!AIVDM,1,1,,A,13cmw`000011B;NGGeIR9l:H0<0t,0*1B
$GPRMC,043817.00,A,4049.59638,N,01413.22908,E,0.000,0.00,180322,3.76,E,A*3A
$GPVTG,0.00,T,356.23,M,0.000,N,0.000,K,A*22
$GPGGA,043817.00,4049.59638,N,01413.22908,E,1,07,1.31,15.6,M,41.2,M,,*6A
$GPGSA,A,3,20,30,05,07,09,13,14,,,,,,2.40,1.31,2.02*0A
$GPGSV,3,1,09,05,46,302,40,07,52,049,44,08,02,066,25,09,22,097,44*77
$GPGSV,3,2,09,13,30,291,32,14,37,157,42,20,62,260,37,28,19,173,39*74
$GPGSV,3,3,09,30,78,035,35*4C
$GPGLL,4049.59638,N,01413.22908,E,043817.00,A,A*6E
!AIVDM,1,1,,A,13c`;@0P01Q1C9VGGfF`vOvH0<0c,0*69
$GPGST,043817.00,10,,,,1.3,1.2,3.9*54
!AIVDM,1,1,,B,13cwdf0P0011Eh0GGh4op?vL00Ro,0*37
$GPRMC,043818.00,A,4049.59638,N,01413.22908,E,0.000,0.00,180322,3.76,E,A*35
$GPVTG,0.00,T,356.23,M,0.000,N,0.000,K,A*22
!AIVDM,1,1,,A,13cf4V0P00Q2A@`GB@a8=?vH0d0c,0*06
$GPGGA,043818.00,4049.59638,N,01413.22908,E,1,07,1.31,15.6,M,41.2,M,,*65
$GPGSA,A,3,20,30,05,07,09,13,14,,,,,,2.40,1.31,2.02*0A
$GPGSV,3,1,09,05,46,302,39,07,52,049,44,08,02,066,25,09,22,097,44*79
$GPGSV,3,2,09,13,30,291,34,14,37,157,43,20,62,260,37,28,19,173,39*73
$GPGSV,3,3,09,30,78,035,36*4F
$GPGLL,4049.59638,N,01413.22908,E,043818.00,A,A*61
$GPGST,043818.00,8.4,,,,1.3,1.2,3.9*78
!AIVDM,1,1,,A,13ku:J000411J24GGR<AA6PL0894,0*43
$GPRMC,043819.00,A,4049.59638,N,01413.22908,E,0.000,0.00,180322,3.76,E,A*34
$GPVTG,0.00,T,356.23,M,0.000,N,0.000,K,A*22
$GPGGA,043819.00,4049.59638,N,01413.22908,E,1,07,1.31,15.6,M,41.2,M,,*64
$GPGSA,A,3,20,30,05,07,09,13,14,,,,,,2.40,1.31,2.02*0A
$GPGSV,3,1,09,05,46,302,37,07,52,049,44,08,02,066,23,09,22,097,44*71
$GPGSV,3,2,09,13,30,291,34,14,37,157,43,20,62,260,37,28,19,173,39*73
$GPGSV,3,3,09,30,78,035,36*4F
$GPGLL,4049.59638,N,01413.22908,E,043819.00,A,A*60
$GPGST,043819.00,8.7,,,,1.3,1.2,3.9*7A
!AIVDM,1,1,,A,35Bq`f5000Q1HpBGGSH7p@NL0Dg:,0*3D
$GPRMC,043820.00,A,4049.59638,N,01413.22908,E,0.000,0.00,180322,3.76,E,A*3E
$GPVTG,0.00,T,356.23,M,0.000,N,0.000,K,A*22
$GPGGA,043820.00,4049.59638,N,01413.22908,E,1,07,1.31,15.6,M,41.2,M,,*6E
$GPGSA,A,3,20,30,05,07,09,13,14,,,,,,2.40,1.31,2.02*0A
$GPGSV,3,1,09,05,46,302,37,07,52,049,44,08,02,066,22,09,22,097,43*77
$GPGSV,3,2,09,13,30,291,35,14,37,157,43,20,62,260,38,28,19,173,39*7D
$GPGSV,3,3,09,30,78,035,36*4F
$GPGLL,4049.59638,N,01413.22908,E,043820.00,A,A*6A
$GPGST,043820.00,7.9,,,,1.3,1.2,3.9*71
!AIVDM,1,1,,B,13cVTQ0P00Q1B74GGdT`lOvP0L1<,0*72
$GPRMC,043821.00,A,4049.59638,N,01413.22908,E,0.000,0.00,180322,3.76,E,A*3F
$GPVTG,0.00,T,356.23,M,0.000,N,0.000,K,A*22
$GPGGA,043821.00,4049.59638,N,01413.22908,E,1,07,1.31,15.6,M,41.2,M,,*6F
$GPGSA,A,3,20,30,05,07,09,13,14,,,,,,2.40,1.31,2.02*0A
$GPGSV,3,1,09,05,46,302,37,07,52,049,45,08,02,066,22,09,22,097,43*76
$GPGSV,3,2,09,13,30,291,35,14,37,157,43,20,62,260,38,28,19,173,39*7D
$GPGSV,3,3,09,30,78,035,36*4F
$GPGLL,4049.59638,N,01413.22908,E,043821.00,A,A*6B
$GPGST,043821.00,8.0,,,,1.3,1.2,3.9*76
!AIVDM,1,1,,B,13cvVJ002b10p;DG@B6Q:i2P08:n,0*3F
!AIVDM,1,1,,B,13cf8P0P0111D@RGGcPusOvV04RH,0*39
$GPRMC,043822.00,A,4049.59638,N,01413.22908,E,0.000,0.00,180322,3.76,E,A*3C
$GPVTG,0.00,T,356.23,M,0.000,N,0.000,K,A*22
$GPGGA,043822.00,4049.59638,N,01413.22908,E,1,07,1.31,15.6,M,41.2,M,,*6C
$GPGSA,A,3,20,30,05,07,09,13,14,,,,,,2.40,1.31,2.02*0A
$GPGSV,3,1,09,05,46,302,37,07,52,049,44,08,02,066,22,09,22,097,44*70
$GPGSV,3,2,09,13,30,291,35,14,37,157,42,20,62,260,37,28,19,173,39*73
$GPGSV,3,3,09,30,78,035,34*4D
$GPGLL,4049.59638,N,01413.22908,E,043822.00,A,A*68
$GPGST,043822.00,9.1,,,,1.3,1.2,3.9*75
!AIVDM,2,1,2,A,55U0t242;vLK<HP?P00HN0hEHDq@000000000016:p<>34mR0:RE83PD0000,0*60
!AIVDM,2,2,2,A,00000000000,2*26
!AIVDM,2,1,3,A,55Bq`f8280P<Q1=2220m<>1<4q@QT6222222221?Gpg<D4pANFCPD31Dh000,0*24
!AIVDM,2,2,3,A,00000000000,2*27
$GPRMC,043823.00,A,4049.59638,N,01413.22908,E,0.000,0.00,180322,3.76,E,A*3D
$GPVTG,0.00,T,356.23,M,0.000,N,0.000,K,A*22
$GPGGA,043823.00,4049.59638,N,01413.22908,E,1,07,1.31,15.6,M,41.2,M,,*6D
$GPGSA,A,3,20,30,05,07,09,13,14,,,,,,2.40,1.31,2.02*0A
!AIVDM,1,1,,A,19NSUJm00011GplGGUr0S0LV08;j,0*1D
$GPGSV,3,1,09,05,46,302,37,07,52,049,44,08,02,066,22,09,22,097,44*70
$GPGSV,3,2,09,13,30,291,35,14,37,157,43,20,62,260,37,28,19,173,39*72
$GPGSV,3,3,09,30,78,035,34*4D
$GPGLL,4049.59638,N,01413.22908,E,043823.00,A,A*69
$GPGST,043823.00,9.1,,,,1.3,1.2,3.9*74
!AIVDM,1,1,,B,138ac<0000Q1D@@GGeEdHE``84RH,0*5A
$GPRMC,043824.00,A,4049.59638,N,01413.22908,E,0.000,0.00,180322,3.76,E,A*3A
$GPVTG,0.00,T,356.23,M,0.000,N,0.000,K,A*22
$GPGGA,043824.00,4049.59638,N,01413.22908,E,1,07,1.31,15.6,M,41.2,M,,*6A
$GPGSA,A,3,20,30,05,07,09,13,14,,,,,,2.41,1.31,2.02*0B
$GPGSV,3,1,09,05,46,302,39,07,52,049,44,08,02,066,21,09,22,097,44*7D
$GPGSV,3,2,09,13,30,291,35,14,37,157,43,20,62,260,38,28,19,173,39*7D
$GPGSV,3,3,09,30,78,035,33*4A
$GPGLL,4049.59638,N,01413.22908,E,043824.00,A,A*6E
$GPGST,043824.00,9.1,,,,1.3,1.2,3.8*72
!AIVDM,1,1,,B,13crNF0P01Q1C=bGGgW9TOvb0@<s,0*1A
$GPRMC,043825.00,A,4049.59638,N,01413.22908,E,0.000,0.00,180322,3.76,E,A*3B
$GPVTG,0.00,T,356.23,M,0.000,N,0.000,K,A*22
$GPGGA,043825.00,4049.59638,N,01413.22908,E,1,07,1.31,15.6,M,41.2,M,,*6B
$GPGSA,A,3,20,30,05,07,09,13,14,,,,,,2.41,1.31,2.02*0B
$GPGSV,3,1,09,05,46,302,39,07,52,049,44,08,02,066,20,09,22,097,45*7D
$GPGSV,3,2,09,13,30,291,34,14,37,157,43,20,62,260,38,28,19,173,39*7C
$GPGSV,3,3,09,30,78,035,34*4D
$GPGLL,4049.59638,N,01413.22908,E,043825.00,A,A*6F
$GPGST,043825.00,9.0,,,,1.3,1.2,3.8*72
!AIVDM,1,1,,B,15U0t25000Q1GdTGGch0fkVT20RK,0*3F
$GPRMC,043826.00,A,4049.59638,N,01413.22908,E,0.000,0.00,180322,3.76,E,A*38
$GPVTG,0.00,T,356.23,M,0.000,N,0.000,K,A*22
$GPGGA,043826.00,4049.59638,N,01413.22908,E,1,07,1.31,15.6,M,41.2,M,,*68
$GPGSA,A,3,20,30,05,07,09,13,14,,,,,,2.41,1.31,2.02*0B
$GPGSV,3,1,09,05,46,302,39,07,52,049,45,08,02,066,18,09,22,097,46*74
$GPGSV,3,2,09,13,30,291,33,14,37,157,43,20,62,260,39,28,19,173,39*7A
$GPGSV,3,3,09,30,78,035,35*4C
$GPGLL,4049.59638,N,01413.22908,E,043826.00,A,A*6C
$GPGST,043826.00,9.1,,,,1.3,1.2,3.8*70
!AIVDM,1,1,,B,13d4a88P0011BsPGGIp@0?vd08=k,0*1D
!AIVDM,1,1,,A,13cvAe5001Q1Cd0GGf;665`d04RH,0*14
$GPRMC,043827.00,A,4049.59638,N,01413.22908,E,0.000,0.00,180322,3.76,E,A*39
$GPVTG,0.00,T,356.23,M,0.000,N,0.000,K,A*22
$GPGGA,043827.00,4049.59638,N,01413.22908,E,1,07,1.31,15.6,M,41.2,M,,*69
$GPGSA,A,3,20,30,05,07,09,13,14,,,,,,2.41,1.31,2.02*0B
$GPGSV,3,1,09,05,46,302,39,07,52,049,44,08,02,066,18,09,22,097,45*76
!AIVDM,1,1,,A,13cvVJ002c10p@:G@BqA:i2b08>9,0*0E
$GPGSV,3,2,09,13,30,291,33,14,37,157,43,20,62,260,39,28,19,173,39*7A
$GPGSV,3,3,09,30,78,035,34*4D
$GPGLL,4049.59638,N,01413.22908,E,043827.00,A,A*6D
$GPGST,043827.00,9.4,,,,1.3,1.2,3.8*74
!AIVDM,1,1,,A,13cvGu0001Q1C6PGGgF5Ac8f0H>J,0*23
!AIVDM,1,1,,A,13cwdf0P0011Ef6GGh1oagvh0@>P,0*77
!AIVDM,1,1,,B,13cmw`000011B;NGGeIR9l:f0@>U,0*65
!AIVDM,1,1,,B,13cf4V0P00Q2A@`GB@a80gvd0`>`,0*75
!AIVDM,1,1,,B,13c`;@0P01Q1C9`GGfFq1wvf0@>c,0*6E
$GPRMC,043828.00,A,4049.59638,N,01413.22908,E,0.000,0.00,180322,3.76,E,A*36
$GPVTG,0.00,T,356.23,M,0.000,N,0.000,K,A*22
$GPGGA,043828.00,4049.59638,N,01413.22908,E,1,07,1.31,15.6,M,41.2,M,,*66
$GPGSA,A,3,20,30,05,07,09,13,14,,,,,,2.41,1.31,2.02*0B
$GPGSV,3,1,09,05,46,302,39,07,52,049,45,08,02,066,21,09,22,097,45*7D
$GPGSV,3,2,09,13,30,291,33,14,37,157,43,20,62,260,38,28,19,173,40*75
$GPGSV,3,3,09,30,78,035,34*4D
$GPGLL,4049.59638,N,01413.22908,E,043828.00,A,A*62
$GPGST,043828.00,9.6,,,,1.3,1.2,3.8*79
$GPRMC,043829.00,A,4049.59638,N,01413.22908,E,0.000,0.00,180322,3.76,E,A*37
$GPVTG,0.00,T,356.23,M,0.000,N,0.000,K,A*22
$GPGGA,043829.00,4049.59638,N,01413.22908,E,1,07,1.31,15.6,M,41.2,M,,*67
$GPGSA,A,3,20,30,05,07,09,13,14,,,,,,2.41,1.31,2.02*0B
$GPGSV,3,1,09,05,46,302,39,07,52,049,45,08,02,066,21,09,22,097,44*7C
$GPGSV,3,2,09,13,30,291,33,14,37,157,44,20,62,260,38,28,19,173,40*72
$GPGSV,3,3,09,30,78,035,33*4A
$GPGLL,4049.59638,N,01413.22908,E,043829.00,A,A*63
$GPGST,043829.00,10,,,,1.3,1.2,3.8*58
!AIVDM,1,1,,B,13ku:J000311J2@GGR>hJ6Pj00S`,0*03
!AIVDM,1,1,,B,ENjOsohpg@6a9Qh3RW7PP0000000DK64<e8`000000N010,4*39
!AIVDM,1,1,,B,ENjOsqht?@6a9Qh90c2W70P00000L6vH<ffsP00000N010,4*45
$GPRMC,043830.00,A,4049.59638,N,01413.22908,E,0.000,0.00,180322,3.76,E,A*3F
$GPVTG,0.00,T,356.23,M,0.000,N,0.000,K,A*22
$GPGGA,043830.00,4049.59638,N,01413.22908,E,1,07,1.31,15.6,M,41.2,M,,*6F
$GPGSA,A,3,20,30,05,07,09,13,14,,,,,,2.41,1.31,2.02*0B
$GPGSV,3,1,09,05,46,302,40,07,52,049,45,08,02,066,22,09,22,097,44*71
$GPGSV,3,2,09,13,30,291,32,14,37,157,43,20,62,260,38,28,19,173,39*7A
$GPGSV,3,3,09,30,78,035,33*4A
$GPGLL,4049.59638,N,01413.22908,E,043830.00,A,A*6B
$GPGST,043830.00,11,,,,1.3,1.2,3.8*51
!AIVDM,1,1,,B,13cmfm0P0011C;PGGeS07gvl00RE,0*31
!AIVDM,1,1,,A,13cVTQ0P00Q1B74GGdT`lOvn00Sg,0*0A
$GPRMC,043831.00,A,4049.59638,N,01413.22908,E,0.000,0.00,180322,3.76,E,A*3E
$GPVTG,0.00,T,356.23,M,0.000,N,0.000,K,A*22
$GPGGA,043831.00,4049.59638,N,01413.22908,E,1,07,1.31,15.6,M,41.2,M,,*6E
$GPGSA,A,3,20,30,05,07,09,13,14,,,,,,2.41,1.31,2.02*0B
$GPGSV,3,1,09,05,46,302,40,07,52,049,45,08,02,066,23,09,22,097,44*70
$GPGSV,3,2,09,13,30,291,34,14,37,157,43,20,62,260,38,28,19,173,39*7C
$GPGSV,3,3,09,30,78,035,37*4E
$GPGLL,4049.59638,N,01413.22908,E,043831.00,A,A*6A
$GPGST,043831.00,7.7,,,,1.3,1.2,3.8*7E
!AIVDM,1,1,,B,13cc0q3P00Q1C2hGGfb3Jgvn04RH,0*60
!AIVDM,1,1,,A,13cf8P0P0111D@RGGcP0?gvr08@f,0*0F
!AIVDM,1,1,,B,13clsA001jQ0nE2GAFwiCA6p08@i,0*02
!AIVDM,2,1,4,A,53cnjJ41vcKpT91F220LUDhTv1HE8pF22222221J2Ik8H4tD0D3PD3k2H888,0*7A
!AIVDM,2,2,4,A,88888888880,2*20
$GPRMC,043832.00,A,4049.59638,N,01413.22908,E,0.000,0.00,180322,3.76,E,A*3D
$GPVTG,0.00,T,356.23,M,0.000,N,0.000,K,A*22
$GPGGA,043832.00,4049.59638,N,01413.22908,E,1,07,1.31,15.6,M,41.2,M,,*6D
$GPGSA,A,3,20,30,05,07,09,13,14,,,,,,2.41,1.31,2.02*0B
$GPGSV,3,1,09,05,46,302,40,07,52,049,45,08,02,066,24,09,22,097,44*77
$GPGSV,3,2,09,13,30,291,36,14,37,157,43,20,62,260,38,28,19,173,39*7E
$GPGSV,3,3,09,30,78,035,37*4E
$GPGLL,4049.59638,N,01413.22908,E,043832.00,A,A*69
$GPGST,043832.00,6.6,,,,1.3,1.1,3.7*71
!AIVDM,1,1,,B,13cvVJ002c10pErG@CnQ;12n0@AU,0*70
$GPRMC,043833.00,A,4049.59638,N,01413.22908,E,0.000,0.00,180322,3.76,E,A*3C
$GPVTG,0.00,T,356.23,M,0.000,N,0.000,K,A*22
$GPGGA,043833.00,4049.59638,N,01413.22908,E,1,07,1.31,15.6,M,41.2,M,,*6C
$GPGSA,A,3,20,30,05,07,09,13,14,,,,,,2.41,1.31,2.02*0B
$GPGSV,3,1,09,05,46,302,40,07,52,049,44,08,02,066,23,09,22,097,44*71
$GPGSV,3,2,09,13,30,291,36,14,37,157,43,20,62,260,38,28,19,173,39*7E
$GPGSV,3,3,09,30,78,035,37*4E
$GPGLL,4049.59638,N,01413.22908,E,043833.00,A,A*68
$GPGST,043833.00,6.8,,,,1.3,1.1,3.7*7E
!AIVDM,2,1,5,A,55TLcf02AlHdQ3OO3B058l4@622222222222221S40F556;808CPD3k2H888,0*6C
!AIVDM,2,2,5,A,88888888880,2*21
!AIVDM,1,1,,A,138ac<0002Q1D@@GGeEejU`t80Sr,0*43
$GPRMC,043834.00,A,4049.59638,N,01413.22908,E,0.000,0.00,180322,3.76,E,A*3B
$GPVTG,0.00,T,356.23,M,0.000,N,0.000,K,A*22
$GPGGA,043834.00,4049.59638,N,01413.22908,E,1,07,1.31,15.6,M,41.2,M,,*6B
$GPGSA,A,3,20,30,05,07,09,13,14,,,,,,2.41,1.31,2.02*0B
$GPGSV,3,1,09,05,46,302,39,07,52,049,44,08,02,066,24,09,22,097,44*78
$GPGSV,3,2,09,13,30,291,35,14,37,157,44,20,62,260,38,28,19,173,38*7B
$GPGSV,3,3,09,30,78,035,37*4E
$GPGLL,4049.59638,N,01413.22908,E,043834.00,A,A*6F
$GPGST,043834.00,7.4,,,,1.3,1.1,3.7*74
!AIVDM,1,1,,A,13crNF0P01Q1C=`GGgW9SOvt0D1=,0*4D
!AIVDM,1,1,,B,402FhOQvHq4VO11BePGGgg700@BH,0*4B
!AIVDM,1,1,,B,19NSUJm00011GpjGGUr0S0Lt08BK,0*62
$GPRMC,043835.00,A,4049.59638,N,01413.22908,E,0.000,0.00,180322,3.76,E,A*3A
$GPVTG,0.00,T,356.23,M,0.000,N,0.000,K,A*22
$GPGGA,043835.00,4049.59638,N,01413.22908,E,1,07,1.31,15.6,M,41.2,M,,*6A
$GPGSA,A,3,20,30,05,07,09,13,14,,,,,,2.41,1.31,2.02*0B
$GPGSV,3,1,09,05,46,302,39,07,52,049,44,08,02,066,26,09,22,097,44*7A
$GPGSV,3,2,09,13,30,291,35,14,37,157,44,20,62,260,37,28,19,173,38*74
$GPGSV,3,3,09,30,78,035,37*4E
$GPGLL,4049.59638,N,01413.22908,E,043835.00,A,A*6E
$GPGST,043835.00,7.6,,,,1.3,1.1,3.7*77
!AIVDM,1,1,,A,15U0t25000Q1GdTGGch0fkVT28Bs,0*1C
!AIVDM,1,1,,B,13cvAe5001Q1Cd0GGf;615`t08C6,0*63
!AIVDM,1,1,,B,13cbV17P0oQ1O4lGEpNKfgw024RH,0*23
$GPRMC,043836.00,A,4049.59638,N,01413.22908,E,0.000,0.00,180322,3.76,E,A*39
$GPVTG,0.00,T,356.23,M,0.000,N,0.000,K,A*22
$GPGGA,043836.00,4049.59638,N,01413.22908,E,1,07,1.31,15.6,M,41.2,M,,*69
$GPGSA,A,3,20,30,05,07,09,13,14,,,,,,2.41,1.31,2.02*0B
$GPGSV,3,1,09,05,46,302,38,07,52,049,44,08,02,066,25,09,22,097,44*78
$GPGSV,3,2,09,13,30,291,35,14,37,157,43,20,62,260,37,28,19,173,38*73
$GPGSV,3,3,09,30,78,035,37*4E
$GPGLL,4049.59638,N,01413.22908,E,043836.00,A,A*6D
$GPGST,043836.00,7.7,,,,1.3,1.1,3.7*75
!AIVDM,1,1,,A,13cmw`000011B;NGGeIR9l;008CM,0*2C
!AIVDM,1,1,,A,13d4a88P0011BsPGGIp@0?w008Cb,0*3C
!AIVDM,1,1,,B,13cvGu0000Q1C64GGg;1f;9008Cd,0*37
!AIVDM,1,1,,A,13cf4V0P00Q2A@`GB@a85gw00l0d,0*20
!AIVDM,1,1,,B,39NSTc5000Q1KLbGGP0Dqktv0Deb,0*4A
$GPRMC,043837.00,A,4049.59638,N,01413.22908,E,0.000,0.00,180322,3.76,E,A*38
$GPVTG,0.00,T,356.23,M,0.000,N,0.000,K,A*22
$GPGGA,043837.00,4049.59638,N,01413.22908,E,1,07,1.31,15.6,M,41.2,M,,*68
$GPGSA,A,3,20,30,05,07,09,13,14,,,,,,2.41,1.31,2.02*0B
$GPGSV,3,1,09,05,46,302,38,07,52,049,44,08,02,066,31,09,22,097,44*7D
$GPGSV,3,2,09,13,30,291,31,14,37,157,43,20,62,260,36,28,19,173,37*79
$GPGSV,3,3,09,30,78,035,37*4E
$GPGLL,4049.59638,N,01413.22908,E,043837.00,A,A*6C
$GPGST,043837.00,10,,,,1.3,1.1,3.7*5B
!AIVDM,1,1,,A,13c`;@0P01Q1C9bGGfG8rww208DB,0*12
$GPRMC,043838.00,A,4049.59638,N,01413.22908,E,0.000,0.00,180322,3.76,E,A*37
$GPVTG,0.00,T,356.23,M,0.000,N,0.000,K,A*22
$GPGGA,043838.00,4049.59638,N,01413.22908,E,1,07,1.31,15.6,M,41.2,M,,*67
$GPGSA,A,3,20,30,05,07,09,13,14,,,,,,2.41,1.31,2.02*0B
$GPGSV,3,1,09,05,46,302,39,07,52,049,45,08,02,066,31,09,22,097,44*7D
$GPGSV,3,2,09,13,30,291,31,14,37,157,43,20,62,260,37,28,19,173,38*77
$GPGSV,3,3,09,30,78,035,37*4E
$GPGLL,4049.59638,N,01413.22908,E,043838.00,A,A*63
$GPGST,043838.00,10,,,,1.3,1.1,3.7*54
!AIVDM,1,1,,A,13cvVJ002c10pKjG@Dl1;Q320<0v,0*13
$GPRMC,043839.00,A,4049.59638,N,01413.22908,E,0.000,0.00,180322,3.76,E,A*36
$GPVTG,0.00,T,356.23,M,0.000,N,0.000,K,A*22
$GPGGA,043839.00,4049.59638,N,01413.22908,E,1,07,1.31,15.6,M,41.2,M,,*66
$GPGSA,A,3,20,30,05,07,09,13,14,,,,,,2.41,1.31,2.02*0B
$GPGSV,3,1,09,05,46,302,39,07,52,049,45,08,02,066,29,09,22,097,44*74
$GPGSV,3,2,09,13,30,291,32,14,37,157,43,20,62,260,37,28,19,173,37*7B
$GPGSV,3,3,09,30,78,035,37*4E
$GPGLL,4049.59638,N,01413.22908,E,043839.00,A,A*62
$GPGST,043839.00,9.4,,,,1.3,1.1,3.7*77
!AIVDM,2,1,6,B,55U0t242;vLK<HP?P00HN0hEHDq@000000000016:p<>3tmR0:RE83PD0000,0*27
!AIVDM,2,2,6,B,00000000000,2*21
!AIVDM,1,1,,A,13ku:J000211J2BGGR@Mj6Q60HEb,0*49
$GPRMC,043840.00,A,4049.59638,N,01413.22908,E,0.000,0.00,180322,3.76,E,A*38
$GPVTG,0.00,T,356.23,M,0.000,N,0.000,K,A*22
$GPGGA,043840.00,4049.59638,N,01413.22908,E,1,07,1.31,15.6,M,41.2,M,,*68
!AIVDM,1,1,,A,13cmfm0P0011C;PGGeS07gw808Eg,0*5A
$GPGSA,A,3,20,30,05,07,09,13,14,,,,,,2.41,1.31,2.02*0B
$GPGSV,3,1,09,05,46,302,39,07,52,049,45,08,02,066,29,09,22,097,45*75
$GPGSV,3,2,09,13,30,291,32,14,37,157,43,20,62,260,36,28,19,173,36*7B
$GPGSV,3,3,09,30,78,035,36*4F
$GPGLL,4049.59638,N,01413.22908,E,043840.00,A,A*6C
