$GPRMC,163304.00,A,4049.56905,N,01413.45609,E,0.135,183.28,240322,3.76,E,A*39
!AIVDM,1,1,,A,13cWAL0P4TQ1@p:GFc2:F?v00<0n,0*70
$GPVTG,183.28,T,179.52,M,0.135,N,0.249,K,A*23
$GPGGA,163304.00,4049.56905,N,01413.45609,E,1,05,2.26,14.4,M,41.2,M,,*65
$GPGSA,A,3,23,27,29,08,18,,,,,,,,2.78,2.26,1.62*02
$GPGSV,2,1,08,08,13,296,36,15,,,26,16,,,27,18,40,050,38*71
$GPGSV,2,2,08,23,57,102,41,26,,,35,27,46,307,33,29,07,100,37*4C
$GPGLL,4049.56905,N,01413.45609,E,163304.00,A,A*65
$GPGST,163304.00,11,,,,8.5,4.5,8.7*57
!AIVDM,1,1,,B,13cmfm0P0s11EnLGGQQS=?wn080j,0*7C
!AIVDM,1,1,,B,33cmw`0PAK11C`pGGSqTsCn00210,0*1E
!AIVDM,1,1,,B,13cVTr0P4UQ1AU`GFORaNwv20<0U,0*48
$GPRMC,163305.00,A,4049.56908,N,01413.45614,E,0.225,183.28,240322,3.76,E,A*3B
$GPVTG,183.28,T,179.52,M,0.225,N,0.417,K,A*2C
$GPGGA,163305.00,4049.56908,N,01413.45614,E,1,05,2.26,14.3,M,41.2,M,,*62
$GPGSA,A,3,23,27,29,08,18,,,,,,,,2.78,2.26,1.62*02
$GPGSV,3,1,09,08,13,296,35,15,,,25,16,,,27,18,40,050,38*71
$GPGSV,3,2,09,20,,,22,23,57,102,41,26,,,35,27,46,307,33*77
$GPGSV,3,3,09,29,07,100,37*49
$GPGLL,4049.56908,N,01413.45614,E,163305.00,A,A*65
$GPGST,163305.00,11,,,,7.0,4.1,7.2*52
!AIVDM,1,1,,A,13cW678P4e1154dGEpeRK?wn0h1M,0*41
!AIVDM,1,1,,B,13cWAL0P4RQ1@iRGFc7bKOv40D0n,0*58
$GPRMC,163306.00,A,4049.56906,N,01413.45614,E,0.216,183.28,240322,3.76,E,A*36
$GPVTG,183.28,T,179.52,M,0.216,N,0.400,K,A*2A
$GPGGA,163306.00,4049.56906,N,01413.45614,E,1,05,2.26,14.4,M,41.2,M,,*68
$GPGSA,A,3,23,27,29,08,18,,,,,,,,2.78,2.26,1.62*02
!AIVDM,1,1,,B,13cf8P0P0011D:4GGaOc6gv60D0n,0*16
$GPGSV,2,1,08,08,13,296,34,15,,,26,16,,,26,18,40,050,38*72
$GPGSV,2,2,08,23,57,102,41,26,,,34,27,46,307,33,29,07,100,37*4D
$GPGLL,4049.56906,N,01413.45614,E,163306.00,A,A*68
$GPGST,163306.00,12,,,,6.2,3.8,6.5*59
!AIVDM,1,1,,B,D02FhOP2LN?b<`N00m8v000,2*3C
!AIVDM,1,1,,B,19NSGK000j11KpNGEoeAMQ66082;,0*47
!AIVDM,1,1,,A,13cVTr0P4UQ1AObGFO?qNgv60@2=,0*2C
!AIVDM,2,1,2,B,53FB7802?JV`D<pv221Hth<4r0@F1@T`584HF2004Ap6B4N7002E83PD8888,0*1B
!AIVDM,2,2,2,B,88888888880,2*25
!AIVDM,1,1,,A,13cvAe5000<tSF0l4Q@:7Siv082C,0*0C
$GPRMC,163307.00,A,4049.56901,N,01413.45606,E,0.217,183.28,240322,3.76,E,A*32
$GPVTG,183.28,T,179.52,M,0.217,N,0.403,K,A*28
$GPGGA,163307.00,4049.56901,N,01413.45606,E,1,05,2.26,14.3,M,41.2,M,,*6A
$GPGSA,A,3,23,27,29,08,18,,,,,,,,2.78,2.26,1.62*02
$GPGSV,2,1,08,08,13,296,35,15,,,35,16,,,26,18,40,050,32*7B
$GPGSV,2,2,08,23,57,102,35,26,,,30,27,46,307,30,29,07,100,34*4A
$GPGLL,4049.56901,N,01413.45606,E,163307.00,A,A*6D
$GPGST,163307.00,17,,,,6.2,3.7,6.3*54
!AIVDM,1,1,,B,13cW678P4e115:tGEpw2K?v20d16,0*04
!AIVDM,1,1,,A,13crd15Oi411GMRGGQiSk3:60@2b,0*00
!AIVDM,1,1,,A,33cmw`001L11CcJGGSe4oSl600v0,0*0A
!AIVDM,1,1,,A,13cWAL0P4QQ1@c0GFc?:Q?v8082t,0*62
$GPRMC,163308.00,A,4049.56937,N,01413.45619,E,0.201,183.28,240322,3.76,E,A*31
$GPVTG,183.28,T,179.52,M,0.201,N,0.373,K,A*2F
$GPGGA,163308.00,4049.56937,N,01413.45619,E,1,05,2.26,14.1,M,41.2,M,,*6C
$GPGSA,A,3,23,27,29,08,18,,,,,,,,2.78,2.26,1.62*02
$GPGSV,2,1,08,08,13,296,35,15,,,39,16,,,31,18,40,050,40*74
$GPGSV,2,2,08,23,57,102,31,26,,,34,27,46,307,34,29,07,100,37*4D
$GPGLL,4049.56937,N,01413.45619,E,163308.00,A,A*69
$GPGST,163308.00,18,,,,5.8,3.4,6.1*5C
!AIVDM,1,1,,B,13cVTr0P4TQ1AIjGFNuINgv:0<0U,0*49
$GPRMC,163309.00,A,4049.56966,N,01413.45637,E,0.071,183.28,240322,3.76,E,A*3D
$GPVTG,183.28,T,179.52,M,0.071,N,0.132,K,A*2D
$GPGGA,163309.00,4049.56966,N,01413.45637,E,1,05,2.26,13.7,M,41.2,M,,*64
$GPGSA,A,3,23,27,29,08,18,,,,,,,,2.78,2.26,1.62*02
$GPGSV,3,1,09,08,13,296,32,15,,,42,16,,,33,18,40,050,43*7E
$GPGSV,3,2,09,23,57,102,35,24,,,23,26,,,35,27,46,307,36*74
$GPGSV,3,3,09,29,07,100,39*47
$GPGLL,4049.56966,N,01413.45637,E,163309.00,A,A*60
$GPGST,163309.00,12,,,,5.4,3.2,5.8*57
!AIVDM,1,1,,A,13ctG30P0011CuvGGhJ00?v<2<1a,0*6E
$GPRMC,163310.00,A,4049.56974,N,01413.45649,E,0.023,183.28,240322,3.76,E,A*38
$GPVTG,183.28,T,179.52,M,0.023,N,0.043,K,A*2D
$GPGGA,163310.00,4049.56974,N,01413.45649,E,1,05,2.26,13.6,M,41.2,M,,*67
!AIVDM,1,1,,B,13cWAL0P4PQ1@TVGFcI:W?v<0624,0*0B
$GPGSA,A,3,23,27,29,08,18,,,,,,,,2.78,2.26,1.62*02
$GPGSV,2,1,08,08,13,296,31,15,,,44,16,,,29,18,40,050,46*75
$GPGSV,2,2,08,23,57,102,38,26,,,37,27,46,307,36,29,07,100,40*45
$GPGLL,4049.56974,N,01413.45649,E,163310.00,A,A*62
$GPGST,163310.00,13,,,,5.0,3.0,5.5*55
!AIVDM,1,1,,B,13ci>S0P01Q1Cm8GGhH>4?v>284I,0*7D
!AIVDM,1,1,,A,13cVTr0P4TQ1ACtGFNaqMwv>0@4T,0*1C
$GPRMC,163311.00,A,4049.56983,N,01413.45659,E,0.039,183.28,240322,3.76,E,A*3B
$GPVTG,183.28,T,179.52,M,0.039,N,0.072,K,A*24
$GPGGA,163311.00,4049.56983,N,01413.45659,E,1,05,2.26,13.4,M,41.2,M,,*6D
$GPGSA,A,3,23,27,29,08,18,,,,,,,,2.78,2.26,1.62*02
!AIVDM,1,1,,B,13cmw`001L11CfnGGSPTlkl>0<1?,0*08
$GPGSV,2,1,08,08,13,296,32,15,,,41,16,,,22,18,40,050,40*7E
$GPGSV,2,2,08,23,57,102,35,26,,,32,27,46,307,35,29,07,100,40*4E
$GPGLL,4049.56983,N,01413.45659,E,163311.00,A,A*6A
$GPGST,163311.00,13,,,,4.8,2.9,5.3*53
!AIVDM,1,1,,B,ENjOsrhpq?@6a9Qh80V2a6WP0000NUaH:r5g000000N010,4*24
!AIVDM,1,1,,B,13cW678P4e115D0GEqM2K?v80d16,0*0F
!AIVDM,1,1,,A,13cWAL0P4OQ1@N<GFcT:e?v@0624,0*34
$GPRMC,163312.00,A,4049.56983,N,01413.45659,E,0.000,183.28,240322,3.76,E,A*32
$GPVTG,183.28,T,179.52,M,0.000,N,0.000,K,A*2B
$GPGGA,163312.00,4049.56983,N,01413.45659,E,1,05,2.26,13.4,M,41.2,M,,*6E
$GPGSA,A,3,23,27,29,08,18,,,,,,,,2.78,2.26,1.62*02
$GPGSV,2,1,08,08,13,296,31,15,,,40,16,,,23,18,40,050,38*72
$GPGSV,2,2,08,23,57,102,34,26,,,32,27,46,307,32,29,07,100,38*47
$GPGLL,4049.56983,N,01413.45659,E,163312.00,A,A*69
$GPGST,163312.00,15,,,,4.7,2.9,5.2*58
!AIVDM,1,1,,B,13cVTr0P4TQ1A>2GFNFqMgvB0624,0*7F
$GPRMC,163313.00,A,4049.56983,N,01413.45659,E,0.000,183.28,240322,3.76,E,A*33
$GPVTG,183.28,T,179.52,M,0.000,N,0.000,K,A*2B
$GPGGA,163313.00,4049.56983,N,01413.45659,E,1,05,2.26,13.4,M,41.2,M,,*6F
$GPGSA,A,3,23,27,29,08,18,,,,,,,,2.78,2.26,1.62*02
$GPGSV,2,1,08,08,13,296,33,15,,,44,16,,,22,18,40,050,41*7B
$GPGSV,2,2,08,23,57,102,36,26,,,34,27,46,307,35,29,07,100,38*44
$GPGLL,4049.56983,N,01413.45659,E,163313.00,A,A*68
$GPGST,163313.00,12,,,,4.5,2.8,5.0*5F
!AIVDM,1,1,,A,13cW678P4e115ItGEqi2K?v<0PS9,0*3C
!AIVDM,1,1,,A,ENjOsohpg@6a9Qh3RW7PP0000000DK64<e8`000000N010,4*3A
$GPRMC,163314.00,A,4049.56983,N,01413.45659,E,0.000,183.28,240322,3.76,E,A*34
$GPVTG,183.28,T,179.52,M,0.000,N,0.000,K,A*2B
$GPGGA,163314.00,4049.56983,N,01413.45659,E,1,05,2.26,13.4,M,41.2,M,,*68
$GPGSA,A,3,23,27,29,08,18,,,,,,,,2.78,2.26,1.62*02
$GPGSV,2,1,08,08,13,296,35,15,,,44,16,,,23,18,40,050,42*7F
!AIVDM,1,1,,B,13cWAL0P4OQ1@GlGFchJjwvD0624,0*61
$GPGSV,2,2,08,23,57,102,30,26,,,40,27,46,307,37,29,07,100,38*43
$GPGLL,4049.56983,N,01413.45659,E,163314.00,A,A*6F
$GPGST,163314.00,16,,,,4.5,2.7,5.0*53
!AIVDM,1,1,,A,13cmfm0P0s11EuDGGQ`3:gvB0@6S,0*08
!AIVDM,1,1,,B,402FhOQvHt@Q;11BePGGgg700H6b,0*1F
!AIVDM,1,1,,A,33cmw`0OiL11Ci`GGSFTjSlD020P,0*1D
!AIVDM,1,1,,A,13cVTr0P4TQ1A8:GFN3qMwvF0@6m,0*38
$GPRMC,163315.00,A,4049.56983,N,01413.45659,E,0.000,183.28,240322,3.76,E,A*35
$GPVTG,183.28,T,179.52,M,0.000,N,0.000,K,A*2B
$GPGGA,163315.00,4049.56983,N,01413.45659,E,1,05,2.26,13.4,M,41.2,M,,*69
$GPGSA,A,3,23,27,29,08,18,,,,,,,,2.78,2.26,1.62*02
$GPGSV,2,1,08,08,13,296,31,15,,,42,16,,,25,18,40,050,41*78
$GPGSV,2,2,08,23,57,102,37,26,,,37,27,46,307,32,29,07,100,38*41
$GPGLL,4049.56983,N,01413.45659,E,163315.00,A,A*6E
$GPGST,163315.00,14,,,,4.4,2.6,4.9*58
!AIVDM,1,1,,B,13cW678P4e115SDGEr?2K?vB0d17,0*66
!AIVDM,1,1,,B,ENjOsqht?@6a9Qh90c2W70P00000L6vH<ffsP00000N010,4*45
$GPRMC,163316.00,A,4049.56983,N,01413.45659,E,0.000,183.28,240322,3.76,E,A*36
$GPVTG,183.28,T,179.52,M,0.000,N,0.000,K,A*2B
$GPGGA,163316.00,4049.56983,N,01413.45659,E,1,05,2.26,13.4,M,41.2,M,,*6A
$GPGSA,A,3,23,27,29,08,18,,,,,,,,2.78,2.26,1.62*02
$GPGSV,3,1,09,07,01,330,,08,13,296,35,15,,,43,16,,,32*70
!AIVDM,1,1,,A,13cWAL0P4OQ1@ARGFcv:pgvH0<0p,0*7E
$GPGSV,3,2,09,18,40,050,41,23,57,102,37,26,,,37,27,46,307,32*4A
$GPGSV,3,3,09,29,07,100,38*46
$GPGLL,4049.56983,N,01413.45659,E,163316.00,A,A*6D
$GPGST,163316.00,12,,,,4.2,2.6,4.8*5A
!AIVDM,1,1,,A,13cf8P0P0111D:8GGaP;PwvJ087n,0*2E
!AIVDM,1,1,,A,19NSGK000i11KsrGEp8QN16J087u,0*7E
!AIVDM,1,1,,B,13crd15Oi411GTFGGQbSwSLH0624,0*51
!AIVDM,1,1,,B,13cVTr0P4SQ1A2DGFMi9MgvJ0<0U,0*07
!AIVDM,1,1,,B,13cutW5Oi411GbhGGRcCh38H0@86,0*5F
$GPRMC,163317.00,A,4049.56983,N,01413.45659,E,0.000,183.28,240322,3.76,E,A*37
$GPVTG,183.28,T,179.52,M,0.000,N,0.000,K,A*2B
$GPGGA,163317.00,4049.56983,N,01413.45659,E,1,05,2.26,13.4,M,41.2,M,,*6B
$GPGSA,A,3,23,27,29,08,18,,,,,,,,2.78,2.26,1.62*02
$GPGSV,3,1,10,07,01,330,,08,13,296,34,15,,,43,16,,,23*79
$GPGSV,3,2,10,18,40,050,42,23,57,102,37,26,,,38,27,46,307,33*4F
$GPGSV,3,3,10,29,07,100,38,31,,,29*47
$GPGLL,4049.56983,N,01413.45659,E,163317.00,A,A*6C
$GPGST,163317.00,12,,,,4.1,2.5,4.7*54
!AIVDM,1,1,,B,13cvGu02@1Q1C6NGGg?3Dc6J088D,0*6C
!AIVDM,1,1,,B,13cvAe5001Q1A`hGGVh8Q3hH088F,0*09
$GPRMC,163318.00,A,4049.56983,N,01413.45659,E,0.000,183.28,240322,3.76,E,A*38
$GPVTG,183.28,T,179.52,M,0.000,N,0.000,K,A*2B
$GPGGA,163318.00,4049.56983,N,01413.45659,E,1,05,2.26,13.4,M,41.2,M,,*64
$GPGSA,A,3,23,27,29,08,18,,,,,,,,2.78,2.26,1.62*02
$GPGSV,3,1,09,07,01,330,,08,13,296,32,15,,,44,16,,,24*77
$GPGSV,3,2,09,18,40,050,40,23,57,102,29,26,,,35,27,46,307,32*46
$GPGSV,3,3,09,29,07,100,33*4D
$GPGLL,4049.56983,N,01413.45659,E,163318.00,A,A*63
!AIVDM,1,1,,B,33cmw`0OiL11Cm6GGS7Tj3nL00s0,0*76
$GPGST,163318.00,19,,,,4.1,2.5,4.7*50
!AIVDM,1,1,,B,13cWAL0P4OQ1@;BGFd<c0?vL0624,0*53
!AIVDM,1,1,,A,13cVTr0P4SQ1@tNGFMN9MOvN0D0U,0*3A
$GPRMC,163319.00,A,4049.56983,N,01413.45659,E,0.000,183.28,240322,3.76,E,A*39
$GPVTG,183.28,T,179.52,M,0.000,N,0.000,K,A*2B
$GPGGA,163319.00,4049.56983,N,01413.45659,E,1,05,2.26,13.4,M,41.2,M,,*65
$GPGSA,A,3,23,27,29,08,18,,,,,,,,2.78,2.26,1.62*02
$GPGSV,3,1,09,07,01,330,,08,13,296,31,15,,,42,16,,,31*76
$GPGSV,3,2,09,18,40,050,40,23,57,102,33,26,,,35,27,46,307,32*4D
$GPGSV,3,3,09,29,07,100,34*4A
$GPGLL,4049.56983,N,01413.45659,E,163319.00,A,A*62
$GPGST,163319.00,17,,,,4.2,2.5,4.8*53
!AIVDM,2,1,3,A,53cmk802BCQdT=8f220UHE:084h4p<F22222221@:`I5=4sU0A2E83PD8888,0*27
!AIVDM,2,2,3,A,88888888880,2*27
!AIVDM,1,1,,B,13cW678P4e115d4GEre2K?vH0h9f,0*24
!AIVDM,1,1,,A,13cWAL0P4PQ1@54GFdL;2gvP0@9t,0*64
$GPRMC,163320.00,A,4049.56983,N,01413.45659,E,0.000,183.28,240322,3.76,E,A*33
$GPVTG,183.28,T,179.52,M,0.000,N,0.000,K,A*2B
$GPGGA,163320.00,4049.56983,N,01413.45659,E,1,05,2.26,13.4,M,41.2,M,,*6F
$GPGSA,A,3,23,27,29,08,18,,,,,,,,2.78,2.26,1.62*02
$GPGSV,3,1,09,07,01,330,,08,13,296,36,15,,,44,16,,,23*74
$GPGSV,3,2,09,18,40,050,37,23,57,102,38,26,,,39,27,46,307,35*4D
$GPGSV,3,3,09,29,07,100,40*49
$GPGLL,4049.56983,N,01413.45659,E,163320.00,A,A*68
$GPGST,163320.00,10,,,,4.2,2.5,4.7*51
!AIVDM,1,1,,B,33cVTr0P4SQ1@nTGFM;IMgvR0E?e,0*34
$GPRMC,163321.00,A,4049.57005,N,01413.45677,E,0.289,183.28,240322,3.76,E,A*3B
$GPVTG,183.28,T,179.52,M,0.289,N,0.535,K,A*2B
$GPGGA,163321.00,4049.57005,N,01413.45677,E,1,05,2.26,13.9,M,41.2,M,,*69
$GPGSA,A,3,23,27,29,08,18,,,,,,,,2.78,2.26,1.62*02
$GPGSV,3,1,09,07,01,330,,08,13,296,35,15,,,44,16,,,26*72
$GPGSV,3,2,09,18,40,050,39,23,57,102,32,26,,,41,27,46,307,35*46
$GPGSV,3,3,09,29,07,100,36*48
$GPGLL,4049.57005,N,01413.45677,E,163321.00,A,A*63
$GPGST,163321.00,13,,,,4.6,4.1,4.4*56
!AIVDM,1,1,,A,ENjO`032prtt@8:W:0h4V`2a0b7POe>3;aLBp10888N004Q@,0*19
$GPRMC,163322.00,A,4049.57015,N,01413.45682,E,0.226,183.28,240322,3.76,E,A*36
$GPVTG,183.28,T,179.52,M,0.226,N,0.418,K,A*20
$GPGGA,163322.00,4049.57015,N,01413.45682,E,1,05,2.26,14.1,M,41.2,M,,*6E
$GPGSA,A,3,23,27,29,08,18,,,,,,,,2.78,2.26,1.62*02
$GPGSV,3,1,09,07,01,330,,08,13,296,35,15,,,43,16,,,27*74
$GPGSV,3,2,09,18,40,050,40,23,57,102,35,26,,,38,27,46,307,30*44
$GPGSV,3,3,09,29,07,100,36*48
$GPGLL,4049.57015,N,01413.45682,E,163322.00,A,A*6B
$GPGST,163322.00,15,,,,4.5,3.8,4.2*58
!AIVDM,1,1,,B,13cWAL0P4PQ1?vtGFdds7OvT08;?,0*63
!AIVDM,1,1,,A,D02FhOQRHN?b<`N01ptv000,2*0A
!AIVDM,1,1,,A,13cVTr0P4SQ1@i`GFLsaMgvV0624,0*4C
$GPRMC,163323.00,A,4049.57021,N,01413.45680,E,0.043,183.28,240322,3.76,E,A*33
$GPVTG,183.28,T,179.52,M,0.043,N,0.080,K,A*24
$GPGGA,163323.00,4049.57021,N,01413.45680,E,1,05,2.26,14.3,M,41.2,M,,*68
$GPGSA,A,3,23,27,29,08,18,,,,,,,,2.78,2.26,1.62*02
$GPGSV,3,1,09,07,01,330,,08,13,296,36,15,,,45,16,,,28*7E
$GPGSV,3,2,09,18,40,050,39,23,57,102,38,26,,,39,27,46,307,31*47
$GPGSV,3,3,09,29,07,100,41*48
$GPGLL,4049.57021,N,01413.45680,E,163323.00,A,A*6F
$GPGST,163323.00,12,,,,4.3,3.4,4.0*56
!AIVDM,1,1,,B,13cW678P4e115sHGEsLBK?vR0V24,0*6A
!AIVDM,1,1,,B,ENjO`0S2psJK@6WV7h9PW@;4W1RPPba9;cbwP10888N003VSh0,4*6F
!AIVDM,1,1,,A,13cWAL0P4PQ1?ppGFdvc<?v`0D0q,0*16
$GPRMC,163324.00,A,4049.57020,N,01413.45677,E,0.130,183.28,240322,3.76,E,A*38
$GPVTG,183.28,T,179.52,M,0.130,N,0.241,K,A*2E
$GPGGA,163324.00,4049.57020,N,01413.45677,E,1,05,2.26,14.6,M,41.2,M,,*63
$GPGSA,A,3,23,27,29,08,18,,,,,,,,2.78,2.26,1.62*02
$GPGSV,3,1,09,07,01,330,,08,13,296,33,15,,,47,16,,,32*72
$GPGSV,3,2,09,18,40,050,40,23,57,102,38,26,,,39,27,46,307,34*4C
$GPGSV,3,3,09,29,07,100,38*46
$GPGLL,4049.57020,N,01413.45677,E,163324.00,A,A*61
$GPGST,163324.00,12,,,,4.1,3.2,3.9*5B
!AIVDM,2,1,4,A,53cVTr824jhlUQUJ220pEAADpv0`EB22222222151PE544U7533PD3k2H2Dh,0*35
!AIVDM,2,2,4,A,j0H1H5cU`80,2*10
!AIVDM,1,1,,B,33cmw`0OiL11CrHGGRl4nCr`020h,0*70
!AIVDM,1,1,,B,13cVTr0P4TQ1@hlGFLq9Mgvb08<g,0*78
!AIVDM,1,1,,B,13cmfm0P0r11F4>GGQm33?v`0624,0*59
!AIVDM,1,1,,B,13cf8P0P0111D9nGGaPKMgvd0@<l,0*5A
$GPRMC,163325.00,A,4049.57022,N,01413.45646,E,0.031,183.28,240322,3.76,E,A*39
$GPVTG,183.28,T,179.52,M,0.031,N,0.057,K,A*2B
$GPGGA,163325.00,4049.57022,N,01413.45646,E,1,05,2.26,14.9,M,41.2,M,,*6D
$GPGSA,A,3,23,27,29,08,18,,,,,,,,2.78,2.26,1.62*02
$GPGSV,3,1,09,07,01,330,,08,13,296,36,15,,,42,16,,,31*71
$GPGSV,3,2,09,18,40,050,41,23,57,102,38,26,,,41,27,46,307,34*42
$GPGSV,3,3,09,29,07,100,36*48
$GPGLL,4049.57022,N,01413.45646,E,163325.00,A,A*60
$GPGST,163325.00,11,,,,4.0,3.0,3.8*5B
!AIVDM,2,1,5,A,53ceoD02>@9DT9TT0005A@ThTv0TEHthV0a80000:`D886pc0@RE3PD82E32,0*32
!AIVDM,2,2,5,A,@0000000000,2*51
!AIVDM,1,1,,A,13cW678P4e115vPGEsVRK?vT0d19,0*44
!AIVDM,1,1,,B,13cWAL0P4QQ1?jrGFeAc@wvd0<0q,0*72
$GPRMC,163326.00,A,4049.57022,N,01413.45646,E,0.000,183.28,240322,3.76,E,A*38
$GPVTG,183.28,T,179.52,M,0.000,N,0.000,K,A*2B
$GPGGA,163326.00,4049.57022,N,01413.45646,E,1,05,2.26,14.9,M,41.2,M,,*6E
$GPGSA,A,3,23,27,29,08,18,,,,,,,,2.78,2.26,1.62*02
$GPGSV,3,1,09,07,01,330,,08,13,296,34,15,,,43,16,,,25*77
$GPGSV,3,2,09,18,40,050,41,23,57,102,37,26,,,40,27,46,307,38*40
$GPGSV,3,3,09,29,07,100,35*4B
$GPGLL,4049.57022,N,01413.45646,E,163326.00,A,A*63
$GPGST,163326.00,10,,,,3.9,2.8,3.8*5E
!AIVDM,1,1,,A,13cVTr0P4TQ1@fTGFLiaMOvf00S;,0*1A
!AIVDM,1,1,,A,13cutW5Oi511Gk4GGRQkoS<f0<15,0*29
$GPRMC,163327.00,A,4049.57022,N,01413.45646,E,0.000,183.28,240322,3.76,E,A*39
$GPVTG,183.28,T,179.52,M,0.000,N,0.000,K,A*2B
$GPGGA,163327.00,4049.57022,N,01413.45646,E,1,05,2.26,14.9,M,41.2,M,,*6F
$GPGSA,A,3,23,27,29,08,18,,,,,,,,2.78,2.26,1.62*02
$GPGSV,3,1,09,07,01,330,,08,13,296,35,15,,,43,16,,,26*75
$GPGSV,3,2,09,18,40,050,41,23,57,102,29,26,,,39,27,46,307,34*4D
$GPGSV,3,3,09,29,07,100,39*47
$GPGLL,4049.57022,N,01413.45646,E,163327.00,A,A*62
$GPGST,163327.00,18,,,,3.9,2.7,3.8*58
!AIVDM,1,1,,A,13crd15PA311GdHGGQFDGSPf0<1F,0*16
!AIVDM,1,1,,B,13cW678P4e1167TGEt4RK?v`0d18,0*51
!AIVDM,1,1,,A,13cWAL0P4QQ1?dvGFeUKEOvh0@>W,0*22
$GPRMC,163328.00,A,4049.57022,N,01413.45646,E,0.000,183.28,240322,3.76,E,A*36
$GPVTG,183.28,T,179.52,M,0.000,N,0.000,K,A*2B
$GPGGA,163328.00,4049.57022,N,01413.45646,E,1,06,1.29,14.9,M,41.2,M,,*6F
!AIVDM,1,1,,A,33cmw`001L11Cv8GGRTTnCth00w0,0*6B
$GPGSA,A,3,23,27,29,26,08,18,,,,,,,1.97,1.29,1.49*01
$GPGSV,3,1,09,07,01,330,,08,13,296,34,15,,,42,16,,,31*73
$GPGSV,3,2,09,18,40,050,30,23,57,102,34,26,53,192,42,27,46,307,29*7B
$GPGSV,3,3,09,29,07,100,41*48
$GPGLL,4049.57022,N,01413.45646,E,163328.00,A,A*6D
$GPGST,163328.00,20,,,,3.2,2.5,3.6*5B
!AIVDM,2,1,6,B,53ceoD02>@9DT9TT0005A@ThTv0TEHthV0a80000:`D886pc0@RE3PD82E32,0*32
!AIVDM,2,2,6,B,@0000000000,2*51
!AIVDM,1,1,,B,13cVTr0P4TQ1@cJGFLVqLwvj0624,0*70
$GPRMC,163329.00,A,4049.57022,N,01413.45646,E,0.000,183.28,240322,3.76,E,A*37
$GPVTG,183.28,T,179.52,M,0.000,N,0.000,K,A*2B
$GPGGA,163329.00,4049.57022,N,01413.45646,E,1,06,1.29,14.9,M,41.2,M,,*6E
$GPGSA,A,3,23,27,29,26,08,18,,,,,,,1.97,1.29,1.49*01
$GPGSV,3,1,09,07,01,330,,08,13,296,34,15,,,34,16,,,26*74
$GPGSV,3,2,09,18,40,050,34,23,57,102,38,26,53,192,33,27,46,307,35*78
$GPGSV,3,3,09,29,07,100,38*46
$GPGLL,4049.57022,N,01413.45646,E,163329.00,A,A*6C
$GPGST,163329.00,15,,,,3.2,2.4,3.6*5D
!AIVDM,1,1,,A,13ctG30P0011Cv2GGhHP0?vj2<1`,0*1C
!AIVDM,1,1,,A,13cW678P4e116=lGEtHRK?vf0V24,0*27
!AIVDM,1,1,,B,13cWAL0P4RQ1?b0GFeg;Igvj08?j,0*42
$GPRMC,163330.00,A,4049.57060,N,01413.45685,E,0.078,183.28,240322,3.76,E,A*39
$GPVTG,183.28,T,179.52,M,0.078,N,0.145,K,A*24
$GPGGA,163330.00,4049.57060,N,01413.45685,E,1,06,1.29,14.7,M,41.2,M,,*61
$GPGSA,A,3,23,27,29,26,08,18,,,,,,,1.97,1.29,1.49*01
$GPGSV,3,1,09,07,01,330,,08,13,296,40,15,,,36,16,,,25*76
$GPGSV,3,2,09,18,40,050,39,23,57,102,35,26,53,192,43,27,46,307,39*73
$GPGSV,3,3,09,29,07,100,40*49
$GPGLL,4049.57060,N,01413.45685,E,163330.00,A,A*6D
$GPGST,163330.00,7.4,,,,3.3,3.0,3.2*7C
!AIVDM,1,1,,B,13cmw`001L11CwdGGRMTrkvl0<1B,0*24
!AIVDM,1,1,,A,13cVTr0P4SQ1@W`GFLJ9Lgvn08@B,0*20
$GPRMC,163331.00,A,4049.57093,N,01413.45701,E,0.029,183.28,240322,3.76,E,A*3D
$GPVTG,183.28,T,179.52,M,0.029,N,0.053,K,A*26
$GPGGA,163331.00,4049.57093,N,01413.45701,E,1,06,1.29,14.6,M,41.2,M,,*60
$GPGSA,A,3,23,27,29,26,08,18,,,,,,,1.97,1.29,1.49*01
$GPGSV,3,1,09,07,01,330,,08,13,296,39,15,,,34,16,,,25*7A
$GPGSV,3,2,09,18,40,050,42,23,57,102,26,26,53,192,43,27,46,307,43*70
$GPGSV,3,3,09,29,07,100,34*4A
$GPGLL,4049.57093,N,01413.45701,E,163331.00,A,A*6D
$GPGST,163331.00,19,,,,2.9,2.7,3.0*57
!AIVDM,1,1,,B,13cW678P4e116=lGEtHRK?vh0V24,0*2A
!AIVDM,1,1,,B,13ci>S0P00Q1ClvGGhF>4?vp2D1e,0*26
$GPRMC,163332.00,A,4049.57100,N,01413.45714,E,0.009,183.28,240322,3.76,E,A*33
$GPVTG,183.28,T,179.52,M,0.009,N,0.017,K,A*24
$GPGGA,163332.00,4049.57100,N,01413.45714,E,1,06,1.29,14.7,M,41.2,M,,*6D
$GPGSA,A,3,23,27,29,26,08,18,,,,,,,1.97,1.29,1.49*01
$GPGSV,2,1,08,07,01,330,,08,13,296,37,16,,,25,18,40,050,38*44
$GPGSV,2,2,08,23,57,102,27,26,53,192,37,27,46,307,38,29,07,100,33*7D
$GPGLL,4049.57100,N,01413.45714,E,163332.00,A,A*61
$GPGST,163332.00,18,,,,2.8,2.5,3.0*56
!AIVDM,1,1,,A,13cWAL0P4TQ1?Q8GFf>;Nwvp0<0q,0*3B
!AIVDM,1,1,,B,13cVTr0P4TQ1@SJGFL<9L?vr0@AW,0*54
$GPRMC,163333.00,A,4049.57100,N,01413.45714,E,0.000,183.28,240322,3.76,E,A*3B
$GPVTG,183.28,T,179.52,M,0.000,N,0.000,K,A*2B
$GPGGA,163333.00,4049.57100,N,01413.45714,E,1,06,1.29,14.7,M,41.2,M,,*6C
$GPGSA,A,3,23,27,29,26,08,18,,,,,,,1.97,1.29,1.49*01
$GPGSV,2,1,08,07,01,330,,08,13,296,41,16,,,26,18,40,050,42*4B
$GPGSV,2,2,08,23,57,102,31,26,53,192,42,27,46,307,41,29,07,100,35*70
$GPGLL,4049.57100,N,01413.45714,E,163333.00,A,A*60
$GPGST,163333.00,11,,,,2.5,2.3,2.9*5D
!AIVDM,1,1,,A,13cW678P4e116J0GEtv2K?vn0l17,0*60
!AIVDM,1,1,,B,13cWAL0P4TQ1?KBGFfScPgvt0<0q,0*67
$GPRMC,163334.00,A,4049.57100,N,01413.45714,E,0.000,183.28,240322,3.76,E,A*3C
$GPVTG,183.28,T,179.52,M,0.000,N,0.000,K,A*2B
$GPGGA,163334.00,4049.57100,N,01413.45714,E,1,06,1.29,14.7,M,41.2,M,,*6B
$GPGSA,A,3,23,27,29,26,08,18,,,,,,,1.97,1.29,1.49*01
$GPGSV,2,1,08,07,01,330,,08,13,296,40,16,,,26,18,40,050,41*49
$GPGSV,2,2,08,23,57,102,31,26,53,192,41,27,46,307,40,29,07,100,34*73
$GPGLL,4049.57100,N,01413.45714,E,163334.00,A,A*67
$GPGST,163334.00,12,,,,2.4,2.1,2.9*5A
!AIVDM,1,1,,B,402FhOQvHt@QO11BePGGgg700624,0*47
!AIVDM,1,1,,A,13cVTr0P4TQ1@NpGFKtaKwvv0624,0*4A
!AIVDM,1,1,,A,33cmw`0PAL11D38GGR;Ttktt0000,0*3F
!AIVDM,1,1,,A,13cmfm0P0r11F:jGGQw30gvt0<1M,0*25
$GPRMC,163335.00,A,4049.57100,N,01413.45714,E,0.000,183.28,240322,3.76,E,A*3D
$GPVTG,183.28,T,179.52,M,0.000,N,0.000,K,A*2B
$GPGGA,163335.00,4049.57100,N,01413.45714,E,1,06,1.29,14.7,M,41.2,M,,*6A
$GPGSA,A,3,23,27,29,26,08,18,,,,,,,1.97,1.29,1.49*01
$GPGSV,2,1,08,07,01,330,,08,13,296,38,16,,,27,18,40,050,35*44
$GPGSV,2,2,08,23,57,102,30,26,53,192,40,27,46,307,38,29,07,100,31*79
$GPGLL,4049.57100,N,01413.45714,E,163335.00,A,A*66
$GPGST,163335.00,15,,,,2.3,2.1,2.9*5B
!AIVDM,1,1,,B,13cW678P4e116M8GEu82K?vr0V24,0*05
!AIVDM,1,1,,A,13cf8P0P0111D9DGGaPc`?w208C6,0*24
!AIVDM,1,1,,A,13cWAL0P4UQ1?HFGFffcSgvv0@C@,0*68
$GPRMC,163336.00,A,4049.57100,N,01413.45714,E,0.000,183.28,240322,3.76,E,A*3E
$GPVTG,183.28,T,179.52,M,0.000,N,0.000,K,A*2B
!AIVDM,1,1,,A,19NSGK000i11L2HGEpsQN1700<1;,0*7E
$GPGGA,163336.00,4049.57100,N,01413.45714,E,1,06,1.29,14.7,M,41.2,M,,*69
$GPGSA,A,3,23,27,29,26,08,18,,,,,,,1.97,1.29,1.49*01
$GPGSV,2,1,08,07,01,330,,08,13,296,36,16,,,24,18,40,050,38*44
$GPGSV,2,2,08,23,57,102,30,26,53,192,37,27,46,307,34,29,07,100,29*7C
$GPGLL,4049.57100,N,01413.45714,E,163336.00,A,A*65
$GPGST,163336.00,17,,,,2.3,2.0,3.0*53
!AIVDM,1,1,,B,13crd1501311GjnGGQ54K3Q008CO,0*6A
!AIVDM,1,1,,B,13cVTr0P4TQ1@J2GFKdaKgw20@Cr,0*0B
$GPRMC,163337.00,A,4049.57100,N,01413.45714,E,0.000,183.28,240322,3.76,E,A*3F
$GPVTG,183.28,T,179.52,M,0.000,N,0.000,K,A*2B
$GPGGA,163337.00,4049.57100,N,01413.45714,E,1,06,1.29,14.7,M,41.2,M,,*68
$GPGSA,A,3,23,27,29,26,08,18,,,,,,,1.97,1.29,1.49*01
$GPGSV,2,1,08,07,01,330,,08,13,296,41,16,,,22,18,40,050,43*4E
$GPGSV,2,2,08,23,57,102,34,26,53,192,40,27,46,307,40,29,07,100,33*70
$GPGLL,4049.57100,N,01413.45714,E,163337.00,A,A*64
$GPGST,163337.00,10,,,,2.1,1.9,3.0*5D
!AIVDM,1,1,,A,13cW678P4e116S4GEuL2K?vt0`D@,0*52
$GPRMC,163338.00,A,4049.57100,N,01413.45714,E,0.000,183.28,240322,3.76,E,A*30
$GPVTG,183.28,T,179.52,M,0.000,N,0.000,K,A*2B
!AIVDM,1,1,,B,13cWAL0P4VQ1??bGFg?KV?w408DS,0*39
$GPGGA,163338.00,4049.57100,N,01413.45714,E,1,06,1.29,14.7,M,41.2,M,,*67
$GPGSA,A,3,23,27,29,26,08,18,,,,,,,1.97,1.29,1.49*01
$GPGSV,2,1,08,07,01,330,,08,13,296,40,16,,,22,18,40,050,42*4E
$GPGSV,2,2,08,23,57,102,32,26,53,192,42,27,46,307,40,29,07,100,32*75
$GPGLL,4049.57100,N,01413.45714,E,163338.00,A,A*6B
$GPGST,163338.00,12,,,,2.0,1.8,3.0*50
!AIVDM,1,1,,B,33cmw`001M11D6TGGQr4u3u40000,0*76
!AIVDM,1,1,,B,13cWAL0P4VQ1??bGFg?KWOw408Da,0*7A
!AIVDM,1,1,,B,13cvGu0001Q1C6PGGgF7>c740D14,0*7D
!AIVDM,1,1,,A,13cVTr0P4TQ1@E2GFKKaKOw60<0U,0*2C
$GPRMC,163339.00,A,4049.57100,N,01413.45714,E,0.000,183.28,240322,3.76,E,A*31
$GPVTG,183.28,T,179.52,M,0.000,N,0.000,K,A*2B
$GPGGA,163339.00,4049.57100,N,01413.45714,E,1,06,1.29,14.7,M,41.2,M,,*66
$GPGSA,A,3,23,27,29,26,08,18,,,,,,,1.97,1.29,1.49*01
$GPGSV,2,1,08,07,01,330,,08,13,296,40,16,,,22,18,40,050,43*4F
$GPGSV,2,2,08,23,57,102,32,26,53,192,41,27,46,307,40,29,07,100,34*70
$GPGLL,4049.57100,N,01413.45714,E,163339.00,A,A*6A
$GPGST,163339.00,11,,,,1.9,1.7,3.0*57
!AIVDM,1,1,,B,13cW678P4e116a0GEujRHgw00V24,0*0B
$GPRMC,163340.00,A,4049.57100,N,01413.45714,E,0.000,183.28,240322,3.76,E,A*3F
$GPVTG,183.28,T,179.52,M,0.000,N,0.000,K,A*2B
$GPGGA,163340.00,4049.57100,N,01413.45714,E,1,06,1.29,14.7,M,41.2,M,,*68
$GPGSA,A,3,23,27,29,26,08,18,,,,,,,1.97,1.29,1.49*01
$GPGSV,2,1,08,07,01,330,,08,13,296,40,16,,,22,18,40,050,43*4F
$GPGSV,2,2,08,23,57,102,33,26,53,192,41,27,46,307,40,29,07,100,34*71
$GPGLL,4049.57100,N,01413.45714,E,163340.00,A,A*64
$GPGST,163340.00,10,,,,1.9,1.6,3.0*59
!AIVDM,1,1,,A,13cWAL0P4WQ1?9rGFgUcagw80624,0*13
!AIVDM,1,1,,A,13cmw`001M11D88GGQjTuku80624,0*39
!AIVDM,1,1,,B,13cVTr0P4TQ1@?pGFK:9K?w:0@FA,0*5C
$GPRMC,163341.00,A,4049.57100,N,01413.45714,E,0.000,183.28,240322,3.76,E,A*3E
$GPVTG,183.28,T,179.52,M,0.000,N,0.000,K,A*2B
$GPGGA,163341.00,4049.57100,N,01413.45714,E,1,06,1.29,14.7,M,41.2,M,,*69
$GPGSA,A,3,23,27,29,26,08,18,,,,,,,1.97,1.29,1.49*01
$GPGSV,2,1,08,07,01,330,,08,13,296,40,16,,,24,18,40,050,42*48
$GPGSV,2,2,08,23,57,102,32,26,53,192,41,27,46,307,41,29,07,100,31*74
$GPGLL,4049.57100,N,01413.45714,E,163341.00,A,A*65
$GPGST,163341.00,13,,,,1.8,1.6,3.0*5A
!AIVDM,1,1,,A,33cW678P4e116ihGEv@RHgw40PT3,0*10
!AIVDM,1,1,,B,13cWAL0P4`Q1?4>GFgtKbgw<0@Fp,0*2E
$GPRMC,163342.00,A,4049.57100,N,01413.45714,E,0.000,183.28,240322,3.76,E,A*3D
$GPVTG,183.28,T,179.52,M,0.000,N,0.000,K,A*2B
$GPGGA,163342.00,4049.57100,N,01413.45714,E,1,06,1.29,14.7,M,41.2,M,,*6A
$GPGSA,A,3,23,27,29,26,08,18,,,,,,,1.97,1.29,1.49*01
$GPGSV,2,1,08,07,01,330,,08,13,296,36,16,,,25,18,40,050,37*4A
$GPGSV,2,2,08,23,57,102,27,26,53,192,37,27,46,307,37,29,07,100,27*77
$GPGLL,4049.57100,N,01413.45714,E,163342.00,A,A*66
$GPGST,163342.00,19,,,,1.8,1.6,3.1*52
!AIVDM,1,1,,A,13cVTr0P4TQ1@:VGFJp9Jww>0624,0*0D
$GPRMC,163343.00,A,4049.57100,N,01413.45714,E,0.000,183.28,240322,3.76,E,A*3C
$GPVTG,183.28,T,179.52,M,0.000,N,0.000,K,A*2B
$GPGGA,163343.00,4049.57100,N,01413.45714,E,1,06,1.29,14.7,M,41.2,M,,*6B
$GPGSA,A,3,23,27,29,26,08,18,,,,,,,1.97,1.29,1.49*01
$GPGSV,2,1,08,07,01,330,,08,13,296,39,16,,,23,18,40,050,42*41
$GPGSV,2,2,08,23,57,102,30,26,53,192,40,27,46,307,40,29,07,100,33*74
$GPGLL,4049.57100,N,01413.45714,E,163343.00,A,A*67
$GPGST,163343.00,13,,,,1.8,1.5,3.1*5A
!AIVDM,1,1,,B,13cW678P4e116lpGEvW2F?w:0pGj,0*49
!AIVDM,1,1,,A,13cWAL0P4`Q1>vLGFhCKdgw@0<0t,0*50
$GPRMC,163344.00,A,4049.57100,N,01413.45714,E,0.000,183.28,240322,3.76,E,A*3B
$GPVTG,183.28,T,179.52,M,0.000,N,0.000,K,A*2B
$GPGGA,163344.00,4049.57100,N,01413.45714,E,1,06,1.29,14.7,M,41.2,M,,*6C
$GPGSA,A,3,23,27,29,26,08,18,,,,,,,1.97,1.29,1.49*01
$GPGSV,2,1,08,07,01,330,,08,13,296,37,16,,,20,18,40,050,38*41
$GPGSV,2,2,08,23,57,102,31,26,53,192,38,27,46,307,37,29,07,100,31*78
$GPGLL,4049.57100,N,01413.45714,E,163344.00,A,A*60
$GPGST,163344.00,14,,,,1.8,1.5,3.1*5A
!AIVDM,1,1,,A,402FhOQvHt@Qa11BePGGgg700<17,0*60
!AIVDM,1,1,,B,13cmfm0P0t11FA`GGR>2ngw@0D1M,0*09
!AIVDM,1,1,,A,13ca`W0P0011@DdGGPU1;?w:0@HP,0*04
!AIVDM,1,1,,B,13cVTr0P4TQ1@5>GFJUIJOwB0624,0*78
$GPRMC,163345.00,A,4049.57100,N,01413.45714,E,0.000,183.28,240322,3.76,E,A*3A
$GPVTG,183.28,T,179.52,M,0.000,N,0.000,K,A*2B
$GPGGA,163345.00,4049.57100,N,01413.45714,E,1,06,1.29,14.7,M,41.2,M,,*6D
$GPGSA,A,3,23,27,29,26,08,18,,,,,,,1.97,1.29,1.49*01
$GPGSV,2,1,08,07,01,330,,08,13,296,39,16,,,21,18,40,050,41*40
$GPGSV,2,2,08,23,57,102,26,26,53,192,42,27,46,307,41,29,07,100,32*71
$GPGLL,4049.57100,N,01413.45714,E,163345.00,A,A*61
$GPGST,163345.00,17,,,,1.8,1.5,3.1*58
!AIVDM,2,1,7,A,53cW674251d4UQPt0018u<58T60h5E8t0000000`1@P444saN33PD82Dhp1H,0*3A
!AIVDM,2,2,7,A,5cUP0000000,2*70
!AIVDM,1,1,,B,13cf8P0P0111D9NGGaP;k?wF00Rc,0*46
!AIVDM,1,1,,B,19NSGK000h11L5fGEqFAN17D0L1<,0*72
!AIVDM,1,1,,B,13cWAL0P4aQ1>pfGFhbcfgwD00S:,0*50
$GPRMC,163346.00,A,4049.57100,N,01413.45714,E,0.000,183.28,240322,3.76,E,A*39
$GPVTG,183.28,T,179.52,M,0.000,N,0.000,K,A*2B
$GPGGA,163346.00,4049.57100,N,01413.45714,E,1,06,1.29,14.7,M,41.2,M,,*6E
$GPGSA,A,3,23,27,29,26,08,18,,,,,,,1.97,1.29,1.49*01
$GPGSV,2,1,08,07,01,330,,08,13,296,39,16,,,24,18,40,050,41*45
$GPGSV,2,2,08,23,57,102,27,26,53,192,41,27,46,307,42,29,07,100,33*71
$GPGLL,4049.57100,N,01413.45714,E,163346.00,A,A*62
$GPGST,163346.00,15,,,,1.7,1.5,3.1*56
!AIVDM,1,1,,A,13crd15Oi311GqpGGPjlMCUD0<1F,0*34
!AIVDM,1,1,,A,13cvAe5001Q1A`hGGVh0:3iD00RM,0*0D
!AIVDM,1,1,,A,13cVTr0P4UQ1?whGFJBIIgwF0<0U,0*40
$GPRMC,163347.00,A,4049.57100,N,01413.45714,E,0.000,183.28,240322,3.76,E,A*38
$GPVTG,183.28,T,179.52,M,0.000,N,0.000,K,A*2B
$GPGGA,163347.00,4049.57100,N,01413.45714,E,1,06,1.29,14.7,M,41.2,M,,*6F
$GPGSA,A,3,23,27,29,26,08,18,,,,,,,1.97,1.29,1.49*01
$GPGSV,3,1,09,07,01,330,,08,13,296,38,10,,,45,16,,,24*79
$GPGSV,3,2,09,18,40,050,40,23,57,102,28,26,53,192,41,27,46,307,40*7D
$GPGSV,3,3,09,29,07,100,32*4C
$GPGLL,4049.57100,N,01413.45714,E,163347.00,A,A*63
$GPGST,163347.00,16,,,,1.7,1.4,3.2*56
$GPRMC,163348.00,A,4049.57100,N,01413.45714,E,0.000,183.28,240322,3.76,E,A*37
$GPVTG,183.28,T,179.52,M,0.000,N,0.000,K,A*2B
$GPGGA,163348.00,4049.57100,N,01413.45714,E,1,06,1.29,14.7,M,41.2,M,,*60
$GPGSA,A,3,23,27,29,26,08,18,,,,,,,1.97,1.29,1.49*01
$GPGSV,3,1,09,07,01,330,,08,13,296,41,10,,,47,16,,,24*75
$GPGSV,3,2,09,18,40,050,41,23,57,102,29,26,53,192,42,27,46,307,41*7F
$GPGSV,3,3,09,29,07,100,29*46
$GPGLL,4049.57100,N,01413.45714,E,163348.00,A,A*6C
$GPGST,163348.00,18,,,,1.7,1.4,3.2*57
!AIVDM,1,1,,A,13cWAL0P4bQ1>k2GFi2chgwH00S6,0*40
!AIVDM,1,1,,B,13cVTr0P4UQ1?r@GFIvqI?wJ0@Jk,0*0D
!AIVDM,1,1,,A,13ctG30P0011Cv2GGhHP0?wJ2@Jr,0*28
!AIVDM,1,1,,A,13cvGu0001Q1C6BGGg=dWc7J0@Js,0*6B
$GPRMC,163349.00,A,4049.57100,N,01413.45714,E,0.000,183.28,240322,3.76,E,A*36
$GPVTG,183.28,T,179.52,M,0.000,N,0.000,K,A*2B
$GPGGA,163349.00,4049.57100,N,01413.45714,E,1,06,1.29,14.7,M,41.2,M,,*61
$GPGSA,A,3,23,27,29,26,08,18,,,,,,,1.97,1.29,1.49*01
$GPGSV,3,1,09,07,01,330,,08,13,296,40,10,,,46,16,,,25*74
$GPGSV,3,2,09,18,40,050,41,23,57,102,31,26,53,192,42,27,46,307,40*77
$GPGSV,3,3,09,29,07,100,28*47
$GPGLL,4049.57100,N,01413.45714,E,163349.00,A,A*6D
$GPGST,163349.00,17,,,,1.6,1.4,3.3*59
!AIVDM,1,1,,A,13cW678P4e1176HGEwKRF?wF0hKF,0*10
$GPRMC,163350.00,A,4049.57100,N,01413.45714,E,0.000,183.28,240322,3.76,E,A*3E
$GPVTG,183.28,T,179.52,M,0.000,N,0.000,K,A*2B
$GPGGA,163350.00,4049.57100,N,01413.45714,E,1,06,1.29,14.7,M,41.2,M,,*69
$GPGSA,A,3,23,27,29,26,08,18,,,,,,,1.97,1.29,1.49*01
$GPGSV,3,1,09,07,01,330,,08,13,296,38,10,,,44,16,,,25*79
!AIVDM,1,1,,B,13cWAL0P4cQ1>eJGFiK;jgwL0<0h,0*22
$GPGSV,3,2,09,18,40,050,40,23,57,102,31,26,53,192,38,27,46,307,39*75
$GPGSV,3,3,09,29,07,100,28*47
$GPGLL,4049.57100,N,01413.45714,E,163350.00,A,A*65
$GPGST,163350.00,16,,,,1.6,1.4,3.3*50
!AIVDM,1,1,,A,13cVTr0P4UQ1?lfGFIc9HgwN0<0U,0*0E
$GPRMC,163351.00,A,4049.57100,N,01413.45714,E,0.000,183.28,240322,3.76,E,A*3F
$GPVTG,183.28,T,179.52,M,0.000,N,0.000,K,A*2B
$GPGGA,163351.00,4049.57100,N,01413.45714,E,1,06,1.29,14.7,M,41.2,M,,*68
$GPGSA,A,3,23,27,29,26,08,18,,,,,,,1.97,1.29,1.49*01
$GPGSV,3,1,09,07,01,330,,08,13,296,39,10,,,46,16,,,24*7B
$GPGSV,3,2,09,18,40,050,41,23,57,102,32,26,53,192,41,27,46,307,40*77
$GPGSV,3,3,09,29,07,100,29*46
$GPGLL,4049.57100,N,01413.45714,E,163351.00,A,A*64
$GPGST,163351.00,15,,,,1.6,1.4,3.4*55
!AIVDM,1,1,,B,13ci>S0P00Q1Cm8GGhF>4?wP2<1e,0*30
!AIVDM,1,1,,B,13cmw`0PAM11DAPGGQ8Tu3uN0D1B,0*40
!AIVDM,1,1,,B,13cW678P4d117?LGEwt2F?wJ0V24,0*79
$GPRMC,163352.00,A,4049.57100,N,01413.45714,E,0.000,183.28,240322,3.76,E,A*3C
$GPVTG,183.28,T,179.52,M,0.000,N,0.000,K,A*2B
$GPGGA,163352.00,4049.57100,N,01413.45714,E,1,06,1.29,14.7,M,41.2,M,,*6B
$GPGSA,A,3,23,27,29,26,08,18,,,,,,,1.97,1.29,1.49*01
$GPGSV,3,1,09,07,01,330,,08,13,296,33,10,,,42,16,,,30*70
$GPGSV,3,2,09,18,40,050,36,23,57,102,26,26,53,192,39,27,46,307,38*72
$GPGSV,3,3,09,29,07,100,36*48
!AIVDM,1,1,,A,13cWAL0P4dQ1>WjGFikKl?wP08Lk,0*5D
$GPGLL,4049.57100,N,01413.45714,E,163352.00,A,A*67
$GPGST,163352.00,17,,,,1.6,1.4,3.4*54
!AIVDM,1,1,,A,ENjOsq@pr?@6a9Qh82aQPa0P0000PRhT<9Qk000000N010,4*71
!AIVDM,1,1,,B,13cVTr0P4UQ1?g8GFIG9H?wR0@M=,0*51
$GPRMC,163353.00,A,4049.57100,N,01413.45714,E,0.000,183.28,240322,3.76,E,A*3D
$GPVTG,183.28,T,179.52,M,0.000,N,0.000,K,A*2B
$GPGGA,163353.00,4049.57100,N,01413.45714,E,1,06,1.29,14.7,M,41.2,M,,*6A
$GPGSA,A,3,23,27,29,26,08,18,,,,,,,1.97,1.29,1.49*01
$GPGSV,3,1,09,07,01,330,,08,13,296,40,10,,,46,16,,,25*74
$GPGSV,3,2,09,18,40,050,40,23,57,102,32,26,53,192,43,27,46,307,41*75
$GPGSV,3,3,09,29,07,100,35*4B
$GPGLL,4049.57100,N,01413.45714,E,163353.00,A,A*66
$GPGST,163353.00,11,,,,1.6,1.4,3.4*53
!AIVDM,1,1,,A,33cb;i5000Q1E@>GGeMEVc?L0P00,0*60
!AIVDM,1,1,,A,13cW678P4e117BTGF062F?wN0d19,0*20
!AIVDM,1,1,,B,13cWAL0P4dQ1>R6GFj;KmOwT08Mm,0*26
$GPRMC,163354.00,A,4049.57100,N,01413.45714,E,0.000,183.28,240322,3.76,E,A*3A
$GPVTG,183.28,T,179.52,M,0.000,N,0.000,K,A*2B
$GPGGA,163354.00,4049.57100,N,01413.45714,E,1,05,1.31,14.7,M,41.2,M,,*67
$GPGSA,A,3,27,29,26,08,18,,,,,,,,2.14,1.31,1.70*0B
$GPGSV,3,1,09,07,01,330,,08,13,296,40,10,,,46,16,,,31*71
$GPGSV,3,2,09,18,40,050,42,23,57,102,,26,53,192,42,27,46,307,40*76
$GPGSV,3,3,09,29,07,100,33*4D
$GPGLL,4049.57100,N,01413.45714,E,163354.00,A,A*61
$GPGST,163354.00,9.2,,,,1.6,1.3,3.4*76
!AIVDM,1,1,,B,402FhOQvHt@Qk11BePGGgg700HN6,0*63
!AIVDM,1,1,,A,13cmfm0P0t11FGTGGRJ2ngwR0<1M,0*26
!AIVDM,1,1,,A,13cVTr0P4UQ1?aPGFI39Ggw`00S?,0*41
!AIVDM,1,1,,B,ENjOspPr?@6a9Qh70`62aP000000PaJ<;co0P00000N010,4*0B
$GPRMC,163355.00,A,4049.57100,N,01413.45714,E,0.000,183.28,240322,3.76,E,A*3B
$GPVTG,183.28,T,179.52,M,0.000,N,0.000,K,A*2B
$GPGGA,163355.00,4049.57100,N,01413.45714,E,1,06,1.31,14.7,M,41.2,M,,*65
$GPGSA,A,3,23,27,29,26,08,18,,,,,,,2.14,1.31,1.70*0A
$GPGSV,3,1,09,07,01,330,,08,13,296,40,10,,,47,16,,,31*70
$GPGSV,3,2,09,18,40,050,42,23,57,102,28,26,53,192,42,27,46,307,40*7C
$GPGSV,3,3,09,29,07,100,32*4C
$GPGLL,4049.57100,N,01413.45714,E,163355.00,A,A*60
$GPGST,163355.00,11,,,,1.6,1.3,3.4*52
!AIVDM,1,1,,B,13cW678P4e117HPGF0J2F?wP0d19,0*4F
!AIVDM,1,1,,A,19NSGK000h11L96GEqhQN17`0@Np,0*08
!AIVDM,1,1,,A,13cf8P0P0111D9hGGaOsOwwb00SB,0*5C
!AIVDM,1,1,,B,33crd1501411H0jGGPN4R3a`05R3,0*5D
$GPRMC,163356.00,A,4049.57100,N,01413.45714,E,0.000,183.28,240322,3.76,E,A*38
$GPVTG,183.28,T,179.52,M,0.000,N,0.000,K,A*2B
$GPGGA,163356.00,4049.57100,N,01413.45714,E,1,06,1.29,14.7,M,41.2,M,,*6F
$GPGSA,A,3,23,27,29,26,08,18,,,,,,,1.97,1.29,1.49*01
$GPGSV,3,1,09,07,01,330,,08,13,296,39,10,,,46,16,,,25*7A
!AIVDM,1,1,,A,13cWAL0P4eQ1>LFGFjRcmww`0<0i,0*7A
$GPGSV,3,2,09,18,40,050,43,23,57,102,28,26,53,192,43,27,46,307,42*7E
$GPGSV,3,3,09,29,07,100,39*47
$GPGLL,4049.57100,N,01413.45714,E,163356.00,A,A*63
$GPGST,163356.00,16,,,,1.5,1.3,3.3*52
!AIVDM,1,1,,B,13cVTr0P4VQ1?SlGFHfaGgwd0<0U,0*42
$GPRMC,163357.00,A,4049.57100,N,01413.45714,E,0.000,183.28,240322,3.76,E,A*39
$GPVTG,183.28,T,179.52,M,0.000,N,0.000,K,A*2B
$GPGGA,163357.00,4049.57100,N,01413.45714,E,1,06,1.29,14.7,M,41.2,M,,*6E
$GPGSA,A,3,23,27,29,26,08,18,,,,,,,1.97,1.29,1.49*01
$GPGSV,3,1,09,07,01,330,,08,13,296,38,10,,,40,16,,,25*7D
$GPGSV,3,2,09,18,40,050,39,23,57,102,41,26,53,192,43,27,46,307,41*7F
$GPGSV,3,3,09,29,07,100,43*4A
$GPGLL,4049.57100,N,01413.45714,E,163357.00,A,A*62
$GPGST,163357.00,6.7,,,,1.5,1.3,3.2*7A
!AIVDM,1,1,,A,13cW678P4e117NLGF0f2F?wT0`Ou,0*48
!AIVDM,1,1,,B,13cutW5Oi611H:fGGR3T2kGb0<15,0*62
!AIVDM,1,1,,B,13cvGu0000Q1C6@GGg<cf;7b00SG,0*71
$GPRMC,163358.00,A,4049.57100,N,01413.45714,E,0.000,183.28,240322,3.76,E,A*36
$GPVTG,183.28,T,179.52,M,0.000,N,0.000,K,A*2B
$GPGGA,163358.00,4049.57100,N,01413.45714,E,1,06,1.29,14.7,M,41.2,M,,*61
$GPGSA,A,3,23,27,29,26,08,18,,,,,,,1.97,1.29,1.49*01
$GPGSV,3,1,09,07,01,330,,08,13,296,40,10,,,39,16,,,30*78
$GPGSV,3,2,09,18,40,050,40,23,57,102,42,26,53,192,44,27,46,307,37*74
$GPGSV,3,3,09,29,07,100,41*48
$GPGLL,4049.57100,N,01413.45714,E,163358.00,A,A*6D
$GPGST,163358.00,6.1,,,,1.5,1.2,3.1*71
!AIVDM,1,1,,A,13ca`>000111@O`GGQr:2a;b0<1;,0*03
!AIVDM,1,1,,A,13cVTr0P4VQ1?N6GFHJIGOwh0@Ph,0*07
$GPRMC,163359.00,A,4049.57100,N,01413.45714,E,0.000,183.28,240322,3.76,E,A*37
$GPVTG,183.28,T,179.52,M,0.000,N,0.000,K,A*2B
$GPGGA,163359.00,4049.57100,N,01413.45714,E,1,06,1.29,14.7,M,41.2,M,,*60
$GPGSA,A,3,23,27,29,26,08,18,,,,,,,1.97,1.29,1.49*01
$GPGSV,3,1,09,07,01,330,,08,13,296,41,10,,,45,16,,,23*70
$GPGSV,3,2,09,18,40,050,43,23,57,102,42,26,53,192,44,27,46,307,40*77
$GPGSV,3,3,09,29,07,100,41*48
$GPGLL,4049.57100,N,01413.45714,E,163359.00,A,A*6C
$GPGST,163359.00,5.3,,,,1.5,1.2,3.0*70
!AIVDM,1,1,,B,13cW678P4e117QTGF0p2F?w`0`Q3,0*36
!AIVDM,2,1,8,A,53cvVJ02;RIhT<I4001HTp<Dq`v0Hhu8Tt00000t02l0M4t50?RE3PD00000,0*5F
!AIVDM,2,2,8,A,00000000000,2*2C
!AIVDM,1,1,,B,13cfRc0P3LQ1LvHGDnRV6wwh2624,0*2B
$GPRMC,163400.00,A,4049.57100,N,01413.45714,E,0.000,183.28,240322,3.76,E,A*3C
$GPVTG,183.28,T,179.52,M,0.000,N,0.000,K,A*2B
$GPGGA,163400.00,4049.57100,N,01413.45714,E,1,06,1.29,14.7,M,41.2,M,,*6B
$GPGSA,A,3,23,27,29,26,08,18,,,,,,,1.97,1.29,1.49*01
$GPGSV,3,1,09,07,01,330,,08,13,296,40,10,,,45,16,,,21*73
$GPGSV,3,2,09,18,40,050,42,23,57,102,40,26,53,192,43,27,46,307,38*7C
$GPGSV,3,3,09,29,07,100,38*46
$GPGLL,4049.57100,N,01413.45714,E,163400.00,A,A*67
$GPGST,163400.00,5.8,,,,1.5,1.2,3.0*70
!AIVDM,1,1,,A,13cWAL0P4fQ1>@TGFk@snOwh0624,0*02
!AIVDM,1,1,,A,33cvVJ500011BQbGGVTd43wh0000,0*25
!AIVDM,1,1,,B,13cVTr0P4VQ1?HHGFH5qGOwl0624,0*77
$GPRMC,163401.00,A,4049.57100,N,01413.45714,E,0.000,183.28,240322,3.76,E,A*3D
$GPVTG,183.28,T,179.52,M,0.000,N,0.000,K,A*2B
$GPGGA,163401.00,4049.57100,N,01413.45714,E,1,06,1.29,14.7,M,41.2,M,,*6A
$GPGSA,A,3,23,27,29,26,08,18,,,,,,,1.97,1.29,1.49*01
$GPGSV,3,1,09,07,01,330,,08,13,296,40,10,,,35,16,,,20*75
$GPGSV,3,2,09,18,40,050,40,23,57,102,41,26,53,192,43,27,46,307,38*7F
$GPGSV,3,3,09,29,07,100,32*4C
$GPGLL,4049.57100,N,01413.45714,E,163401.00,A,A*66
$GPGST,163401.00,9.5,,,,1.5,1.1,3.0*73
!AIVDM,1,1,,A,13cmw`0OiM11DJ@GGPU4sSwj00R@,0*36
$GPRMC,163402.00,A,4049.57100,N,01413.45714,E,0.000,183.28,240322,3.76,E,A*3E
$GPVTG,183.28,T,179.52,M,0.000,N,0.000,K,A*2B
$GPGGA,163402.00,4049.57100,N,01413.45714,E,1,06,1.29,14.7,M,41.2,M,,*69
$GPGSA,A,3,23,27,29,26,08,18,,,,,,,1.97,1.29,1.49*01
$GPGSV,3,1,09,07,01,330,,08,13,296,35,10,,,32,16,,,21*71
$GPGSV,3,2,09,18,40,050,39,23,57,102,36,26,53,192,40,27,46,307,36*7C
$GPGSV,3,3,09,29,07,100,34*4A
$GPGLL,4049.57100,N,01413.45714,E,163402.00,A,A*65
$GPGST,163402.00,19,,,,1.5,1.2,3.0*59
!AIVDM,1,1,,A,13cVTr0P4VQ1?B`GFGiIG?v000S5,0*76
$GPRMC,163403.00,A,4049.57100,N,01413.45714,E,0.000,183.28,240322,3.76,E,A*3F
$GPVTG,183.28,T,179.52,M,0.000,N,0.000,K,A*2B
$GPGGA,163403.00,4049.57100,N,01413.45714,E,1,06,1.29,14.7,M,41.2,M,,*68
$GPGSA,A,3,23,27,29,26,08,18,,,,,,,1.97,1.29,1.49*01
$GPGSV,3,1,09,07,01,330,,08,13,296,40,10,,,31,16,,,25*74
$GPGSV,3,2,09,18,40,050,42,23,57,102,43,26,53,192,43,27,46,307,40*70
$GPGSV,3,3,09,29,07,100,36*48
$GPGLL,4049.57100,N,01413.45714,E,163403.00,A,A*64
$GPGST,163403.00,14,,,,1.5,1.2,3.0*55
!AIVDM,1,1,,B,13cW678P4e117i<GF1U2Hgwh0l19,0*7A
$GPRMC,163404.00,A,4049.57100,N,01413.45714,E,0.000,183.28,240322,3.76,E,A*38
$GPVTG,183.28,T,179.52,M,0.000,N,0.000,K,A*2B
$GPGGA,163404.00,4049.57100,N,01413.45714,E,1,07,1.15,14.7,M,41.2,M,,*61
$GPGSA,A,3,23,27,29,26,08,10,18,,,,,,1.88,1.15,1.49*01
$GPGSV,3,1,09,07,01,330,,08,13,296,40,10,47,157,31,16,,,23*42
$GPGSV,3,2,09,18,40,050,41,23,57,102,41,26,53,192,42,27,46,307,38*7F
$GPGSV,3,3,09,29,07,100,33*4D
$GPGLL,4049.57100,N,01413.45714,E,163404.00,A,A*63
$GPGST,163404.00,15,,,,1.5,1.2,3.0*53
!AIVDM,1,1,,B,13cmfm0P0u11FNhGGRP30gwn0628,0*14
!AIVDM,1,1,,B,ENjOsp0q?@6a9Qh64c7a77P00000GU6n<ML:p00000N010,4*40
!AIVDM,1,1,,B,13cVTr0P4VQ1?<rGFGLqFwv40813,0*25
$GPRMC,163405.00,A,4049.57100,N,01413.45714,E,0.000,183.28,240322,3.76,E,A*39
$GPVTG,183.28,T,179.52,M,0.000,N,0.000,K,A*2B
$GPGGA,163405.00,4049.57100,N,01413.45714,E,1,07,1.15,14.7,M,41.2,M,,*60
$GPGSA,A,3,23,27,29,26,08,10,18,,,,,,1.88,1.15,1.49*01
$GPGSV,3,1,09,07,01,330,,08,13,296,39,10,47,157,30,16,,,19*44
$GPGSV,3,2,09,18,40,050,38,23,57,101,39,26,53,192,38,27,46,307,30*78
$GPGSV,3,3,09,29,07,100,33*4D
$GPGLL,4049.57100,N,01413.45714,E,163405.00,A,A*62
$GPGST,163405.00,19,,,,1.5,1.2,3.1*5F
!AIVDM,1,1,,A,13cW678P4e117o8GF1q2K?wn0d1:,0*09
!AIVDM,1,1,,A,13cutW5Oi611HAbGGQo49kL40D15,0*0F
!AIVDM,1,1,,B,13cWAL0P4gQ1=w0GFlDsmOv40@1h,0*24
$GPRMC,163406.00,A,4049.57100,N,01413.45714,E,0.000,183.28,240322,3.76,E,A*3A
$GPVTG,183.28,T,179.52,M,0.000,N,0.000,K,A*2B
$GPGGA,163406.00,4049.57100,N,01413.45714,E,1,07,1.15,14.7,M,41.2,M,,*63
!AIVDM,1,1,,B,13cf8P0P0111D:0GGaP;M?v60@1l,0*70
$GPGSA,A,3,23,27,29,26,08,10,18,,,,,,1.88,1.15,1.49*01
$GPGSV,3,1,09,07,01,330,,08,13,296,38,10,47,157,24,16,,,27*4D
!AIVDM,1,1,,B,35U1S6100111M3PGFdNKEoP60EB:,0*2D
$GPGSV,3,2,09,18,40,050,40,23,57,101,41,26,53,192,41,27,46,307,41*70
$GPGSV,3,3,09,29,07,100,35*4B
$GPGLL,4049.57100,N,01413.45714,E,163406.00,A,A*61
$GPGST,163406.00,20,,,,1.5,1.2,3.0*57
!AIVDM,1,1,,B,33FB78500011EB2GGVGL71WpPP00,0*62
!AIVDM,1,1,,B,D02FhOP2LN?b<`N00m8v000,2*3C
!AIVDM,1,1,,A,13cVTr0P4VQ1?7:GFG7qFgv80<0U,0*61
!AIVDM,1,1,,A,13cvAe5000Q1A`hGGVh5<Sh40628,0*0D
$GPRMC,163407.00,A,4049.57100,N,01413.45714,E,0.000,183.28,240322,3.76,E,A*3B
$GPVTG,183.28,T,179.52,M,0.000,N,0.000,K,A*2B
$GPGGA,163407.00,4049.57100,N,01413.45714,E,1,07,1.15,14.7,M,41.2,M,,*62
$GPGSA,A,3,23,27,29,26,08,10,18,,,,,,1.88,1.15,1.49*01
!AIVDM,1,1,,A,13cvGu0001Q1C6<GGg;qac660<0u,0*4D
$GPGSV,3,1,09,07,01,330,,08,13,296,40,10,47,157,33,16,,,28*4B
$GPGSV,3,2,09,18,40,050,41,23,57,101,36,26,53,192,43,27,46,307,35*70
$GPGSV,3,3,09,29,07,100,35*4B
$GPGLL,4049.57100,N,01413.45714,E,163407.00,A,A*60
$GPGST,163407.00,11,,,,1.5,1.2,3.1*55
!AIVDM,1,1,,B,13cW678P4e117uHGF2=2K?v20`2S,0*1C
!AIVDM,1,1,,A,13crd1501411H8>GGP4TVkb60<1F,0*0C
!AIVDM,1,1,,A,13cWAL0P4gQ1=q<GFld;m?v80628,0*1C
$GPRMC,163408.00,A,4049.57100,N,01413.45714,E,0.000,183.28,240322,3.76,E,A*34
$GPVTG,183.28,T,179.52,M,0.000,N,0.000,K,A*2B
$GPGGA,163408.00,4049.57100,N,01413.45714,E,1,07,1.15,14.7,M,41.2,M,,*6D
$GPGSA,A,3,23,27,29,26,08,10,18,,,,,,1.88,1.15,1.49*01
$GPGSV,3,1,09,07,01,330,,08,13,296,40,10,47,157,36,16,,,29*4F
$GPGSV,3,2,09,18,40,050,41,23,57,101,36,26,53,191,42,27,46,307,38*7F
$GPGSV,3,3,09,29,07,100,38*46
$GPGLL,4049.57100,N,01413.45714,E,163408.00,A,A*6F
$GPGST,163408.00,7.9,,,,1.5,1.1,3.0*78
!AIVDM,1,1,,B,13cVTr0P4WQ1?4BGFFuaFOv:083D,0*77
!AIVDM,2,1,9,B,53cutW82EV:pTaIK:20L4hiEa`v222222222220l1P<847;`0>CPD3k2H888,0*2B
!AIVDM,2,2,9,B,88888888880,2*2E
$GPRMC,163409.00,A,4049.57100,N,01413.45714,E,0.000,183.28,240322,3.76,E,A*35
$GPVTG,183.28,T,179.52,M,0.000,N,0.000,K,A*2B
$GPGGA,163409.00,4049.57100,N,01413.45714,E,1,07,1.15,14.7,M,41.2,M,,*6C
$GPGSA,A,3,23,27,29,26,08,10,18,,,,,,1.88,1.15,1.49*01
$GPGSV,3,1,09,07,01,330,,08,13,296,41,10,47,157,38,16,,,30*48
$GPGSV,3,2,09,18,40,050,40,23,57,101,39,26,53,191,42,27,46,307,37*7E
$GPGSV,3,3,09,29,07,100,39*47
$GPGLL,4049.57100,N,01413.45714,E,163409.00,A,A*6E
$GPGST,163409.00,6.2,,,,1.5,1.1,3.0*73
!AIVDM,1,1,,A,13ctG30P0011Cv2GGhGP0?v<283n,0*4D
!AIVDM,1,1,,A,13cW678P4e1183DGF2Q2K?v40p3q,0*03
$GPRMC,163410.00,A,4049.57100,N,01413.45714,E,0.000,183.28,240322,3.76,E,A*3D
$GPVTG,183.28,T,179.52,M,0.000,N,0.000,K,A*2B
$GPGGA,163410.00,4049.57100,N,01413.45714,E,1,07,1.15,14.7,M,41.2,M,,*64
!AIVDM,1,1,,B,13cWAL0P4gQ1=kHGFm3;m?v<00S<,0*40
$GPGSA,A,3,23,27,29,26,08,10,18,,,,,,1.88,1.15,1.49*01
$GPGSV,3,1,09,07,01,330,,08,13,296,41,10,47,157,39,16,,,27*4F
$GPGSV,3,2,09,18,40,050,40,23,57,101,41,26,53,191,39,27,46,307,38*72
$GPGSV,3,3,09,29,07,100,37*49
$GPGLL,4049.57100,N,01413.45714,E,163410.00,A,A*66
$GPGST,163410.00,6.1,,,,1.5,1.1,2.9*70
!AIVDM,1,1,,B,13ci>S0P00Q1Cm8GGhDf4?v>2628,0*51
!AIVDM,1,1,,A,13cVTr0P4WQ1>sdGFFMaEgv@0<0U,0*6B
$GPRMC,163411.00,A,4049.57100,N,01413.45714,E,0.000,183.28,240322,3.76,E,A*3C
$GPVTG,183.28,T,179.52,M,0.000,N,0.000,K,A*2B
$GPGGA,163411.00,4049.57100,N,01413.45714,E,1,07,1.15,14.7,M,41.2,M,,*65
$GPGSA,A,3,23,27,29,26,08,10,18,,,,,,1.88,1.15,1.49*01
!AIVDM,1,1,,B,13cmw`001M11DRfGGOs4w3v>084h,0*62
$GPGSV,3,1,09,07,01,330,,08,13,296,40,10,47,157,35,16,,,26*43
$GPGSV,3,2,09,18,40,050,42,23,57,101,37,26,53,191,39,27,46,307,38*71
$GPGSV,3,3,09,29,07,101,38*47
$GPGLL,4049.57100,N,01413.45714,E,163411.00,A,A*67
$GPGST,163411.00,7.7,,,,1.5,1.1,2.9*76
!AIVDM,1,1,,B,13cW678P4e118<HGF2w2K?v80`4v,0*39
!AIVDM,1,1,,A,13cWAL0P4gQ1=eTGFmJKmOv@00SB,0*2A
$GPRMC,163412.00,A,4049.57100,N,01413.45714,E,0.000,183.28,240322,3.76,E,A*3F
$GPVTG,183.28,T,179.52,M,0.000,N,0.000,K,A*2B
$GPGGA,163412.00,4049.57100,N,01413.45714,E,1,07,1.15,14.7,M,41.2,M,,*66
$GPGSA,A,3,23,27,29,26,08,10,18,,,,,,1.88,1.15,1.49*01
$GPGSV,3,1,09,07,01,330,,08,13,296,37,10,47,157,31,16,,,26*47
$GPGSV,3,2,09,18,40,050,38,23,57,101,32,26,53,191,34,27,46,307,36*7A
$GPGSV,3,3,09,29,07,101,33*4C
$GPGLL,4049.57100,N,01413.45714,E,163412.00,A,A*64
$GPGST,163412.00,21,,,,1.5,1.1,2.9*58
!AIVDM,1,1,,A,33ca`>0Oh311@O`GGQoVLaH>01r0,0*41
!AIVDM,1,1,,B,13cVTr0P4WQ1>plGFFC9EgvB00SA,0*4C
$GPRMC,163413.00,A,4049.57100,N,01413.45714,E,0.000,183.28,240322,3.76,E,A*3E
$GPVTG,183.28,T,179.52,M,0.000,N,0.000,K,A*2B
$GPGGA,163413.00,4049.57100,N,01413.45714,E,1,07,1.15,14.7,M,41.2,M,,*67
$GPGSA,A,3,23,27,29,26,08,10,18,,,,,,1.88,1.15,1.49*01
$GPGSV,3,1,09,07,01,330,,08,13,296,41,10,47,157,35,16,,,27*43
$GPGSV,3,2,09,18,40,050,41,23,57,101,35,26,53,191,38,27,46,307,39*70
$GPGSV,3,3,09,29,07,101,38*47
$GPGLL,4049.57100,N,01413.45714,E,163413.00,A,A*65
$GPGST,163413.00,14,,,,1.5,1.1,2.9*5F
!AIVDM,1,1,,A,13cW678P4e118BDGF3C2Hgv>0p65,0*71
$GPRMC,163414.00,A,4049.57100,N,01413.45714,E,0.000,183.28,240322,3.76,E,A*39
$GPVTG,183.28,T,179.52,M,0.000,N,0.000,K,A*2B
$GPGGA,163414.00,4049.57100,N,01413.45714,E,1,07,1.15,14.7,M,41.2,M,,*60
$GPGSA,A,3,23,27,29,26,08,10,18,,,,,,1.88,1.15,1.49*01
$GPGSV,3,1,09,07,01,330,,08,13,296,40,10,47,157,35,16,,,25*40
!AIVDM,1,1,,B,13cWAL0P4hQ1=WfGFmiKmgvD00S4,0*5F
$GPGSV,3,2,09,18,40,050,39,23,57,101,36,26,53,191,39,27,46,307,40*73
$GPGSV,3,3,09,29,07,101,38*47
$GPGLL,4049.57100,N,01413.45714,E,163414.00,A,A*62
$GPGST,163414.00,11,,,,1.5,1.1,2.9*5D
!AIVDM,1,1,,A,13cmfm0P0u11FUtGGRW35gvB0<1M,0*43
!AIVDM,1,1,,B,402FhOQvHt@R;11BePGGgg700D17,0*42
!AIVDM,1,1,,A,13cVTr0P4WQ1>k4GFEuqEOvF0<0U,0*26
$GPRMC,163415.00,A,4049.57100,N,01413.45714,E,0.000,183.28,240322,3.76,E,A*38
$GPVTG,183.28,T,179.52,M,0.000,N,0.000,K,A*2B
$GPGGA,163415.00,4049.57100,N,01413.45714,E,1,07,1.15,14.7,M,41.2,M,,*61
$GPGSA,A,3,23,27,29,26,08,10,18,,,,,,1.88,1.15,1.49*01
$GPGSV,3,1,09,07,01,330,,08,13,296,41,10,47,157,36,16,,,22*45
$GPGSV,3,2,09,18,40,050,36,23,57,101,34,26,53,191,40,27,46,307,40*70
$GPGSV,3,3,09,29,07,101,36*49
$GPGLL,4049.57100,N,01413.45714,E,163415.00,A,A*63
$GPGST,163415.00,10,,,,1.5,1.1,2.9*5D
!AIVDM,1,1,,B,13cW678P4e118BDGF3C2Hgv@0`7B,0*6A
$GPRMC,163416.00,A,4049.57100,N,01413.45714,E,0.000,183.28,240322,3.76,E,A*3B
$GPVTG,183.28,T,179.52,M,0.000,N,0.000,K,A*2B
$GPGGA,163416.00,4049.57100,N,01413.45714,E,1,07,1.15,14.7,M,41.2,M,,*62
$GPGSA,A,3,23,27,29,26,08,10,18,,,,,,1.88,1.15,1.49*01
$GPGSV,3,1,09,07,01,330,,08,13,296,37,10,47,157,32,16,,,24*46
!AIVDM,1,1,,A,13cWAL0P4hQ1=QrGFn8cmwvH087d,0*14
$GPGSV,3,2,09,18,40,050,37,23,57,101,36,26,53,191,38,27,46,307,39*72
$GPGSV,3,3,09,29,07,101,37*48
$GPGLL,4049.57100,N,01413.45714,E,163416.00,A,A*60
$GPGST,163416.00,11,,,,1.6,1.1,2.9*5C
!AIVDM,1,1,,A,13cf8P0P0011D9jGGaQ;WgvJ0628,0*35
!AIVDM,2,1,0,A,59NSGK02;TctCDLk>20m<>1<4v105Dhv2222221:Npg<D4t;0ICPD31Dp888,0*51
!AIVDM,2,2,0,A,88888888880,2*24
!AIVDM,1,1,,A,19NSGK000g11L@0GErWANQ6J0628,0*5D
!AIVDM,1,1,,B,13crd1501411H>HGGOg4aS`H00SS,0*5B
!AIVDM,1,1,,B,13cutW5Oi611HI@GGQVlBkRH0<15,0*26
$GPRMC,163417.00,A,4049.57100,N,01413.45714,E,0.000,183.28,240322,3.76,E,A*3A
$GPVTG,183.28,T,179.52,M,0.000,N,0.000,K,A*2B
$GPGGA,163417.00,4049.57100,N,01413.45714,E,1,07,1.15,14.7,M,41.2,M,,*63
$GPGSA,A,3,23,27,29,26,08,10,18,,,,,,1.88,1.15,1.49*01
$GPGSV,3,1,09,07,01,330,,08,13,296,38,10,47,157,36,16,,,27*4E
$GPGSV,3,2,09,18,40,050,37,23,57,101,36,26,53,191,38,27,46,307,37*7C
$GPGSV,3,3,09,29,07,101,38*47
$GPGLL,4049.57100,N,01413.45714,E,163417.00,A,A*61
$GPGST,163417.00,8.8,,,,1.6,1.1,2.9*73
!AIVDM,1,1,,B,13cvGu0001Q1C68GGg<@Pc6J0628,0*74
!AIVDM,1,1,,B,13cvAe5001Q1A`hGGVh5S3hH0628,0*7C
!AIVDM,1,1,,A,13cW678P4d118NPGF3s2HgvF0V28,0*0F
$GPRMC,163418.00,A,4049.57100,N,01413.45714,E,0.000,183.28,240322,3.76,E,A*35
$GPVTG,183.28,T,179.52,M,0.000,N,0.000,K,A*2B
$GPGGA,163418.00,4049.57100,N,01413.45714,E,1,07,1.15,14.7,M,41.2,M,,*6C
$GPGSA,A,3,23,27,29,26,08,10,18,,,,,,1.88,1.15,1.49*01
$GPGSV,3,1,09,07,01,330,,08,13,296,38,10,47,157,32,16,,,28*45
$GPGSV,3,2,09,18,40,050,40,23,57,101,36,26,53,191,40,27,46,307,39*7D
$GPGSV,3,3,09,29,07,101,41*49
$GPGLL,4049.57100,N,01413.45714,E,163418.00,A,A*6E
$GPGST,163418.00,10,,,,1.6,1.1,2.9*53
!AIVDM,1,1,,B,13cWAL0P4hQ1=L8GFnOsn?vL00S8,0*58
!AIVDM,1,1,,B,13ctG30P0011Cv2GGhGP0?vL20SG,0*7F
!AIVDM,1,1,,A,13cfRc0P3LQ1MB>GDjHV7?vN2L1M,0*1B
!AIVDM,1,1,,A,13cVTr0P4WQ1>QjGFDvIE?vP0@9I,0*77
$GPRMC,163419.00,A,4049.57100,N,01413.45714,E,0.000,183.28,240322,3.76,E,A*34
$GPVTG,183.28,T,179.52,M,0.000,N,0.000,K,A*2B
$GPGGA,163419.00,4049.57100,N,01413.45714,E,1,07,1.15,14.7,M,41.2,M,,*6D
$GPGSA,A,3,23,27,29,26,08,10,18,,,,,,1.88,1.15,1.49*01
$GPGSV,3,1,09,07,01,330,,08,13,296,36,10,47,157,32,16,,,28*4B
$GPGSV,3,2,09,18,40,050,39,23,57,101,38,26,53,191,37,27,46,307,38*7C
$GPGSV,3,3,09,29,07,101,36*49
$GPGLL,4049.57100,N,01413.45714,E,163419.00,A,A*6F
!AIVDM,1,1,,A,13ca`>0Oh411@OtGGQoV8aPJ00S:,0*62
$GPGST,163419.00,11,,,,1.6,1.1,2.9*53
!AIVDM,1,1,,B,13cW678P4e118Q`GF44jHgvJ0d1;,0*04
!AIVDM,1,1,,A,13cWAL0P4hQ1=FDGFno;nOvP0<0m,0*13
$GPRMC,163420.00,A,4049.57100,N,01413.45714,E,0.000,183.28,240322,3.76,E,A*3E
$GPVTG,183.28,T,179.52,M,0.000,N,0.000,K,A*2B
$GPGGA,163420.00,4049.57100,N,01413.45714,E,1,07,1.15,14.7,M,41.2,M,,*67
$GPGSA,A,3,23,27,29,26,08,10,18,,,,,,1.88,1.15,1.49*01
$GPGSV,3,1,09,07,01,330,,08,13,296,36,10,47,157,35,16,,,28*4C
$GPGSV,3,2,09,18,40,050,37,23,57,101,35,26,53,191,37,27,46,307,37*70
$GPGSV,3,3,09,29,07,101,36*49
$GPGLL,4049.57100,N,01413.45714,E,163420.00,A,A*65
$GPGST,163420.00,11,,,,1.6,1.2,2.9*5A
!AIVDM,1,1,,B,13cVTr0P4WQ1>QjGFDvIE?vR08:J,0*0E
$GPRMC,163421.00,A,4049.57100,N,01413.45714,E,0.000,183.28,240322,3.76,E,A*3F
$GPVTG,183.28,T,179.52,M,0.000,N,0.000,K,A*2B
$GPGGA,163421.00,4049.57100,N,01413.45714,E,1,07,1.15,14.7,M,41.2,M,,*66
$GPGSA,A,3,23,27,29,26,08,10,18,,,,,,1.88,1.15,1.49*01
!AIVDM,1,1,,A,13cmw`0OiM11Dc8GGOBTuSvR0H:W,0*37
$GPGSV,3,1,09,07,01,330,,08,13,296,38,10,47,157,34,16,,,26*4D
$GPGSV,3,2,09,18,40,050,38,23,57,101,38,26,53,191,36,27,46,307,36*72
$GPGSV,3,3,09,29,07,101,35*4A
$GPGLL,4049.57100,N,01413.45714,E,163421.00,A,A*64
$GPGST,163421.00,10,,,,1.6,1.2,2.9*5A
!AIVDM,1,1,,B,35TLcf5200117IdGG7RsJakqRP00,0*06
!AIVDM,1,1,,A,13cW678P4e118WTGF4FRHgvL0d1;,0*79
$GPRMC,163422.00,A,4049.57100,N,01413.45714,E,0.000,183.28,240322,3.76,E,A*3C
$GPVTG,183.28,T,179.52,M,0.000,N,0.000,K,A*2B
$GPGGA,163422.00,4049.57100,N,01413.45714,E,1,07,1.15,14.7,M,41.2,M,,*65
$GPGSA,A,3,23,27,29,26,08,10,18,,,,,,1.88,1.15,1.49*01
$GPGSV,3,1,09,07,01,330,,08,13,296,36,10,47,157,30,16,,,26*47
$GPGSV,3,2,09,18,40,050,35,23,57,101,35,26,53,191,33,27,46,307,34*75
$GPGSV,3,3,09,29,07,101,32*4D
$GPGLL,4049.57100,N,01413.45714,E,163422.00,A,A*67
$GPGST,163422.00,17,,,,1.7,1.2,3.0*57
!AIVDM,1,1,,B,13cWAL0P4hQ1=@RGFo>KngvT0628,0*51
!AIVDM,1,1,,A,D02FhOQRHN?b<`N01ptv000,2*0A
!AIVDM,1,1,,B,33ca`>0Oh511@P@GGQm5t9RR01s0,0*0D
!AIVDM,1,1,,A,13cVTr0P4WQ1>I8GFDNqEOvV00SE,0*5D
$GPRMC,163423.00,A,4049.57100,N,01413.45714,E,0.000,183.28,240322,3.76,E,A*3D
$GPVTG,183.28,T,179.52,M,0.000,N,0.000,K,A*2B
$GPGGA,163423.00,4049.57100,N,01413.45714,E,1,07,1.15,14.7,M,41.2,M,,*64
$GPGSA,A,3,23,27,29,26,08,10,18,,,,,,1.88,1.15,1.49*01
$GPGSV,3,1,09,07,01,330,,08,13,296,37,10,47,157,34,16,,,25*41
$GPGSV,3,2,09,18,40,050,38,23,57,101,38,26,53,191,36,27,46,307,37*73
$GPGSV,3,3,09,29,07,101,37*48
$GPGLL,4049.57100,N,01413.45714,E,163423.00,A,A*66
$GPGST,163423.00,10,,,,1.7,1.2,3.0*51
!AIVDM,1,1,,A,13cWAL0P4hQ1=:fGFoUcngv`0@<@,0*6B
$GPRMC,163424.00,A,4049.57100,N,01413.45714,E,0.000,183.28,240322,3.76,E,A*3A
$GPVTG,183.28,T,179.52,M,0.000,N,0.000,K,A*2B
$GPGGA,163424.00,4049.57100,N,01413.45714,E,1,07,1.15,14.7,M,41.2,M,,*63
$GPGSA,A,3,23,27,29,26,08,10,18,,,,,,1.88,1.15,1.49*01
$GPGSV,3,1,09,07,01,330,,08,13,296,37,10,47,157,33,16,,,34*46
$GPGSV,3,2,09,18,40,050,38,23,57,101,37,26,53,191,38,27,46,307,37*72
$GPGSV,3,3,09,29,07,101,38*47
$GPGLL,4049.57100,N,01413.45714,E,163424.00,A,A*61
$GPGST,163424.00,9.8,,,,1.7,1.2,3.0*78
!AIVDM,1,1,,A,402FhOQvHt@RE11BePGGgg700D17,0*3F
!AIVDM,1,1,,B,33cfRc0P3KQ1MH8GDi469Ovb20=3,0*52
!AIVDM,1,1,,B,13cVTr0P4WQ1>CDGFD9qEgvb0628,0*59
!AIVDM,1,1,,B,13cf8P0P0111D9pGGaQKk?vd0<0o,0*48
$GPRMC,163425.00,A,4049.57100,N,01413.45714,E,0.000,183.28,240322,3.76,E,A*3B
$GPVTG,183.28,T,179.52,M,0.000,N,0.000,K,A*2B
$GPGGA,163425.00,4049.57100,N,01413.45714,E,1,07,1.15,14.7,M,41.2,M,,*62
$GPGSA,A,3,23,27,29,26,08,10,18,,,,,,1.88,1.15,1.49*01
$GPGSV,3,1,09,07,01,330,,08,13,296,37,10,47,157,34,16,,,34*41
$GPGSV,3,2,09,18,40,050,37,23,57,101,37,26,53,191,38,27,46,307,35*7F
$GPGSV,3,3,09,29,07,101,38*47
$GPGLL,4049.57100,N,01413.45714,E,163425.00,A,A*60
$GPGST,163425.00,10,,,,1.7,1.2,3.0*57
!AIVDM,1,1,,A,33ca`>0Oh811@PpGGQm5N9VV010h,0*12
!AIVDM,1,1,,A,13cW678P4e118khGF4vRHgvT0`==,0*5F
!AIVDM,1,1,,B,13cWAL0P4hQ1=4rGFou;nwvd08=P,0*77
$GPRMC,163426.00,A,4049.57100,N,01413.45714,E,0.000,183.28,240322,3.76,E,A*38
$GPVTG,183.28,T,179.52,M,0.000,N,0.000,K,A*2B
$GPGGA,163426.00,4049.57100,N,01413.45714,E,1,07,1.15,14.7,M,41.2,M,,*61
$GPGSA,A,3,23,27,29,26,08,10,18,,,,,,1.88,1.15,1.49*01
$GPGSV,3,1,09,07,01,330,,08,13,296,39,10,47,157,35,16,,,34*4E
!AIVDM,2,1,1,B,53cfRc400000UE8V220I8D<<T60BL58LDq@v220t0@2D5tt`004klTQCU3sC,0*70
!AIVDM,2,2,1,B,PD3k2H5W5`0,2*27
$GPGSV,3,2,09,18,40,050,38,23,57,101,34,26,53,191,39,27,46,307,35*72
$GPGSV,3,3,09,29,07,101,41*49
$GPGLL,4049.57100,N,01413.45714,E,163426.00,A,A*63
$GPGST,163426.00,10,,,,1.7,1.2,2.9*5C
!AIVDM,1,1,,A,13cVTr0P4WQ1>=RGFCm9Ewvf0L0U,0*28
$GPRMC,163427.00,A,4049.57100,N,01413.45714,E,0.000,183.28,240322,3.76,E,A*39
$GPVTG,183.28,T,179.52,M,0.000,N,0.000,K,A*2B
$GPGGA,163427.00,4049.57100,N,01413.45714,E,1,07,1.15,14.7,M,41.2,M,,*60
$GPGSA,A,3,23,27,29,26,08,10,18,,,,,,1.88,1.15,1.49*01
$GPGSV,3,1,09,07,01,330,,08,13,296,38,10,47,157,33,16,,,34*49
$GPGSV,3,2,09,18,40,050,37,23,57,101,35,26,53,191,39,27,46,307,35*7C
$GPGSV,3,3,09,29,07,101,41*49
$GPGLL,4049.57100,N,01413.45714,E,163427.00,A,A*62
$GPGST,163427.00,11,,,,1.7,1.2,2.9*5C
!AIVDM,1,1,,A,13crd1501411HF4GGOFDaSVf08>D,0*67
!AIVDM,1,1,,B,13cW678P4e118qdGF5BRHgv`0`>J,0*3F
!AIVDM,1,1,,A,13cWAL0P4hQ1<w8GFpDKnwvh0<0n,0*19
$GPRMC,163428.00,A,4049.57100,N,01413.45714,E,0.000,183.28,240322,3.76,E,A*36
$GPVTG,183.28,T,179.52,M,0.000,N,0.000,K,A*2B
$GPGGA,163428.00,4049.57100,N,01413.45714,E,1,07,1.15,14.7,M,41.2,M,,*6F
$GPGSA,A,3,23,27,29,26,08,10,18,,,,,,1.88,1.15,1.49*01
$GPGSV,3,1,09,07,01,330,,08,13,296,38,10,47,157,33,16,,,31*4C
$GPGSV,3,2,09,18,40,050,38,23,57,101,36,26,53,191,38,27,46,307,32*76
$GPGSV,3,3,09,29,07,101,38*47
$GPGLL,4049.57100,N,01413.45714,E,163428.00,A,A*6D
$GPGST,163428.00,12,,,,1.7,1.2,2.9*50
!AIVDM,1,1,,B,13ca`>0Oh:11@Q<GGQjUAabf0628,0*3D
!AIVDM,1,1,,B,13cVTr0P4WQ1>7fGFCP9Ewvj00SF,0*28
$GPRMC,163429.00,A,4049.57100,N,01413.45714,E,0.000,183.28,240322,3.76,E,A*37
$GPVTG,183.28,T,179.52,M,0.000,N,0.000,K,A*2B
$GPGGA,163429.00,4049.57100,N,01413.45714,E,1,07,1.15,14.7,M,41.2,M,,*6E
$GPGSA,A,3,23,27,29,26,08,10,18,,,,,,1.88,1.15,1.49*01
$GPGSV,3,1,09,07,01,330,,08,13,296,37,10,47,157,34,16,,,32*47
$GPGSV,3,2,09,18,40,050,38,23,57,101,38,26,53,191,39,27,46,307,41*7D
$GPGSV,3,3,09,29,07,101,38*47
$GPGLL,4049.57100,N,01413.45714,E,163429.00,A,A*6C
$GPGST,163429.00,8.6,,,,1.7,1.2,2.9*72
!AIVDM,1,1,,A,13ctG30P0011Cv2GGhGP0?vj28?F,0*3F
!AIVDM,1,1,,A,13cW678P4e118w`GF5a2Hgvd0PS5,0*5B
!AIVDM,1,1,,B,13cWAL0P4hQ1<qBGFpcKo?vl0628,0*52
$GPRMC,163430.00,A,4049.57100,N,01413.45714,E,0.000,183.28,240322,3.76,E,A*3F
!AIVDM,1,1,,B,13cc0q3P00Q1C5rGGfeoVOvl0628,0*02
$GPVTG,183.28,T,179.52,M,0.000,N,0.000,K,A*2B
$GPGGA,163430.00,4049.57100,N,01413.45714,E,1,07,1.15,14.7,M,41.2,M,,*66
$GPGSA,A,3,23,27,29,26,08,10,18,,,,,,1.88,1.15,1.49*01
$GPGSV,3,1,09,07,01,330,,08,13,296,37,10,47,157,35,16,,,31*45
$GPGSV,3,2,09,18,40,050,38,23,57,101,38,26,53,191,38,27,46,307,41*7C
$GPGSV,3,3,09,29,07,101,38*47
$GPGLL,4049.57100,N,01413.45714,E,163430.00,A,A*64
$GPGST,163430.00,8.2,,,,1.7,1.2,2.9*7E
!AIVDM,1,1,,B,13cmw`001M11DjvGGNh4wl0l08@9,0*3E
!AIVDM,1,1,,A,13cVTr0P4WQ1>1tGFC;9F?vn0628,0*02
!AIVDM,1,1,,B,ENjO`0k2psLq@30W0V2h2CPb:2a0Q7bV;a28@10888N004PAijCh,0*36
$GPRMC,163431.00,A,4049.57100,N,01413.45714,E,0.000,183.28,240322,3.76,E,A*3E
$GPVTG,183.28,T,179.52,M,0.000,N,0.000,K,A*2B
$GPGGA,163431.00,4049.57100,N,01413.45714,E,1,07,1.15,14.7,M,41.2,M,,*67
$GPGSA,A,3,23,27,29,26,08,10,18,,,,,,1.88,1.15,1.49*01
$GPGSV,3,1,09,07,01,330,,08,13,296,34,10,47,157,28,16,,,30*4B
$GPGSV,3,2,09,18,40,050,38,23,57,101,38,26,53,191,38,27,46,307,38*72
$GPGSV,3,3,09,29,07,101,36*49
$GPGLL,4049.57100,N,01413.45714,E,163431.00,A,A*65
$GPGST,163431.00,14,,,,1.7,1.2,2.9*5E
!AIVDM,1,1,,B,13cW678P4e1195TGF5u2Hgvh0PS=,0*3F
!AIVDM,1,1,,B,13ci>S0P00Q1Cm8GGhDf4?vp2@@l,0*4F
$GPRMC,163432.00,A,4049.57100,N,01413.45714,E,0.000,183.28,240322,3.76,E,A*3D
$GPVTG,183.28,T,179.52,M,0.000,N,0.000,K,A*2B
$GPGGA,163432.00,4049.57100,N,01413.45714,E,1,07,1.15,14.7,M,41.2,M,,*64
$GPGSA,A,3,23,27,29,26,08,10,18,,,,,,1.88,1.15,1.49*01
$GPGSV,3,1,09,07,01,330,,08,13,296,33,10,47,157,29,16,,,28*44
$GPGSV,3,2,09,18,40,050,36,23,57,101,36,26,53,191,31,27,46,307,33*70
$GPGSV,3,3,09,29,07,101,33*4C
$GPGLL,4049.57100,N,01413.45714,E,163432.00,A,A*66
$GPGST,163432.00,18,,,,1.8,1.2,3.0*56
!AIVDM,1,1,,A,13cWAL0P4hQ1<kLGFq2co?vp08A7,0*53
!AIVDM,1,1,,B,13cVTr0P4WQ1=q<GFBcqF?vt0<0U,0*64
$GPRMC,163433.00,A,4049.57100,N,01413.45714,E,0.000,183.28,240322,3.76,E,A*3C
$GPVTG,183.28,T,179.52,M,0.000,N,0.000,K,A*2B
$GPGGA,163433.00,4049.57100,N,01413.45714,E,1,07,1.15,14.7,M,41.2,M,,*65
$GPGSA,A,3,23,27,29,26,08,10,18,,,,,,1.88,1.15,1.49*01
$GPGSV,3,1,09,07,01,330,,08,13,296,38,10,47,157,28,16,,,32*45
$GPGSV,3,2,09,18,40,050,39,23,57,101,40,26,53,191,39,27,46,307,32*77
$GPGSV,3,3,09,29,07,101,28*46
$GPGLL,4049.57100,N,01413.45714,E,163433.00,A,A*67
$GPGST,163433.00,19,,,,1.8,1.2,3.0*56
!AIVDM,1,1,,A,13cW678P4e1198dGF69RF?vl0hAm,0*06
!AIVDM,2,1,2,B,53crd182Eo3DTaE;:21HUH58622222222222220l1@<834E`?<SPD3k2H888,0*7A
!AIVDM,2,2,2,B,88888888880,2*25
!AIVDM,1,1,,B,13cWAL0P4hQ1<eTGFqIsnwvt08B8,0*6C
$GPRMC,163434.00,A,4049.57100,N,01413.45714,E,0.000,183.28,240322,3.76,E,A*3B
$GPVTG,183.28,T,179.52,M,0.000,N,0.000,K,A*2B
$GPGGA,163434.00,4049.57100,N,01413.45714,E,1,07,1.15,14.7,M,41.2,M,,*62
$GPGSA,A,3,23,27,29,26,08,10,18,,,,,,1.88,1.15,1.49*01
$GPGSV,3,1,09,07,01,330,,08,13,296,38,10,47,157,29,16,,,27*40
$GPGSV,3,2,09,18,40,050,37,23,57,101,42,26,53,191,40,27,46,307,41*71
$GPGSV,3,3,09,29,07,101,33*4C
$GPGLL,4049.57100,N,01413.45714,E,163434.00,A,A*60
$GPGST,163434.00,13,,,,1.8,1.2,3.0*5B
!AIVDM,1,1,,B,402FhOQvHt@RO11BePGGgg7000S:,0*2D
!AIVDM,1,1,,A,13cVTr0P4WQ1=nBGFBQ9F?vv00SE,0*01
!AIVDM,1,1,,A,13cmfm0P0t11Fl`GGRb3Dgvt08Bd,0*43
$GPRMC,163435.00,A,4049.57100,N,01413.45714,E,0.000,183.28,240322,3.76,E,A*3A
$GPVTG,183.28,T,179.52,M,0.000,N,0.000,K,A*2B
$GPGGA,163435.00,4049.57100,N,01413.45714,E,1,07,1.15,14.7,M,41.2,M,,*63
$GPGSA,A,3,23,27,29,26,08,10,18,,,,,,1.88,1.15,1.49*01
$GPGSV,3,1,09,07,01,330,,08,13,296,34,10,47,157,34,16,,,20*47
$GPGSV,3,2,09,18,40,050,39,23,57,101,38,26,53,191,35,27,46,307,39*7F
$GPGSV,3,3,09,29,07,101,32*4D
$GPGLL,4049.57100,N,01413.45714,E,163435.00,A,A*61
$GPGST,163435.00,13,,,,1.8,1.2,3.1*5B
