!AIVDM,1,1,,B,13cWAL0P43Q1FUPGBNdhHwvn08@I,0*3B

$GPRMC,163431.00,V,,,,,,,,,,N*7F

$GPVTG,,,,,,,,,N*30

$GPGGA,163431.00,,,,,0,00,99.99,,,,,,*64

$GPGSA,A,1,,,,,,,,,,,,,99.99,99.99,99.99*30

$GPGSV,3,1,09,05,,,38,07,,,41,13,,,41,14,,,45*7D

$GPGSV,3,2,09,15,,,38,17,,,35,20,,,36,28,,,43*74

$GPGSV,3,3,09,30,,,38*78

$GPGLL,,,,,163431.00,V,N*48

$GPGST,163431.00,0.0000,,,,3750000,3750000,3750000*54

!AIVDM,2,1,3,A,53cbWv4000000000001>r0Dq8T<638000000000N1p841t0Ht00000000000,0*6B

!AIVDM,2,2,3,A,00000000000,2*27

!AIVDM,1,1,,A,15CV<B002l11:THGDdbpuo<p0<1W,0*78

$GPRMC,163432.00,V,,,,,,,,,,N*7C

$GPVTG,,,,,,,,,N*30

$GPGGA,163432.00,,,,,0,00,99.99,,,,,,*67

$GPGSA,A,1,,,,,,,,,,,,,99.99,99.99,99.99*30

$GPGSV,3,1,09,05,,,39,07,,,41,13,,,42,14,,,46*7C

$GPGSV,3,2,09,15,,,39,17,,,34,20,,,35,28,,,44*70

$GPGSV,3,3,09,30,,,39*79

$GPGLL,,,,,163432.00,V,N*4B

$GPGST,163432.00,0.0000,,,,3750000,3750000,3750000*57

!AIVDM,1,1,,B,13cVlR0P4MQ1K3FGFN760?vp0628,0*20

!AIVDM,1,1,,B,13cWA30PCn11=42GFCoR;iht08A=,0*52

!AIVDM,1,1,,B,13ca`>0Ol210uQ@GESq9M7hp00S<,0*2B

!AIVDM,1,1,,B,13cbV17P00Q1glPGE`Uh0?vr20SD,0*5C

!AIVDM,1,1,,A,13cf4V0P00Q2?jjGBGI>4?vr2<16,0*4C

!AIVDM,1,1,,A,15@`?M@u@pQ1ELPGGHC4aSTr0<1C,0*19

!AIVDM,1,1,,B,13cVCE002@112d>GEe22MQrr0D1p,0*40

$GPRMC,163433.00,V,,,,,,,,,,N*7D

$GPVTG,,,,,,,,,N*30

$GPGGA,163433.00,,,,,0,00,99.99,,,,,,*66

$GPGSA,A,1,,,,,,,,,,,,,99.99,99.99,99.99*30

$GPGSV,3,1,09,05,,,39,07,,,40,13,,,41,14,,,45*7D

$GPGSV,3,2,09,15,,,38,17,,,34,20,,,35,28,,,43*76

$GPGSV,3,3,09,30,,,38*78

$GPGLL,,,,,163433.00,V,N*4A

$GPGST,163433.00,0.0000,,,,3750000,3750000,3750000*56

!AIVDM,1,1,,A,83cbWv0j2P00000000LhLhT50000,0*54

!AIVDM,1,1,,B,13cVaV0P0011B7dGGdW7v?vp00Rt,0*39

$GPRMC,163434.00,V,,,,,,,,,,N*7A

$GPVTG,,,,,,,,,N*30

$GPGGA,163434.00,,,,,0,00,99.99,,,,,,*61

$GPGSA,A,1,,,,,,,,,,,,,99.99,99.99,99.99*30

$GPGSV,3,1,09,05,,,35,07,,,36,13,,,38,14,,,41*7A

$GPGSV,3,2,09,15,,,36,17,,,33,20,,,33,28,,,42*78

$GPGSV,3,3,09,30,,,37*77

$GPGLL,,,,,163434.00,V,N*4D

!AIVDM,1,1,,A,13cVlR0P4MQ1K6FGFMSmwwvt00S8,0*76

$GPGST,163434.00,0.0000,,,,3750000,3750000,3750000*51

!AIVDM,1,1,,B,402FhOQvFVhRO11BePGGgg700<16,0*4B

!AIVDM,1,1,,A,13cWA30PCn11=:hGFDFj8Qg008BM,0*10

$GPRMC,163435.00,V,,,,,,,,,,N*7B

$GPVTG,,,,,,,,,N*30

$GPGGA,163435.00,,,,,0,00,99.99,,,,,,*60

$GPGSA,A,1,,,,,,,,,,,,,99.99,99.99,99.99*30

!AIVDM,1,1,,B,13cWAL0P41Q1FVfGBOk@EOvv0628,0*0A

$GPGSV,3,1,09,05,,,37,07,,,38,13,,,40,14,,,42*7A

$GPGSV,3,2,09,15,,,36,17,,,29,20,,,40,28,,,43*76

$GPGSV,3,3,09,30,,,37*77

$GPGLL,,,,,163435.00,V,N*4C

$GPGST,163435.00,0.0000,,,,3750000,3750000,3750000*50

!AIVDM,1,1,,A,13ciE<0P0011Al@GG`W00?vv0<0s,0*1D

$GPRMC,163436.00,V,,,,,,,,,,N*78

$GPVTG,,,,,,,,,N*30

$GPGGA,163436.00,,,,,0,00,99.99,,,,,,*63

!AIVDM,1,1,,A,13crd1501N11Fi4GGDiUAD;00@CG,0*03

$GPGSA,A,1,,,,,,,,,,,,,99.99,99.99,99.99*30

$GPGSV,3,1,09,05,,,38,07,,,39,13,,,38,14,,,42*7B

$GPGSV,3,2,09,15,,,35,17,,,32,20,,,39,28,,,42*70

$GPGSV,3,3,09,30,,,37*77

$GPGLL,,,,,163436.00,V,N*4F

$GPGST,163436.00,0.0000,,,,3750000,3750000,3750000*53

!AIVDM,1,1,,B,13cWA3003m11=?:GFDdR6ig400S5,0*1E

!AIVDM,1,1,,A,13=5bv000112@MBGC;Dc>qG408Cb,0*78

!AIVDM,1,1,,A,13c`;@0P0wQ1EJHGGHBTgww00628,0*59

$GPRMC,163437.00,V,,,,,,,,,,N*79

$GPVTG,,,,,,,,,N*30

$GPGGA,163437.00,,,,,0,00,99.99,,,,,,*62

$GPGSA,A,1,,,,,,,,,,,,,99.99,99.99,99.99*30

$GPGSV,3,1,09,05,,,41,07,,,42,13,,,41,14,,,45*70

$GPGSV,3,2,09,15,,,39,17,,,33,20,,,43,28,,,45*77

$GPGSV,3,3,09,30,,,41*76

$GPGLL,,,,,163437.00,V,N*4E

$GPGST,163437.00,0.0000,,,,3750000,3750000,3750000*52

!AIVDM,1,1,,B,190wo`P01w113@>GCJUAv1W408Cw,0*4C

!AIVDM,1,1,,A,14i80v0P00117EJGG7gMN?w400T5,0*22

!AIVDM,1,1,,B,15BhbP001311GnlGFou@UPa20<1g,0*29

$GPRMC,163438.00,V,,,,,,,,,,N*76

$GPVTG,,,,,,,,,N*30

$GPGGA,163438.00,,,,,0,00,99.99,,,,,,*6D

!AIVDM,1,1,,B,15CV<B002l11:JpGDcqHv7=40@DR,0*63

$GPGSA,A,1,,,,,,,,,,,,,99.99,99.99,99.99*30

$GPGSV,3,1,09,05,,,39,07,,,39,13,,,40,14,,,42*75

$GPGSV,3,2,09,15,,,36,17,,,33,20,,,40,28,,,43*7D

$GPGSV,3,3,09,30,,,38*78

$GPGLL,,,,,163438.00,V,N*41

$GPGST,163438.00,0.0000,,,,3750000,3750000,3750000*5D

!AIVDM,1,1,,A,13cVlR0P4MQ1K<8GFLLmwww400S9,0*5C

!AIVDM,1,1,,B,13c`==0P0011C6PGGgF7P?w80<1L,0*26

!AIVDM,1,1,,A,13cWA3003m11=CPGFE2R5ii80<1b,0*64

!AIVDM,1,1,,B,13cWAL0P40Q1FWhGBPq0C?w608E7,0*30

$GPRMC,163439.00,V,,,,,,,,,,N*77

$GPVTG,,,,,,,,,N*30

$GPGGA,163439.00,,,,,0,00,99.99,,,,,,*6C

$GPGSA,A,1,,,,,,,,,,,,,99.99,99.99,99.99*30

$GPGSV,3,1,09,05,,,40,07,,,40,13,,,42,14,,,43*76

$GPGSV,3,2,09,15,,,39,17,,,36,20,,,40,28,,,45*71

$GPGSV,3,3,09,30,,,39*79

$GPGLL,,,,,163439.00,V,N*40

!AIVDM,1,1,,A,13cVCE002?112n<GEeS2MQs60L1p,0*18

$GPGST,163439.00,0.0000,,,,3750000,3750000,3750000*5C

!AIVDM,1,1,,A,13cbWv7P00Q1W=rGFOgo;?w8R<10,0*79

!AIVDM,1,1,,B,13cVlR0P4MQ1K=`GFL;5wgw608Eb,0*7E

$GPRMC,163440.00,V,,,,,,,,,,N*79

$GPVTG,,,,,,,,,N*30

$GPGGA,163440.00,,,,,0,00,99.99,,,,,,*62

$GPGSA,A,1,,,,,,,,,,,,,99.99,99.99,99.99*30

$GPGSV,3,1,09,05,,,39,07,,,40,13,,,43,14,,,44*7E

$GPGSV,3,2,09,15,,,37,17,,,38,20,,,42,28,,,46*70

$GPGSV,3,3,09,30,,,37*77

$GPGLL,,,,,163440.00,V,N*4E

$GPGST,163440.00,0.0000,,,,3750000,3750000,3750000*52

!AIVDM,1,1,,B,13cWA3003m11=GtGFEH24Qi<08Et,0*06

$GPRMC,163441.00,V,,,,,,,,,,N*78

$GPVTG,,,,,,,,,N*30

$GPGGA,163441.00,,,,,0,00,99.99,,,,,,*63

$GPGSA,A,1,,,,,,,,,,,,,99.99,99.99,99.99*30

$GPGSV,3,1,09,05,,,38,07,,,39,13,,,40,14,,,41*77

$GPGSV,3,2,09,15,,,35,17,,,36,20,,,40,28,,,44*7C

$GPGSV,3,3,09,30,,,35*75

$GPGLL,,,,,163441.00,V,N*4F

$GPGST,163441.00,0.0000,,,,3750000,3750000,3750000*53

!AIVDM,1,1,,B,H3MBIClU7B=4005=:<mq00000004,0*08

$GPRMC,163442.00,V,,,,,,,,,,N*7B

$GPVTG,,,,,,,,,N*30

$GPGGA,163442.00,,,,,0,00,99.99,,,,,,*60

!AIVDM,1,1,,A,13cVlR0P4MQ1K@`GFK`5wOw:0628,0*5B

$GPGSA,A,1,,,,,,,,,,,,,99.99,99.99,99.99*30

$GPGSV,3,1,09,05,,,41,07,,,42,13,,,44,14,,,47*77

$GPGSV,3,2,09,15,,,38,17,,,38,20,,,40,28,,,47*7C

$GPGSV,3,3,09,30,,,35*75

$GPGLL,,,,,163442.00,V,N*4C

$GPGST,163442.00,0.0000,,,,3750000,3750000,3750000*50

!AIVDM,1,1,,B,3819=i500012A6DGBC1Sw6e80000,0*7F

!AIVDM,1,1,,A,13cWA3003m11=LJGFEeR3Ag@0<1c,0*7F

$GPRMC,163443.00,V,,,,,,,,,,N*7A

$GPVTG,,,,,,,,,N*30

$GPGGA,163443.00,,,,,0,00,99.99,,,,,,*61

$GPGSA,A,1,,,,,,,,,,,,,99.99,99.99,99.99*30

!AIVDM,1,1,,B,13cWAL0P3wQ1Fa0GBQw0Aww>0HGN,0*50

$GPGSV,3,1,09,05,,,43,07,,,41,13,,,44,14,,,46*77

$GPGSV,3,2,09,15,,,40,17,,,38,20,,,39,28,,,47*7D

$GPGSV,3,3,09,30,,,38*78

$GPGLL,,,,,163443.00,V,N*4D

$GPGST,163443.00,0.0000,,,,3750000,3750000,3750000*51

!AIVDM,1,1,,A,H02FhOPp50hE>0U@<L000000000,2*5C

!AIVDM,1,1,,A,15CV<B002l11:C0GDc@8vG=@08Gc,0*26

!AIVDM,1,1,,A,13cVaV0P0011B7dGGdW7v?w<0628,0*5D

!AIVDM,1,1,,B,13cf4V0P00Q2?jfGBGHv4?w@20Rd,0*04

!AIVDM,1,1,,A,33cc0q3P00Q1C7LGGfClvOw@03bS,0*29

!AIVDM,1,1,,B,17f6F1P00111Ef:GGhQujUUB0HGo,0*48

!AIVDM,1,1,,A,13d4a80Ol9Q2<pjGBK8jTia@08Gw,0*7A

$GPRMC,163444.00,V,,,,,,,,,,N*7D

$GPVTG,,,,,,,,,N*30

$GPGGA,163444.00,,,,,0,00,99.99,,,,,,*66

$GPGSA,A,1,,,,,,,,,,,,,99.99,99.99,99.99*30

$GPGSV,3,1,09,05,,,44,07,,,41,13,,,43,14,,,46*77

!AIVDM,1,1,,B,13cVlR0P4MQ1KE<GFJkUvww@08H4,0*50

$GPGSV,3,2,09,15,,,39,17,,,37,20,,,38,28,,,46*7C

$GPGSV,3,3,09,30,,,41*76

$GPGLL,,,,,163444.00,V,N*4A

$GPGST,163444.00,0.0000,,,,3750000,3750000,3750000*56

!AIVDM,1,1,,B,13ca`>0Ol610u5LGERhaTWu:0<1F,0*3D

!AIVDM,1,1,,A,402FhOQvFVhRa11BePGGgg7008H?,0*12

!AIVDM,1,1,,B,15@`?M@vA0Q1ESvGGGa4fSUB00S9,0*6E

!AIVDM,1,1,,B,13c`;@0P13Q1EOpGGGtTiww@0628,0*65

$GPRMC,163445.00,V,,,,,,,,,,N*7C

$GPVTG,,,,,,,,,N*30

$GPGGA,163445.00,,,,,0,00,99.99,,,,,,*67

$GPGSA,A,1,,,,,,,,,,,,,99.99,99.99,99.99*30

$GPGSV,3,1,09,05,,,41,07,,,42,13,,,44,14,,,45*75

$GPGSV,3,2,09,15,,,34,17,,,35,20,,,37,28,,,45*7F

$GPGSV,3,3,09,30,,,39*79

$GPGLL,,,,,163445.00,V,N*4B

$GPGST,163445.00,0.0000,,,,3750000,3750000,3750000*57

!AIVDM,1,1,,B,13cVCE002@112udGEeq2MQw@00Rt,0*6C

!AIVDM,1,1,,B,13=5bv000112@M>GC;DK>qGF0<1J,0*03

!AIVDM,1,1,,B,13crd15OiO11FplGGD3m>l9D0HI=,0*5C

$GPRMC,163446.00,V,,,,,,,,,,N*7F

$GPVTG,,,,,,,,,N*30

$GPGGA,163446.00,,,,,0,00,99.99,,,,,,*64

$GPGSA,A,1,,,,,,,,,,,,,99.99,99.99,99.99*30

$GPGSV,3,1,09,05,,,43,07,,,42,13,,,44,14,,,47*75

!AIVDM,1,1,,B,13ciE<0P0011Al@GG`W00?wD08I?,0*1C

$GPGSV,3,2,09,15,,,34,17,,,35,20,,,39,28,,,46*72

$GPGSV,3,3,09,30,,,39*79

$GPGLL,,,,,163446.00,V,N*48

$GPGST,163446.00,0.0000,,,,3750000,3750000,3750000*54

!AIVDM,1,1,,A,13cVlR0P4MQ1KHDGFJ@Uv?wD00S>,0*58

!AIVDM,1,1,,A,13ca`>0Ol610trPGERGaT`7B00S>,0*50

!AIVDM,1,1,,A,13cWA3003n11=U>GFFGB2AgH0628,0*7B

!AIVDM,1,1,,A,190wo`P01w113JBGCKGAv1WH00SO,0*76

!AIVDM,1,1,,B,13cqIV?th0Q17:VGG6Paj:GF28Ib,0*75

$GPRMC,163447.00,V,,,,,,,131021,,,N*7E

$GPVTG,,,,,,,,,N*30

$GPGGA,163447.00,,,,,0,00,99.99,,,,,,*65

$GPGSA,A,1,,,,,,,,,,,,,99.99,99.99,99.99*30

$GPGSV,3,1,09,05,,,42,07,,,41,13,,,44,14,,,45*75

$GPGSV,3,2,09,15,,,34,17,,,33,20,,,38,28,,,46*75

$GPGSV,3,3,09,30,,,37*77

$GPGLL,,,,,163447.00,V,N*49

$GPGST,163447.00,0.0000,,,,3750000,3750000,3750000*55

!AIVDM,1,1,,A,15BhbP001411GpjGFpWhU@aD0628,0*10

!AIVDM,1,1,,B,13cWAL0P3wQ1FbPGBS5hAgwF0@Iu,0*7E

!AIVDM,2,1,4,A,53cVaV01mhKLUE@N220A8T4@F22222222222220t1@t2<5uf093PD3k2H0hD,0*6C

!AIVDM,2,2,4,A,4RH1H5U`880,2*77

!AIVDM,1,1,,B,14i80v0P01117EFGG7fuN?wJ0<1J,0*7D

!AIVDM,1,1,,A,13c`==0P0011C6PGGgF77?wJ08JG,0*44

$GPRMC,163448.00,V,,,,,,,131021,,,N*71

$GPVTG,,,,,,,,,N*30

$GPGGA,163448.00,,,,,0,00,99.99,,,,,,*6A

$GPGSA,A,1,,,,,,,,,,,,,99.99,99.99,99.99*30

$GPGSV,3,1,09,05,,,40,07,,,40,13,,,42,14,,,45*70

$GPGSV,3,2,09,15,,,30,17,,,33,20,,,37,28,,,44*7C

$GPGSV,3,3,09,30,,,37*77

$GPGLL,,,,,163448.00,V,N*46

$GPGST,163448.00,0.0000,,,,3750000,3750000,3750000*5A

!AIVDM,1,1,,B,13ca`>0Ol610trPGERGaT`9B0D1F,0*33

!AIVDM,1,1,,B,13cVlR0P4MQ1KKJGFIeEuOwH00S4,0*15

!AIVDM,1,1,,B,13cWA3003o11=aVGFFdj1QgL0<1c,0*6B

!AIVDM,1,1,,A,13cWAL0P40Q1Fc2GBSaP@wwJ0628,0*6F

$GPRMC,163449.00,V,,,,,,,131021,,,N*70

$GPVTG,,,,,,,,,N*30

$GPGGA,163449.00,,,,,0,00,99.99,,,,,,*6B

$GPGSA,A,1,,,,,,,,,,,,,99.99,99.99,99.99*30

$GPGSV,3,1,09,05,,,42,07,,,42,13,,,44,14,,,45*76

$GPGSV,3,2,09,15,,,32,17,,,33,20,,,37,28,,,46*7C

$GPGSV,3,3,09,30,,,38*78

$GPGLL,,,,,163449.00,V,N*47

$GPGST,163449.00,0.0000,,,,3750000,3750000,3750000*5B

!AIVDM,1,1,,B,13cVTQ0P01Q0=flGDtNRtOwD0<1V,0*28

!AIVDM,1,1,,B,15CV<B002l11:9PGDbO8vW=L08K@,0*02

!AIVDM,1,1,,B,13cbWv7P00Q1W=lGFOgoI?wLR@KL,0*18

$GPRMC,163450.00,V,,,,,,,131021,,,N*78

$GPVTG,,,,,,,,,N*30

$GPGGA,163450.00,,,,,0,00,99.99,,,,,,*63

$GPGSA,A,1,,,,,,,,,,,,,99.99,99.99,99.99*30

$GPGSV,3,1,09,05,,,42,07,,,42,13,,,45,14,,,45*77

$GPGSV,3,2,09,15,,,36,17,,,35,20,,,39,28,,,46*70

$GPGSV,3,3,09,30,,,38*78

$GPGLL,,,,,163450.00,V,N*4F

$GPGST,163450.00,0.0000,,,,3750000,3750000,3750000*53

!AIVDM,1,1,,A,13cVlR0P4MQ1KNLGFI:5uOwL0628,0*55

!AIVDM,1,1,,A,13cWA3003o11=f8GFG1j1AiP08Ku,0*3F

!AIVDM,1,1,,A,13cmw`000V12@h8GB?:5>9ONH0SU,0*05

!AIVDM,1,1,,A,17f6H4@001Q2A86GBBlf46aN20Rw,0*16

!AIVDM,1,1,,B,13cWAL0P40Q1FcJGBT=P?gwN08L;,0*57

$GPRMC,163451.01,A,4049.59779,N,01413.22840,E,0.352,0.00,131021,,,A*68

$AITXT,01,01,10,GPS fix obtained*7C

$GPVTG,0.00,T,,M,0.352,N,0.652,K,A*38

$GPGGA,163451.01,4049.59779,N,01413.22840,E,1,04,2.38,4.4,M,41.2,M,,*54

$GPGSA,A,3,05,07,13,14,,,,,,,,,4.12,2.38,3.36*0F

$GPGSV,3,1,09,05,53,248,41,07,19,064,41,13,60,318,44,14,66,117,45*7F

$GPGSV,3,2,09,15,,,35,17,,,34,20,,,39,28,,,46*72

$GPGSV,3,3,09,30,,,39*79

$GPGLL,4049.59779,N,01413.22840,E,163451.01,A,A*6B

$GPGST,163451.01,4.3,,,,7.8,4.6,14*5D

!AIVDM,1,1,,A,13cVCE002@1136hGEfDRP1wN0<1p,0*6F

$AITXT,01,01,17,Got sync to external*2B

!AIVDM,1,1,,A,13cf4V0P00Q2?jbGBGIN4?wP20Sf,0*29

$GPRMC,163452.00,A,4049.59802,N,01413.22835,E,0.114,0.00,131021,,,A*6B

$GPVTG,0.00,T,,M,0.114,N,0.212,K,A*38

$GPGGA,163452.00,4049.59802,N,01413.22835,E,1,04,2.38,5.0,M,41.2,M,,*52

$GPGSA,A,3,05,07,13,14,,,,,,,,,4.11,2.38,3.35*0F

$GPGSV,3,1,09,05,53,248,41,07,19,064,40,13,60,318,43,14,66,117,44*78

$GPGSV,3,2,09,15,,,35,17,,,31,20,,,39,28,,,45*74

$GPGSV,3,3,09,30,,,38*78

$GPGLL,4049.59802,N,01413.22835,E,163452.00,A,A*68

$GPGST,163452.00,4.4,,,,7.7,4.2,9.6*77

!AIVDM,1,1,,B,13cVlR0P4NQ1KQLGFHVmuOwP00S;,0*07

!AIVDM,1,1,,B,13cbV17P00Q1glPGE`W9b?wR2628,0*67

!AIVDM,1,1,,A,13cWAL0P41Q1Fd2GBTi0?gwR08MD,0*7C

$GPRMC,163453.00,A,4049.59788,N,01413.22829,E,0.062,0.00,131021,,,A*6A

$GPVTG,0.00,T,,M,0.062,N,0.114,K,A*3D

$GPGGA,163453.00,4049.59788,N,01413.22829,E,1,04,2.38,5.2,M,41.2,M,,*51

$GPGSA,A,3,05,07,13,14,,,,,,,,,4.11,2.38,3.35*0F

$GPGSV,3,1,09,05,53,248,40,07,19,064,41,13,60,318,43,14,66,117,44*78

$GPGSV,3,2,09,15,,,32,17,,,31,20,,,38,28,,,45*72

$GPGSV,3,3,09,30,,,38*78

$GPGLL,4049.59788,N,01413.22829,E,163453.00,A,A*69

$GPGST,163453.00,4.3,,,,6.0,3.4,8.3*72

!AIVDM,1,1,,B,13d4a80Ol:Q2=EbGBL:Rc1eT00S@,0*2F

$GPRMC,163454.00,A,4049.59780,N,01413.22813,E,0.003,0.00,131021,,,A*6B

$GPVTG,0.00,T,,M,0.003,N,0.005,K,A*3B

$GPGGA,163454.00,4049.59780,N,01413.22813,E,1,04,2.38,5.4,M,41.2,M,,*51

$GPGSA,A,3,05,07,13,14,,,,,,,,,4.11,2.38,3.35*0F

$GPGSV,3,1,09,05,53,248,40,07,19,064,42,13,60,318,43,14,66,117,44*7B

$GPGSV,3,2,09,15,,,32,17,,,34,20,,,39,28,,,45*76

$GPGSV,3,3,09,30,,,38*78

$GPGLL,4049.59780,N,01413.22813,E,163454.00,A,A*6F

$GPGST,163454.00,4.2,,,,5.1,2.9,7.4*72

!AIVDM,1,1,,A,13cVlR0P4MQ1KTNGFH3Uu?wT08N1,0*36

!AIVDM,1,1,,A,ENjO`132pspK@8:W:0h1Pa2W0P00POqm;V?r010888N000,4*42

!AIVDM,1,1,,B,402FhOQvFVhRk11BePGGgg700<16,0*6F

!AIVDM,1,1,,A,13ca`>0Ol010tSdGEQo9k`5R0HN7,0*71

!AIVDM,1,1,,A,15@`?M@3Q5Q1EcJGGG@TfSUV00RH,0*14

!AIVDM,1,1,,A,13cWA30Oko11=o4GFGbR1im`0@ND,0*26

!AIVDM,1,1,,B,13cVaV0P0011B7dGGdaWv?wR0<0w,0*21

$GPRMC,163455.00,A,4049.59765,N,01413.22801,E,0.018,0.00,131021,,,A*68

$GPVTG,0.00,T,,M,0.018,N,0.034,K,A*33

$GPGGA,163455.00,4049.59765,N,01413.22801,E,1,04,2.38,5.6,M,41.2,M,,*5A

$GPGSA,A,3,05,07,13,14,,,,,,,,,4.11,2.38,3.35*0F

$GPGSV,3,1,09,05,53,248,42,07,19,064,44,13,60,318,44,14,66,117,46*7A

$GPGSV,3,2,09,15,,,34,17,,,37,20,,,41,28,,,46*7F

$GPGSV,3,3,09,30,,,40*77

$GPGLL,4049.59765,N,01413.22801,E,163455.00,A,A*66

$GPGST,163455.00,4.2,,,,4.6,2.6,6.8*77

!AIVDM,1,1,,B,13cWAL0P41Q1FdfGBUD@?wwV0<0l,0*32

!AIVDM,1,1,,A,15CV<B002m11:02GDaf8vG=`0D1V,0*6D

$GPRMC,163456.00,A,4049.59754,N,01413.22794,E,0.006,0.00,131021,3.72,E,A*38

$GPVTG,0.00,T,356.27,M,0.006,N,0.011,K,A*20

$GPGGA,163456.00,4049.59754,N,01413.22794,E,1,04,2.38,5.9,M,41.2,M,,*57

$GPGSA,A,3,05,07,13,14,,,,,,,,,4.11,2.38,3.35*0F

$GPGSV,3,1,09,05,53,248,43,07,19,064,42,13,60,318,43,14,66,117,45*79

$GPGSV,3,2,09,15,,,34,17,,,38,20,,,36,28,,,46*70

$GPGSV,3,3,09,30,,,40*77

$GPGLL,4049.59754,N,01413.22794,E,163456.00,A,A*64

$GPGST,163456.00,4.2,,,,4.1,2.3,6.3*7D

!AIVDM,1,1,,B,13cVlR0P4MQ1KWRGFGPUtww`0@O;,0*48

!AIVDM,1,1,,B,13cWA30Oko11=sbGFGvj31od00S=,0*0B

!AIVDM,1,1,,A,13c`;@0P19Q1E`PGGGL4k?w`0628,0*51

!AIVDM,1,1,,B,ENjOsrPppg@6a9Qh1Pb0W4PP0000RRW4:fabP00000N010,4*5D

!AIVDM,1,1,,A,13=5bv000112@M@GC;DKbqId00Ra,0*4A

!AIVDM,1,1,,A,13cqIV?300Q17:VGG6Q9j:Gb28O`,0*10

$GPRMC,163457.00,A,4049.59745,N,01413.22789,E,0.005,0.00,131021,3.72,E,A*36

$GPVTG,0.00,T,356.27,M,0.005,N,0.009,K,A*2A

$GPGGA,163457.00,4049.59745,N,01413.22789,E,1,04,2.38,6.2,M,41.2,M,,*52

$GPGSA,A,3,05,07,13,14,,,,,,,,,4.11,2.38,3.34*0E

$GPGSV,3,1,09,05,53,248,43,07,19,064,43,13,60,318,44,14,66,117,46*7C

$GPGSV,3,2,09,15,,,33,17,,,36,20,,,39,28,,,47*77

$GPGSV,3,3,09,30,,,41*76

$GPGLL,4049.59745,N,01413.22789,E,163457.00,A,A*69

$GPGST,163457.00,4.2,,,,3.8,2.2,5.9*7A

!AIVDM,1,1,,B,13cVCE002@113?PGEfeRP1w`0628,0*13

!AIVDM,1,1,,A,13ciE<0P0011Al@GG`W00?wb00R?,0*2A

!AIVDM,1,1,,B,15BhbP001411GrnGFqJPU@ab0<1h,0*4E

!AIVDM,1,1,,A,33crd1501P11G1nGGC?EBT=b06eS,0*5E

!AIVDM,1,1,,B,13d4a80Ol;Q2=Q<GBLRBe1gd0@P;,0*20

!AIVDM,1,1,,B,190wo`P01v113VRGCLCivAWf0HP=,0*04

$GPRMC,163458.00,A,4049.59806,N,01413.22804,E,0.065,0.00,131021,3.72,E,A*3D

$GPVTG,0.00,T,356.27,M,0.065,N,0.121,K,A*27

$GPGGA,163458.00,4049.59806,N,01413.22804,E,1,08,1.04,8.1,M,41.2,M,,*52

$GPGSA,A,3,20,30,17,05,07,13,14,15,,,,,1.86,1.04,1.54*0E

$GPGSV,3,1,09,05,53,248,41,07,19,064,42,13,60,318,43,14,66,117,44*7A

$GPGSV,3,2,09,15,31,306,31,17,06,132,37,20,36,205,40,28,58,155,46*74

$GPGSV,3,3,09,30,51,053,38*4A

$GPGLL,4049.59806,N,01413.22804,E,163458.00,A,A*64

$GPGST,163458.00,9.8,,,,2.9,1.9,4.7*75

!AIVDM,1,1,,A,13cWA30Oko11>0DGFHAB41oh0@PL,0*77

!AIVDM,1,1,,A,13ca`>0Ol010tHLGEQ`9p`5b0<1F,0*1C

!AIVDM,1,1,,A,14i80v0P01117EPGG7fuN?wh0D1J,0*32

!AIVDM,1,1,,B,13c`==0P0011C6PGGgF74gwh0<1L,0*4A

$GPRMC,163459.00,A,4049.59826,N,01413.22806,E,0.011,0.00,131021,3.72,E,A*3F

$GPVTG,0.00,T,356.27,M,0.011,N,0.020,K,A*24

$GPGGA,163459.00,4049.59826,N,01413.22806,E,1,08,1.04,8.9,M,41.2,M,,*5B

$GPGSA,A,3,20,30,17,05,07,13,14,15,,,,,1.86,1.04,1.54*0E

$GPGSV,3,1,09,05,53,248,40,07,19,064,43,13,60,318,43,14,66,117,43*7D

$GPGSV,3,2,09,15,31,306,34,17,06,132,38,20,36,205,39,28,58,155,45*73

$GPGSV,3,3,09,30,51,053,38*4A

$GPGLL,4049.59826,N,01413.22806,E,163459.00,A,A*65

$GPGST,163459.00,7.4,,,,2.5,1.7,4.3*70

!AIVDM,1,1,,B,33cmfm5P0`11FHlGGH8WA?wf02j1,0*66

!AIVDM,1,1,,B,13cVlR0P4MQ1Kd6GFFcmtwwf0@QG,0*71

$GPRMC,163500.00,A,4049.59826,N,01413.22806,E,0.000,0.00,131021,3.72,E,A*32

$GPVTG,0.00,T,356.27,M,0.000,N,0.000,K,A*26

$GPGGA,163500.00,4049.59826,N,01413.22806,E,1,08,1.04,8.9,M,41.2,M,,*56

!AIVDM,2,1,5,B,53cvVJ02;RIhT<I4001HTp<Dq`v0Hhu8Tt00000u02l0M6VTN?RE3PD00000,0*6F

!AIVDM,2,2,5,B,00000000000,2*22

$GPGSA,A,3,20,30,17,05,07,13,14,15,,,,,1.86,1.04,1.54*0E

$GPGSV,3,1,09,05,53,248,42,07,19,064,41,13,60,318,43,14,66,117,44*7A

$GPGSV,3,2,09,15,31,306,33,17,06,132,38,20,36,205,39,28,58,155,45*74

$GPGSV,3,3,09,30,51,053,36*44

$GPGLL,4049.59826,N,01413.22806,E,163500.00,A,A*68

$GPGST,163500.00,8.4,,,,2.3,1.7,3.9*79

!AIVDM,1,1,,B,13cWA3003p11>52GFHUB6Qol0HQd,0*6C

!AIVDM,1,1,,A,13cbWv7P00Q1W=pGFOhP0?wjR628,0*13

!AIVDM,1,1,,A,13cWAL0P42Q1FfNGBVwP??wj0628,0*10

$GPRMC,163501.00,A,4049.59826,N,01413.22806,E,0.000,0.00,131021,3.72,E,A*33

$GPVTG,0.00,T,356.27,M,0.000,N,0.000,K,A*26

$GPGGA,163501.00,4049.59826,N,01413.22806,E,1,08,1.04,8.9,M,41.2,M,,*57

$GPGSA,A,3,20,30,17,05,07,13,14,15,,,,,1.86,1.04,1.54*0E

$GPGSV,3,1,09,05,53,248,41,07,19,064,42,13,60,318,44,14,66,117,45*7C

$GPGSV,3,2,09,15,31,306,33,17,06,132,38,20,36,205,38,28,58,155,46*76

$GPGSV,3,3,09,30,51,053,38*4A

$GPGLL,4049.59826,N,01413.22806,E,163501.00,A,A*69

$GPGST,163501.00,8.1,,,,2.1,1.6,3.7*70

!AIVDM,1,1,,B,15CV<B002m119nVGD`uHv7=l08RE,0*45

!AIVDM,1,1,,A,33cvVJ500011B>NGGa;e1l3j0000,0*23

!AIVDM,1,1,,B,13cf4V0P00Q2?jbGBGHf4?wl2@RL,0*64

!AIVDM,1,1,,B,13crw:000011;oRG=?vW13Qj00T2,0*46

$GPRMC,163502.00,A,4049.59826,N,01413.22806,E,0.000,0.00,131021,3.72,E,A*30

$GPVTG,0.00,T,356.27,M,0.000,N,0.000,K,A*26

$GPGGA,163502.00,4049.59826,N,01413.22806,E,1,08,1.04,8.9,M,41.2,M,,*54

$GPGSA,A,3,20,30,17,05,07,13,14,15,,,,,1.86,1.04,1.55*0F

$GPGSV,3,1,09,05,53,248,40,07,19,064,41,13,60,318,44,14,66,117,45*7E

$GPGSV,3,2,09,15,31,306,32,17,06,132,36,20,36,205,41,28,58,155,46*77

$GPGSV,3,3,09,30,51,053,40*45

$GPGLL,4049.59826,N,01413.22806,E,163502.00,A,A*6A

$GPGST,163502.00,9.1,,,,2.0,1.5,3.5*72

!AIVDM,1,1,,A,13cVlR0P4MQ1KhdGFEoEtwwl0<10,0*6A

!AIVDM,1,1,,A,13cWA3003p11>9nGFHr281n000S3,0*76

!AIVDM,1,1,,A,13cVCE002@113HTGEg6RP1ul08S3,0*5B

$GPRMC,163503.00,A,4049.59826,N,01413.22806,E,0.000,0.00,131021,3.72,E,A*31

$GPVTG,0.00,T,356.27,M,0.000,N,0.000,K,A*26

$GPGGA,163503.00,4049.59826,N,01413.22806,E,1,08,1.04,8.9,M,41.2,M,,*55

$GPGSA,A,3,20,30,17,05,07,13,14,15,,,,,1.86,1.04,1.55*0F

$GPGSV,3,1,09,05,53,248,42,07,19,064,42,13,60,318,44,14,66,116,45*7E

$GPGSV,3,2,09,15,31,306,31,17,06,132,36,20,36,205,38,28,58,155,46*7A

$GPGSV,3,3,09,30,51,053,40*45

!AIVDM,1,1,,B,13cWAL0P42Q1Fg0GBWSP>wwn0<0m,0*59

$GPGLL,4049.59826,N,01413.22806,E,163503.00,A,A*6B

$GPGST,163503.00,10,,,,1.9,1.4,3.4*5E

!AIVDM,1,1,,B,35@`?M@518Q1EjHGGG84d3an018i,0*49

!AIVDM,1,1,,A,13cVaV0P0011B7dGGdaWv?wj00SF,0*44

!AIVDM,1,1,,B,13cVlR0P4NQ1Kj>GFEUUtwwn0<10,0*1A

$GPRMC,163504.00,A,4049.59826,N,01413.22806,E,0.000,0.00,131021,3.72,E,A*36

$GPVTG,0.00,T,356.27,M,0.000,N,0.000,K,A*26

$GPGGA,163504.00,4049.59826,N,01413.22806,E,1,08,1.04,8.9,M,41.2,M,,*52

$GPGSA,A,3,20,30,17,05,07,13,14,15,,,,,1.86,1.04,1.55*0F

$GPGSV,3,1,09,05,53,248,42,07,19,064,42,13,60,318,44,14,66,116,45*7E

$GPGSV,3,2,09,15,31,306,31,17,06,132,36,20,36,205,39,28,58,155,46*7B

$GPGSV,3,3,09,30,51,053,40*45

$GPGLL,4049.59826,N,01413.22806,E,163504.00,A,A*6C

$GPGST,163504.00,10,,,,1.8,1.4,3.3*5F

!AIVDM,1,1,,A,402FhOQvFVhS111BePGGgg700D16,0*4F

!AIVDM,1,1,,B,13ca`>0Okw10t7@GEQAas8:000S9,0*42

!AIVDM,1,1,,B,13cWA3003q11>>VGFI=j91n4062<,0*30

$GPRMC,163505.00,A,4049.59826,N,01413.22806,E,0.000,0.00,131021,3.72,E,A*37

$GPVTG,0.00,T,356.27,M,0.000,N,0.000,K,A*26

$GPGGA,163505.00,4049.59826,N,01413.22806,E,1,08,1.04,8.9,M,41.2,M,,*53

$GPGSA,A,3,20,30,17,05,07,13,14,15,,,,,1.86,1.04,1.55*0F

$GPGSV,3,1,09,05,53,248,41,07,19,064,40,13,60,318,42,14,66,116,44*78

$GPGSV,3,2,09,15,31,306,30,17,06,132,33,20,36,205,38,28,58,155,45*7D

$GPGSV,3,3,09,30,51,053,39*4B

$GPGLL,4049.59826,N,01413.22806,E,163505.00,A,A*6D

$GPGST,163505.00,12,,,,1.8,1.4,3.2*5D

!AIVDM,1,1,,B,17f6F1P00111EerGGhU=jU`60H1P,0*47

!AIVDM,1,1,,B,13=5bv000112@M@GC;DKbqH60D1J,0*26

!AIVDM,1,1,,B,13d4a80Ol<Q2=pbGBM?jiij40D0o,0*25

$GPRMC,163506.00,A,4049.59826,N,01413.22806,E,0.000,0.00,131021,3.72,E,A*34

$GPVTG,0.00,T,356.27,M,0.000,N,0.000,K,A*26

$GPGGA,163506.00,4049.59826,N,01413.22806,E,1,08,1.04,8.9,M,41.2,M,,*50

$GPGSA,A,3,20,30,17,05,07,13,14,15,,,,,1.86,1.04,1.55*0F

!AIVDM,1,1,,B,13c`;@0P1;Q1Eg:GGG54ggv200R`,0*7D

$GPGSV,3,1,09,05,53,248,42,07,19,064,42,13,60,318,44,14,66,116,45*7E

$GPGSV,3,2,09,15,31,306,28,17,06,132,38,20,36,205,41,28,58,155,47*73

$GPGSV,3,3,09,30,51,053,41*44

$GPGLL,4049.59826,N,01413.22806,E,163506.00,A,A*6E

$GPGST,163506.00,13,,,,1.7,1.3,3.1*54

!AIVDM,1,1,,B,13ciE<0P0011Al@GG`W00?v400S7,0*77

!AIVDM,1,1,,A,13ca`>0Okw10t1`GEQ:9u`<20820,0*7E

!AIVDM,1,1,,A,13cWA3003r11>CFGFIQj9Al800S5,0*21

!AIVDM,1,1,,B,D02FhOP2LN?b<`N00m8v000,2*3C

$GPRMC,163507.00,A,4049.59826,N,01413.22806,E,0.000,0.00,131021,3.72,E,A*35

$GPVTG,0.00,T,356.27,M,0.000,N,0.000,K,A*26

$GPGGA,163507.00,4049.59826,N,01413.22806,E,1,08,1.04,8.9,M,41.2,M,,*51

$GPGSA,A,3,20,30,17,05,07,13,14,15,,,,,1.86,1.04,1.55*0F

$GPGSV,3,1,09,05,53,248,42,07,19,064,43,13,60,318,44,14,66,116,45*7F

$GPGSV,3,2,09,15,31,306,27,17,06,132,38,20,36,205,37,28,58,155,47*7D

$GPGSV,3,3,09,30,51,053,40*45

$GPGLL,4049.59826,N,01413.22806,E,163507.00,A,A*6F

$GPGST,163507.00,14,,,,1.6,1.3,3.0*52

!AIVDM,2,1,6,A,53nPCV821kNHaPUO>20t<D4r1HTdTpN22222221J3@d4<6SW0<SPD3k2H888,0*23

!AIVDM,2,2,6,A,88888888880,2*22

!AIVDM,1,1,,A,15BhbP001511Gu>GFr<0a0`60<1h,0*1F

!AIVDM,1,1,,A,13c`==0P0011C6PGGgF74gv:00Sw,0*4F

!AIVDM,1,1,,B,13crd1501P11G9HGGBNmCT:60<1=,0*4B

!AIVDM,2,1,7,A,53cmfm82@1hdTTuC801<4r0LDpp58t000000000l1P?756c=0=3PD3k2@000,0*0A

!AIVDM,2,2,7,A,00000000000,2*23

$GPRMC,163508.00,A,4049.59826,N,01413.22806,E,0.000,0.00,131021,3.72,E,A*3A

$GPVTG,0.00,T,356.27,M,0.000,N,0.000,K,A*26

$GPGGA,163508.00,4049.59826,N,01413.22806,E,1,08,1.04,8.9,M,41.2,M,,*5E

!AIVDM,1,1,,B,13cVlR0P4NQ1KqpGFD=mtgv8062<,0*5C

$GPGSA,A,3,20,30,17,05,07,13,14,15,,,,,1.86,1.04,1.55*0F

$GPGSV,3,1,09,05,53,248,41,07,19,064,40,13,60,318,42,14,66,116,43*7F

$GPGSV,3,2,09,15,31,306,26,17,06,132,35,20,36,205,36,28,58,155,44*73

!AIVDM,1,1,,A,15CV<B002n119c`GD`48vG<800RS,0*74

$GPGSV,3,3,09,30,51,053,38*4A

$GPGLL,4049.59826,N,01413.22806,E,163508.00,A,A*60

$GPGST,163508.00,15,,,,1.6,1.3,3.0*5C

!AIVDM,2,1,8,A,53cc0q42<N1HTHib22058l4p@v0@F0@tlDpT<v0l1cgp04Bj0<CPD3k2H888,0*63

!AIVDM,2,2,8,A,88888888880,2*2C

!AIVDM,1,1,,B,13cWA3003r11>H0GFIlj9il<0<1c,0*76

!AIVDM,1,1,,B,13cVCE002@113NRGEgH2P1t60D1p,0*40

!AIVDM,1,1,,B,14i80v0P01117EPGG7geN?v<0<1J,0*0D

!AIVDM,1,1,,B,ENjOsr@pp?@6a9Qh:94Rab2P0000OPw<=3tD000000N010,4*77

!AIVDM,1,1,,A,13cWAL0P44Q1FhBGBaA0<Ov:00SB,0*4A

$GPRMC,163509.00,A,4049.59826,N,01413.22806,E,0.000,0.00,131021,3.72,E,A*3B

$GPVTG,0.00,T,356.27,M,0.000,N,0.000,K,A*26

$GPGGA,163509.00,4049.59826,N,01413.22806,E,1,08,1.04,8.9,M,41.2,M,,*5F

$GPGSA,A,3,20,30,17,05,07,13,14,15,,,,,1.86,1.04,1.55*0F

$GPGSV,3,1,09,05,53,248,42,07,19,064,43,13,60,318,43,14,66,116,45*78

$GPGSV,3,2,09,15,31,306,25,17,06,132,38,20,36,205,38,28,58,155,46*71

$GPGSV,3,3,09,30,51,053,39*4B

$GPGLL,4049.59826,N,01413.22806,E,163509.00,A,A*61

$GPGST,163509.00,16,,,,1.6,1.3,2.9*56

!AIVDM,1,1,,A,33cmfm5P0f11FJdGGGN6hgv<02fQ,0*37

!AIVDM,1,1,,B,13cbWv7P00Q1W=vGFOiP0?v<R@3s,0*7C

!AIVDM,1,1,,A,13cVlR0P4NQ1KtrGFCbUtgv<0@46,0*46

$GPRMC,163510.00,A,4049.59826,N,01413.22806,E,0.000,0.00,131021,3.72,E,A*33

$GPVTG,0.00,T,356.27,M,0.000,N,0.000,K,A*26

$GPGGA,163510.00,4049.59826,N,01413.22806,E,1,08,1.04,8.9,M,41.2,M,,*57

$GPGSA,A,3,20,30,17,05,07,13,14,15,,,,,1.86,1.04,1.55*0F

$GPGSV,3,1,09,05,53,248,42,07,19,064,41,13,60,318,44,14,66,116,45*7D

$GPGSV,3,2,09,15,31,306,26,17,06,132,39,20,36,205,39,28,58,155,47*73

$GPGSV,3,3,09,30,51,053,41*44

$GPGLL,4049.59826,N,01413.22806,E,163510.00,A,A*69

$GPGST,163510.00,15,,,,1.5,1.2,2.9*5F

!AIVDM,1,1,,A,13ca`>0Okw10sn4GEQ0:08::00S5,0*04

!AIVDM,1,1,,A,13cWA3003s11>L`GFJ9B9Al@0<1c,0*0A

!AIVDM,1,1,,B,35@`?M@61;Q1Ep`GGFg4W3h>00rh,0*05

$GPRMC,163511.00,A,4049.59826,N,01413.22806,E,0.000,0.00,131021,3.72,E,A*32

$GPVTG,0.00,T,356.27,M,0.000,N,0.000,K,A*26

$GPGGA,163511.00,4049.59826,N,01413.22806,E,1,08,1.04,8.9,M,41.2,M,,*56

$GPGSA,A,3,20,30,17,05,07,13,14,15,,,,,1.86,1.04,1.55*0F

$GPGSV,3,1,09,05,53,248,41,07,19,064,41,13,60,318,41,14,66,116,44*7A

$GPGSV,3,2,09,15,31,306,35,17,06,132,38,20,36,205,39,28,58,155,46*71

$GPGSV,3,3,09,30,51,053,39*4B

$GPGLL,4049.59826,N,01413.22806,E,163511.00,A,A*68

$GPGST,163511.00,6.8,,,,1.5,1.2,2.8*7B

$GPRMC,163512.00,A,4049.59826,N,01413.22806,E,0.000,0.00,131021,3.72,E,A*31

$GPVTG,0.00,T,356.27,M,0.000,N,0.000,K,A*26

$GPGGA,163512.00,4049.59826,N,01413.22806,E,1,08,1.04,8.9,M,41.2,M,,*55

$GPGSA,A,3,20,30,17,05,07,13,14,15,,,,,1.86,1.04,1.55*0F

$GPGSV,3,1,09,05,53,248,41,07,19,064,40,13,60,318,42,14,66,116,44*78

$GPGSV,3,2,09,15,31,306,34,17,06,132,38,20,36,205,39,28,58,155,45*73

$GPGSV,3,3,09,30,51,053,38*4A

$GPGLL,4049.59826,N,01413.22806,E,163512.00,A,A*6B

$GPGST,163512.00,7.3,,,,1.5,1.2,2.7*7D

!AIVDM,1,1,,B,13cVlR0P4NQ1KwrGFC7mtgv@062<,0*2D

!AIVDM,1,1,,B,13cWA30Oks11>Q@GFJN291nD0D1c,0*1A

!AIVDM,1,1,,B,13cc0q3P00Q1C7HGGfGDvOvB00Ru,0*16

$GPRMC,163513.00,A,4049.59826,N,01413.22806,E,0.000,0.00,131021,3.72,E,A*30

$GPVTG,0.00,T,356.27,M,0.000,N,0.000,K,A*26

$GPGGA,163513.00,4049.59826,N,01413.22806,E,1,08,1.04,8.9,M,41.2,M,,*54

$GPGSA,A,3,20,30,17,05,07,13,14,15,,,,,1.86,1.04,1.55*0F

!AIVDM,1,1,,A,13cf4V0P00Q2?jTGBGHN4?vB20SK,0*20

$GPGSV,3,1,09,05,53,248,43,07,19,064,43,13,60,318,42,14,66,116,44*79

$GPGSV,3,2,09,15,31,306,34,17,06,132,39,20,36,205,42,28,58,155,46*7D

$GPGSV,3,3,09,30,51,053,38*4A

$GPGLL,4049.59826,N,01413.22806,E,163513.00,A,A*6A

$GPGST,163513.00,7.1,,,,1.4,1.2,2.7*7F

!AIVDM,1,1,,A,13cWAL0P45Q1FhpGBbIh:gvB0@5w,0*5F

!AIVDM,1,1,,B,13cbV17P00Q1gl@GE`W9tOvD2H60,0*74

!AIVDM,1,1,,B,13cVaV0P0011B7dGGdaWv?v>00Sw,0*23

!AIVDM,1,1,,A,35@`?M@61;Q1Ep`GGFg4W3hB011i,0*39

!AIVDM,1,1,,A,17f6F1P00111EenGGhUMjUbF0@6>,0*3B

$GPRMC,163514.00,A,4049.59826,N,01413.22806,E,0.000,0.00,131021,3.72,E,A*37

$GPVTG,0.00,T,356.27,M,0.000,N,0.000,K,A*26

$GPGGA,163514.00,4049.59826,N,01413.22806,E,1,08,1.04,8.9,M,41.2,M,,*53

!AIVDM,1,1,,A,13cVlR0P4MQ1L30GFBU5tOvD0<11,0*3F

!AIVDM,1,1,,B,13d4a80Ol;Q2>@:GBMmRoAlD0D0o,0*7B

$GPGSA,A,3,20,30,17,05,07,13,14,15,,,,,1.86,1.04,1.55*0F

$GPGSV,3,1,09,05,53,248,42,07,19,064,42,13,60,318,43,14,66,116,46*7A

$GPGSV,3,2,09,15,31,306,34,17,06,132,39,20,36,205,42,28,58,155,47*7C

$GPGSV,3,3,09,30,51,053,40*45

$GPGLL,4049.59826,N,01413.22806,E,163514.00,A,A*6D

$GPGST,163514.00,7.1,,,,1.4,1.2,2.6*79

!AIVDM,1,1,,B,402FhOQvFVhS;11BePGGgg700@6b,0*11

!AIVDM,1,1,,A,13ca`>004010se0GEPn:2`8B00Rw,0*50

!AIVDM,1,1,,A,13cWA30Okq11>UpGFJhj91rH00S9,0*0D

$GPRMC,163515.00,A,4049.59826,N,01413.22806,E,0.000,0.00,131021,3.72,E,A*36

$GPVTG,0.00,T,356.27,M,0.000,N,0.000,K,A*26

!AIVDM,1,1,,B,13cWAL0P45Q1Fi:GBbv09wvF0875,0*5F

$GPGGA,163515.00,4049.59826,N,01413.22806,E,1,08,1.04,8.9,M,41.2,M,,*52

$GPGSA,A,3,20,30,17,05,07,13,14,15,,,,,1.86,1.04,1.55*0F

$GPGSV,3,1,09,05,53,248,42,07,19,064,43,13,60,318,43,14,66,116,45*78

$GPGSV,3,2,09,15,31,306,32,17,06,132,38,20,36,205,40,28,58,155,47*79

$GPGSV,3,3,09,30,51,053,40*45

$GPGLL,4049.59826,N,01413.22806,E,163515.00,A,A*6C

$GPGST,163515.00,9.0,,,,1.4,1.1,2.6*74

!AIVDM,1,1,,A,13cVCE002@113ctGEh0RP1rF0<1p,0*51

!AIVDM,1,1,,A,13=5bv000112@M:GC;DcbqHJ062<,0*0C

$GPRMC,163516.00,A,4049.59826,N,01413.22806,E,0.000,0.00,131021,3.72,E,A*35

$GPVTG,0.00,T,356.27,M,0.000,N,0.000,K,A*26

!AIVDM,1,1,,A,13ciE<0P0011Al@GG`W00?vH0@7c,0*48

$GPGGA,163516.00,4049.59826,N,01413.22806,E,1,08,1.04,8.9,M,41.2,M,,*51

$GPGSA,A,3,20,30,17,05,07,13,14,15,,,,,1.86,1.04,1.55*0F

!AIVDM,1,1,,A,13c`;@0P19Q1EnrGGFilROvF0D1>,0*18

$GPGSV,3,1,09,05,53,248,41,07,19,064,42,13,60,318,44,14,66,116,45*7D

$GPGSV,3,2,09,15,31,306,33,17,06,132,38,20,36,205,36,28,58,155,46*78

!AIVDM,1,1,,B,13cVlR0P4MQ1L68GFB2mswvH087e,0*6B

$GPGSV,3,3,09,30,51,053,40*45

$GPGLL,4049.59826,N,01413.22806,E,163516.00,A,A*6F

$GPGST,163516.00,8.7,,,,1.4,1.1,2.6*71

!AIVDM,1,1,,B,13ca`>004210sWHGEPfb586F0D1E,0*3B

!AIVDM,1,1,,A,13cqIV?v00Q17:TGG6Q9j:DJ2L0v,0*61

!AIVDM,1,1,,B,13cWA30Okp11>bRGFK32:ArL0D1d,0*24

!AIVDM,1,1,,B,15BhbP001511GwHGFrnPWh`H0@8;,0*6C

$GPRMC,163517.00,A,4049.59826,N,01413.22806,E,0.000,0.00,131021,3.72,E,A*34

$GPVTG,0.00,T,356.27,M,0.000,N,0.000,K,A*26

$GPGGA,163517.00,4049.59826,N,01413.22806,E,1,07,1.47,8.9,M,41.2,M,,*58

$GPGSA,A,3,20,30,17,05,07,13,14,,,,,,2.54,1.47,2.07*04

$GPGSV,3,1,09,05,53,248,39,07,19,064,40,13,60,318,41,14,66,116,43*73

$GPGSV,3,2,09,15,31,306,,17,06,132,37,20,36,205,37,28,58,155,45*75

$GPGSV,3,3,09,30,51,053,39*4B

$GPGLL,4049.59826,N,01413.22806,E,163517.00,A,A*6E

$GPGST,163517.00,6.1,,,,1.4,1.1,2.6*78

!AIVDM,1,1,,B,13c`==0P0011C6PGGgF7U?vN062<,0*2D

!AIVDM,1,1,,B,35@`?M@6A<Q1EshGGFF4TSlJ0000,0*51

!AIVDM,1,1,,A,13crd15OiP11G@tGGAfEF4DJ0@8R,0*54

$GPRMC,163518.00,A,4049.59826,N,01413.22806,E,0.000,0.00,131021,3.72,E,A*3B

$GPVTG,0.00,T,356.27,M,0.000,N,0.000,K,A*26

$GPGGA,163518.00,4049.59826,N,01413.22806,E,1,08,1.04,8.9,M,41.2,M,,*5F

!AIVDM,1,1,,A,13ca`>004210sQLGEPab588J00SB,0*2E

$GPGSA,A,3,20,30,17,05,07,13,14,15,,,,,1.86,1.04,1.55*0F

!AIVDM,1,1,,A,13cVlR0P4LQ1L9BGFAPms?vL0@8o,0*4C

$GPGSV,3,1,09,05,53,248,41,07,19,064,42,13,60,318,44,14,66,116,45*7D

$GPGSV,3,2,09,15,31,306,33,17,06,132,39,20,36,205,38,28,58,155,46*77

$GPGSV,3,3,09,30,51,053,40*45

$GPGLL,4049.59826,N,01413.22806,E,163518.00,A,A*61

$GPGST,163518.00,13,,,,1.4,1.1,2.5*5F

!AIVDM,1,1,,B,33cmfm5P0g11FMPGGG66@?vL037Q,0*2E

!AIVDM,1,1,,A,14i80v0P00117ELGG7geN?vP00SQ,0*0A

!AIVDM,1,1,,A,13cWA3003o11>gBGFKDj<1tP0<1d,0*31

!AIVDM,1,1,,B,13cWAL0P45Q1FjDGBd5P;OvN089I,0*47

$GPRMC,163519.00,A,4049.59826,N,01413.22806,E,0.000,0.00,131021,3.72,E,A*3A

$GPVTG,0.00,T,356.27,M,0.000,N,0.000,K,A*26

$GPGGA,163519.00,4049.59826,N,01413.22806,E,1,08,1.04,8.9,M,41.2,M,,*5E

$GPGSA,A,3,20,30,17,05,07,13,14,15,,,,,1.86,1.04,1.55*0F

$GPGSV,3,1,09,05,53,248,43,07,19,064,41,13,60,318,43,14,66,116,45*7B

$GPGSV,3,2,09,15,31,306,33,17,06,132,37,20,36,205,41,28,58,155,47*76

$GPGSV,3,3,09,30,51,053,39*4B

$GPGLL,4049.59826,N,01413.22806,E,163519.00,A,A*60

$GPGST,163519.00,9.5,,,,1.3,1.1,2.5*79

!AIVDM,1,1,,A,33cw1h5P00Q1BeVGGd<GUgvH0000,0*0C

$GPRMC,163520.00,A,4049.59826,N,01413.22806,E,0.000,0.00,131021,3.72,E,A*30

$GPVTG,0.00,T,356.27,M,0.000,N,0.000,K,A*26

$GPGGA,163520.00,4049.59826,N,01413.22806,E,1,08,1.04,8.9,M,41.2,M,,*54

$GPGSA,A,3,20,30,17,05,07,13,14,15,,,,,1.86,1.04,1.55*0F

$GPGSV,3,1,09,05,53,248,43,07,19,064,41,13,60,318,43,14,66,116,45*7B

$GPGSV,3,2,09,15,31,306,29,17,06,132,38,20,36,205,41,28,58,155,47*72

$GPGSV,3,3,09,30,51,053,39*4B

$GPGLL,4049.59826,N,01413.22806,E,163520.00,A,A*6A

$GPGST,163520.00,12,,,,1.3,1.1,2.5*52

!AIVDM,1,1,,B,13cVlR0P4LQ1L<HGF@vErwvP00S;,0*55

!AIVDM,1,1,,A,13cbLVgP01Q1WArGFO4K<wvR2<15,0*59

!AIVDM,1,1,,A,35@`?M@61=Q1F08GGFC4TSpR00uP,0*17

!AIVDM,1,1,,B,13cWA3003o11>l6GFKVR=QtT0D1d,0*7A

!AIVDM,1,1,,B,13cVCE002@113k8GEhFRMQvP062<,0*4A

$AITXT,01,01,05,CSTDMA acquisition complete*39

!AIVDM,1,1,,A,13cWAL0P45Q1FjtGBdaP<OvR08:U,0*24

$GPRMC,163521.00,A,4049.59826,N,01413.22806,E,0.000,0.00,131021,3.72,E,A*31

$GPVTG,0.00,T,356.27,M,0.000,N,0.000,K,A*26

$GPGGA,163521.00,4049.59826,N,01413.22806,E,1,08,1.04,8.9,M,41.2,M,,*55

$GPGSA,A,3,20,30,17,05,07,13,14,15,,,,,1.86,1.04,1.55*0F

$GPGSV,3,1,09,05,53,248,42,07,19,064,41,13,60,318,43,14,66,116,44*7B

$GPGSV,3,2,09,15,31,306,30,17,06,132,35,20,36,205,41,28,58,155,46*76

$GPGSV,3,3,09,30,51,053,38*4A

$GPGLL,4049.59826,N,01413.22806,E,163521.00,A,A*6B

$GPGST,163521.00,11,,,,1.3,1.1,2.5*50

!AIVDM,1,1,,B,13cf4V0P00Q2?jTGBGHN4?vT20SA,0*3F

!AIVDM,1,1,,A,13cVlR0P4LQ1L=tGF@e5rgvR0D12,0*05

$GPRMC,163522.00,A,4049.59826,N,01413.22806,E,0.000,0.00,131021,3.72,E,A*32

!AIVDM,1,1,,B,13d4a80Ol8Q2>WBGBNIBrQpT08;;,0*02

$GPVTG,0.00,T,356.27,M,0.000,N,0.000,K,A*26

$GPGGA,163522.00,4049.59826,N,01413.22806,E,1,08,1.04,8.9,M,41.2,M,,*56

$GPGSA,A,3,20,30,17,05,07,13,14,15,,,,,1.86,1.04,1.55*0F

$GPGSV,3,1,09,05,53,248,41,07,19,064,39,13,60,318,42,14,66,116,43*71

$GPGSV,3,2,09,15,31,306,34,17,06,132,36,20,36,205,38,28,58,155,44*7D

$GPGSV,3,3,09,30,51,053,37*45

$GPGLL,4049.59826,N,01413.22806,E,163522.00,A,A*68

$GPGST,163522.00,8.2,,,,1.3,1.1,2.5*77

!AIVDM,1,1,,A,D02FhOQRHN?b<`N01ptv000,2*0A

!AIVDM,1,1,,A,13cWA3003o11>ppGFKpR?1t`062<,0*7A

!AIVDM,1,1,,B,34WoGB5000117J4GG7l:WbDT0Dhr,0*79

!AIVDM,1,1,,B,13cWAL0P45Q1Fk`GBe>0=?vV08;d,0*49

$GPRMC,163523.00,A,4049.59826,N,01413.22806,E,0.000,0.00,131021,3.72,E,A*33

$GPVTG,0.00,T,356.27,M,0.000,N,0.000,K,A*26

$GPGGA,163523.00,4049.59826,N,01413.22806,E,1,08,1.04,8.9,M,41.2,M,,*57

$GPGSA,A,3,20,30,17,05,07,13,14,15,,,,,1.86,1.04,1.55*0F

$GPGSV,3,1,09,05,53,248,44,07,19,064,40,13,60,318,44,14,66,116,45*7A

$GPGSV,3,2,09,15,31,306,35,17,06,132,36,20,36,205,40,28,58,155,46*71

$GPGSV,3,3,09,30,51,053,39*4B

$GPGLL,4049.59826,N,01413.22806,E,163523.00,A,A*69

$GPGST,163523.00,7.2,,,,1.3,1.1,2.5*79

!AIVDM,1,1,,A,13cbV17P00Q1gl@GE`VP0?v`2L1<,0*00

$GPRMC,163524.00,A,4049.59826,N,01413.22806,E,0.000,0.00,131021,3.72,E,A*34

$GPVTG,0.00,T,356.27,M,0.000,N,0.000,K,A*26

$GPGGA,163524.00,4049.59826,N,01413.22806,E,1,08,1.04,8.9,M,41.2,M,,*50

$GPGSA,A,3,20,30,17,05,07,13,14,15,,,,,1.87,1.04,1.55*0E

$GPGSV,3,1,09,05,53,248,42,07,19,064,39,13,60,318,42,14,66,116,44*75

$GPGSV,3,2,09,15,31,306,33,17,06,132,36,20,36,205,39,28,58,155,45*7A

$GPGSV,3,3,09,30,51,053,39*4B

$GPGLL,4049.59826,N,01413.22806,E,163524.00,A,A*6E

$GPGST,163524.00,8.3,,,,1.3,1.1,2.4*71

!AIVDM,1,1,,B,35@`?M@5i>Q1F20GGFF4TSr`00tA,0*63

!AIVDM,1,1,,B,13cVlR0P4LQ1LBTGF?pmrgv`08<N,0*54

!AIVDM,1,1,,A,402FhOQvFVhSE11BePGGgg700<16,0*43

!AIVDM,1,1,,B,13ca`>004410s<lGEP@b58:V0D1E,0*48

!AIVDM,1,1,,B,13cWA3003p11>ufGFL:B?itd00S9,0*16

$GPRMC,163525.00,A,4049.59826,N,01413.22806,E,0.000,0.00,131021,3.72,E,A*35

$GPVTG,0.00,T,356.27,M,0.000,N,0.000,K,A*26

!AIVDM,1,1,,A,13cVaV0P0011B7dGGdaWv?vV00RO,0*71

$GPGGA,163525.00,4049.59826,N,01413.22806,E,1,08,1.04,8.9,M,41.2,M,,*51

$GPGSA,A,3,20,30,17,05,07,13,14,15,,,,,1.87,1.04,1.55*0E

$GPGSV,3,1,09,05,53,248,42,07,19,064,41,13,60,318,43,14,66,116,44*7B

$GPGSV,3,2,09,15,31,306,28,17,06,132,36,20,36,205,39,28,58,155,46*73

$GPGSV,3,3,09,30,51,053,39*4B

$GPGLL,4049.59826,N,01413.22806,E,163525.00,A,A*6F

$GPGST,163525.00,13,,,,1.3,1.1,2.4*57

!AIVDM,1,1,,A,13cWAL0P45Q1FlFGBej0=wvb00S6,0*71

!AIVDM,1,1,,B,17f6F1P00111EefGGhUujUdd0<0l,0*04

!AIVDM,1,1,,B,B3chRO000H@Ad@5miSkQ3wc1nDw:,0*36

!AIVDM,1,1,,B,15CV<B002m119?>GDUg`vG<d08=B,0*62

!AIVDM,1,1,,B,13d4a80048Q2>jtGBNc2sQld0@=K,0*57

$GPRMC,163526.00,A,4049.59826,N,01413.22806,E,0.000,0.00,131021,3.72,E,A*36

$GPVTG,0.00,T,356.27,M,0.000,N,0.000,K,A*26

$GPGGA,163526.00,4049.59826,N,01413.22806,E,1,08,1.04,8.9,M,41.2,M,,*52

$GPGSA,A,3,20,30,17,05,07,13,14,15,,,,,1.87,1.04,1.55*0E

!AIVDM,1,1,,A,13cVlR0P4LQ1LEhGF?FUrOvd08=S,0*52

$GPGSV,3,1,09,05,53,248,43,07,19,064,42,13,60,318,43,14,66,116,45*78

$GPGSV,3,2,09,15,31,306,27,17,06,132,37,20,36,205,40,28,58,155,47*72

$GPGSV,3,3,09,30,51,053,40*45

$GPGLL,4049.59826,N,01413.22806,E,163526.00,A,A*6C

$GPGST,163526.00,14,,,,1.3,1.1,2.4*53

!AIVDM,1,1,,A,13ca`>004410s9dGEP>:58:`0@=W,0*4C

!AIVDM,1,1,,A,E@2FhNPTVa1Qh97VRP0000000000LSI8;uuO000000N010,4*71

!AIVDM,1,1,,A,13cWA3003p11?2`GFLKj@Ath08=d,0*6C

!AIVDM,1,1,,B,13=5bv000112@M:GC;D;bqHh08=e,0*2D

!AIVDM,1,1,,B,13c`;@0P18Q1Ew6GGFLTNgvd00RP,0*35

!AIVDM,1,1,,B,13crd15PAP11GG6GG@w5P4>d0@=t,0*24

!AIVDM,1,1,,A,190wo`P01v1146tGCNkQwATh0@=u,0*75

!AIVDM,1,1,,A,15BhbP001511H1JGFsRPVP`d0<1h,0*2A

!AIVDM,1,1,,B,13cWAL0P46Q1FldGBfFh<wvf08>4,0*46

$GPRMC,163527.00,A,4049.59826,N,01413.22806,E,0.000,0.00,131021,3.72,E,A*37

$GPVTG,0.00,T,356.27,M,0.000,N,0.000,K,A*26

$GPGGA,163527.00,4049.59826,N,01413.22806,E,1,08,1.04,8.9,M,41.2,M,,*53

$GPGSA,A,3,20,30,17,05,07,13,14,15,,,,,1.87,1.04,1.55*0E

$GPGSV,3,1,09,05,53,248,39,07,19,064,41,13,60,318,42,14,66,116,43*71

$GPGSV,3,2,09,15,31,306,31,17,06,132,36,20,36,205,38,28,58,155,45*79

$GPGSV,3,3,09,30,51,053,38*4A

!AIVDM,1,1,,A,35@`?M@51>Q1F58GGEu4TStf0000,0*32

$GPGLL,4049.59826,N,01413.22806,E,163527.00,A,A*6D

$GPGST,163527.00,9.9,,,,1.3,1.1,2.4*79

!AIVDM,1,1,,B,14i80v0P00117EPGG7gMN?vj062<,0*0D

!AIVDM,1,1,,B,13cVlR0P4LQ1LGDGF?5Uqwvf062<,0*5B

$GPRMC,163528.00,A,4049.59826,N,01413.22806,E,0.000,0.00,131021,3.72,E,A*38

$GPVTG,0.00,T,356.27,M,0.000,N,0.000,K,A*26

$GPGGA,163528.00,4049.59826,N,01413.22806,E,1,08,1.04,8.9,M,41.2,M,,*5C

$GPGSA,A,3,20,30,17,05,07,13,14,15,,,,,1.87,1.04,1.55*0E

$GPGSV,3,1,09,05,53,248,43,07,19,064,41,13,60,318,43,14,66,116,45*7B

$GPGSV,3,2,09,15,31,306,31,17,06,132,38,20,36,205,41,28,58,155,47*7B

$GPGSV,3,3,09,30,51,053,38*4A

$GPGLL,4049.59826,N,01413.22806,E,163528.00,A,A*62

$GPGST,163528.00,9.7,,,,1.3,1.1,2.4*78

!AIVDM,1,1,,A,13d4a80047Q2>pdGBNl2siph08>h,0*2E

!AIVDM,1,1,,B,13cWA3003q11?7RGFLd2Aitl0L1d,0*7B

!AIVDM,1,1,,A,13c`==0P0011C6PGGgF7b?vl00Rs,0*12

$GPRMC,163529.00,A,4049.59826,N,01413.22806,E,0.000,0.00,131021,3.72,E,A*39

$GPVTG,0.00,T,356.27,M,0.000,N,0.000,K,A*26

$GPGGA,163529.00,4049.59826,N,01413.22806,E,1,08,1.04,8.9,M,41.2,M,,*5D

$GPGSA,A,3,20,30,17,05,07,13,14,15,,,,,1.87,1.04,1.55*0E

$GPGSV,3,1,09,05,53,248,40,07,19,064,40,13,60,318,42,14,66,116,44*79

$GPGSV,3,2,09,15,31,306,31,17,06,132,36,20,36,205,39,28,58,155,45*78

$GPGSV,3,3,09,30,51,053,39*4B

$GPGLL,4049.59826,N,01413.22806,E,163529.00,A,A*63

$GPGST,163529.00,9.8,,,,1.3,1.1,2.4*76

$AITXT,01,01,02,Starting DSC monitor period on channel 1*1C

!AIVDM,1,1,,B,13d4a80046Q2>vFGBNu2sirl08?j,0*14

$GPRMC,163530.00,A,4049.59826,N,01413.22806,E,0.000,0.00,131021,3.72,E,A*31

$GPVTG,0.00,T,356.27,M,0.000,N,0.000,K,A*26

$GPGGA,163530.00,4049.59826,N,01413.22806,E,1,08,1.04,8.9,M,41.2,M,,*55

$GPGSA,A,3,20,30,17,05,07,13,14,15,,,,,1.87,1.04,1.55*0E

$GPGSV,3,1,09,05,53,248,42,07,19,064,41,13,60,318,45,14,66,116,46*7F

$GPGSV,3,2,09,15,31,306,36,17,06,132,40,20,36,205,41,28,58,155,47*73

$GPGSV,3,3,09,30,51,053,41*44

$GPGLL,4049.59826,N,01413.22806,E,163530.00,A,A*6B

$GPGST,163530.00,6.0,,,,1.3,1.1,2.4*79

!AIVDM,1,1,,B,35@`?M@4i?Q1F7nGGEmDW3vn00tP,0*18

!AIVDM,1,1,,B,13cbWv7P00Q1W=tGFOhh0?vnR<0w,0*6E

!AIVDM,1,1,,B,13cWAL0P46Q1FmbGBgP0<Ovn062<,0*34

$GPRMC,163531.00,A,4049.59826,N,01413.22806,E,0.000,0.00,131021,3.72,E,A*30

$GPVTG,0.00,T,356.27,M,0.000,N,0.000,K,A*26

$GPGGA,163531.00,4049.59826,N,01413.22806,E,1,08,1.04,8.9,M,41.2,M,,*54

$GPGSA,A,3,20,30,17,05,07,13,14,15,,,,,1.87,1.04,1.55*0E

$GPGSV,3,1,09,05,53,248,42,07,19,064,42,13,60,318,44,14,66,116,46*7D

$GPGSV,3,2,09,15,31,306,35,17,06,132,41,20,36,205,41,28,58,155,47*71

$GPGSV,3,3,09,30,51,053,42*47

$GPGLL,4049.59826,N,01413.22806,E,163531.00,A,A*6A

$GPGST,163531.00,6.5,,,,1.2,1.1,2.4*7C

$GPRMC,163532.00,A,4049.59826,N,01413.22806,E,0.000,0.00,131021,3.72,E,A*33

$GPVTG,0.00,T,356.27,M,0.000,N,0.000,K,A*26

$GPGGA,163532.00,4049.59826,N,01413.22806,E,1,08,1.04,8.9,M,41.2,M,,*57

$GPGSA,A,3,20,30,17,05,07,13,14,15,,,,,1.87,1.04,1.55*0E

$GPGSV,3,1,09,05,53,248,42,07,19,064,42,13,60,318,43,14,66,116,45*79

$GPGSV,3,2,09,15,31,306,29,17,06,132,40,20,36,205,42,28,58,155,47*7E

$GPGSV,3,3,09,30,51,053,42*47

$GPGLL,4049.59826,N,01413.22806,E,163532.00,A,A*69

$GPGST,163532.00,12,,,,1.2,1.1,2.3*56

!AIVDM,1,1,,B,13cVlR0P4LQ1LO@GF=gEqOvp00S7,0*55

!AIVDM,1,1,,B,13cWA3003q11?AFGFMAjBQtt062<,0*67

$GPRMC,163533.00,A,4049.59826,N,01413.22806,E,0.000,0.00,131021,3.72,E,A*32

$GPVTG,0.00,T,356.27,M,0.000,N,0.000,K,A*26

!AIVDM,1,1,,B,13cVCE002?1146<GEi@RMQtr0@A`,0*15

$GPGGA,163533.00,4049.59826,N,01413.22806,E,1,08,1.04,8.9,M,41.2,M,,*56

$GPGSA,A,3,20,30,17,05,07,13,14,15,,,,,1.87,1.04,1.55*0E

$GPGSV,3,1,09,05,53,248,42,07,19,064,42,13,60,318,43,14,66,116,45*79

$GPGSV,3,2,09,15,31,306,30,17,06,132,41,20,36,205,40,28,58,155,46*74

$GPGSV,3,3,09,30,51,053,40*45

$GPGLL,4049.59826,N,01413.22806,E,163533.00,A,A*68

$GPGST,163533.00,10,,,,1.2,1.1,2.3*55

!AIVDM,1,1,,B,13cbV17P00Q1gl<GE`V9t?vt2D1<,0*4E

!AIVDM,1,1,,B,13cVaV0P0011B7dGGdaWv?vr0D0u,0*7A

$GPRMC,163534.00,A,4049.59826,N,01413.22806,E,0.000,0.00,131021,3.72,E,A*35

$GPVTG,0.00,T,356.27,M,0.000,N,0.000,K,A*26

!AIVDM,1,1,,B,13d4a80Ol5Q2?9nGBO<Ruitt00S<,0*54

$GPGGA,163534.00,4049.59826,N,01413.22806,E,1,08,1.04,8.9,M,41.2,M,,*51

$GPGSA,A,3,20,30,17,05,07,13,14,15,,,,,1.87,1.04,1.55*0E

$GPGSV,3,1,09,05,53,248,42,07,19,064,41,13,60,318,43,14,66,116,44*7B

$GPGSV,3,2,09,15,31,306,30,17,06,132,39,20,36,205,42,28,58,155,46*79

$GPGSV,3,3,09,30,51,053,41*44

$GPGLL,4049.59826,N,01413.22806,E,163534.00,A,A*6F

$GPGST,163534.00,10,,,,1.2,1.1,2.3*52

!AIVDM,1,1,,B,13d4a80Ol5Q2?9nGBO<Ruitt00S:,0*52

!AIVDM,1,1,,B,402FhOQvFVhSO11BePGGgg7008BH,0*43

$GPRMC,163535.00,A,4049.59826,N,01413.22806,E,0.000,0.00,131021,3.72,E,A*34

$GPVTG,0.00,T,356.27,M,0.000,N,0.000,K,A*26

$GPGGA,163535.00,4049.59826,N,01413.22806,E,1,08,1.04,8.9,M,41.2,M,,*50

$GPGSA,A,3,20,30,17,05,07,13,14,15,,,,,1.87,1.04,1.55*0E

$GPGSV,3,1,09,05,53,248,43,07,19,064,39,13,60,318,43,14,66,116,44*75

$GPGSV,3,2,09,15,31,306,31,17,06,132,39,20,36,205,40,28,58,155,46*7A

$GPGSV,3,3,09,30,51,053,41*44

$GPGLL,4049.59826,N,01413.22806,E,163535.00,A,A*6E

$GPGST,163535.00,9.3,,,,1.2,1.1,2.3*76

$GPRMC,163536.00,A,4049.59826,N,01413.22806,E,0.000,0.00,131021,3.72,E,A*37

$GPVTG,0.00,T,356.27,M,0.000,N,0.000,K,A*26

$GPGGA,163536.00,4049.59826,N,01413.22806,E,1,08,1.04,8.9,M,41.2,M,,*53

!AIVDM,1,1,,B,13cVlR0P4LQ1LU@GF<`mrOw0062<,0*4F

$GPGSA,A,3,20,30,17,05,07,13,14,15,,,,,1.87,1.04,1.55*0E

$GPGSV,3,1,09,05,53,248,42,07,19,064,40,13,60,318,42,14,66,116,43*7C

$GPGSV,3,2,09,15,31,306,31,17,06,132,38,20,36,205,39,28,58,155,46*75

$GPGSV,3,3,09,30,51,053,39*4B

$GPGLL,4049.59826,N,01413.22806,E,163536.00,A,A*6D

$GPGST,163536.00,9.5,,,,1.2,1.1,2.3*73

$GPRMC,163537.00,A,4049.59826,N,01413.22806,E,0.000,0.00,131021,3.72,E,A*36

$GPVTG,0.00,T,356.27,M,0.000,N,0.000,K,A*26

$GPGGA,163537.00,4049.59826,N,01413.22806,E,1,07,1.48,8.9,M,41.2,M,,*55

$GPGSA,A,3,20,30,17,05,07,13,14,,,,,,2.54,1.48,2.07*0B

!AIVDM,1,1,,B,190wo`P01v114C8GCOi1v1U4062<,0*30

$GPGSV,3,1,09,05,53,248,41,07,19,064,41,13,60,318,43,14,66,116,44*78

!AIVDM,1,1,,B,35@`?M@41?Q1F;HGGET4aT120000,0*4D

$GPGSV,3,2,09,15,31,306,,17,06,132,37,20,36,205,40,28,58,155,46*76

$GPGSV,3,3,09,30,51,053,40*45

$GPGLL,4049.59826,N,01413.22806,E,163537.00,A,A*6C

$GPGST,163537.00,5.4,,,,1.2,1.1,2.3*7F

!AIVDM,1,1,,B,15BhbP001611H48GFtKPcPW408DO,0*47

!AIVDM,1,1,,B,15CV<B002m118tNGDT=8vG=40<1W,0*17

$GPRMC,163538.00,A,4049.59826,N,01413.22806,E,0.000,0.00,131021,3.72,E,A*39

$GPVTG,0.00,T,356.27,M,0.000,N,0.000,K,A*26

$GPGGA,163538.00,4049.59826,N,01413.22806,E,1,08,1.04,8.9,M,41.2,M,,*5D

$GPGSA,A,3,20,30,17,05,07,13,14,15,,,,,1.87,1.04,1.55*0E

$GPGSV,3,1,09,05,53,248,41,07,19,064,41,13,60,318,43,14,66,116,44*78

$GPGSV,3,2,09,15,31,306,27,17,06,132,36,20,36,205,40,28,58,155,46*72

$GPGSV,3,3,09,30,51,053,38*4A

$GPGLL,4049.59826,N,01413.22806,E,163538.00,A,A*63

$GPGST,163538.00,17,,,,1.2,1.1,2.3*59

!AIVDM,1,1,,B,13c`==0P0011C6PGGgF7Mgw808De,0*3B

$GPRMC,163539.00,A,4049.59826,N,01413.22806,E,0.000,0.00,131021,3.72,E,A*38

$GPVTG,0.00,T,356.27,M,0.000,N,0.000,K,A*26

$GPGGA,163539.00,4049.59826,N,01413.22806,E,1,08,1.04,8.9,M,41.2,M,,*5C

$GPGSA,A,3,20,30,17,05,07,13,14,15,,,,,1.87,1.04,1.55*0E

$GPGSV,3,1,09,05,53,248,43,07,19,064,41,13,60,318,44,14,66,116,45*7C

$GPGSV,3,2,09,15,31,306,28,17,06,132,37,20,36,205,41,28,58,155,47*7C

$GPGSV,3,3,09,30,51,053,41*44

$GPGLL,4049.59826,N,01413.22806,E,163539.00,A,A*62

$GPGST,163539.00,14,,,,1.2,1.1,2.3*5B

!AIVDM,1,1,,B,33cmfm5P1211Fb0GGEk5Ugw80001,0*35

$GPRMC,163540.00,A,4049.59826,N,01413.22806,E,0.000,0.00,131021,3.72,E,A*36

$GPVTG,0.00,T,356.27,M,0.000,N,0.000,K,A*26

$GPGGA,163540.00,4049.59826,N,01413.22806,E,1,08,1.04,8.9,M,41.2,M,,*52

$GPGSA,A,3,20,30,17,05,07,13,14,15,,,,,1.87,1.04,1.55*0E

$GPGSV,3,1,09,05,53,248,44,07,19,064,42,13,60,318,46,14,66,116,46*79

$GPGSV,3,2,09,15,31,306,31,17,06,132,39,20,36,205,42,28,58,155,47*79

$GPGSV,3,3,09,30,51,053,42*47

$GPGLL,4049.59826,N,01413.22806,E,163540.00,A,A*6C

$GPGST,163540.00,10,,,,1.2,1.1,2.3*51

!AIVDM,1,1,,B,13cWA3003r11?U0GFNHBCAu<062<,0*7C

$GPRMC,163541.00,A,4049.59826,N,01413.22806,E,0.000,0.00,131021,3.72,E,A*37

$GPVTG,0.00,T,356.27,M,0.000,N,0.000,K,A*26

$GPGGA,163541.00,4049.59826,N,01413.22806,E,1,08,1.04,8.9,M,41.2,M,,*53

$GPGSA,A,3,20,30,17,05,07,13,14,15,,,,,1.87,1.04,1.55*0E

$GPGSV,3,1,09,05,53,248,42,07,19,064,41,13,60,318,43,14,66,116,45*7A

$GPGSV,3,2,09,15,31,306,31,17,06,132,37,20,36,205,43,28,58,155,46*77

$GPGSV,3,3,09,30,51,053,41*44

$GPGLL,4049.59826,N,01413.22806,E,163541.00,A,A*6D

$GPGST,163541.00,9.6,,,,1.2,1.1,2.3*70

$GPRMC,163542.00,A,4049.59826,N,01413.22806,E,0.000,0.00,131021,3.72,E,A*34

$GPVTG,0.00,T,356.27,M,0.000,N,0.000,K,A*26

$GPGGA,163542.00,4049.59826,N,01413.22806,E,1,08,1.04,8.9,M,41.2,M,,*50

$GPGSA,A,3,20,30,17,05,07,13,14,15,,,,,1.87,1.04,1.55*0E

$GPGSV,3,1,09,05,53,248,43,07,19,064,42,13,60,318,44,14,66,116,45*7F

$GPGSV,3,2,09,15,31,306,31,17,06,132,39,20,36,205,43,28,58,155,46*79

$GPGSV,3,3,09,30,51,053,41*44

!AIVDM,1,1,,B,13d4a80OkwQ2?PPGBOPk62?<0<0u,0*2E

$GPGLL,4049.59826,N,01413.22806,E,163542.00,A,A*6E

$GPGST,163542.00,9.2,,,,1.2,1.0,2.3*76

!AIVDM,1,1,,B,13cf4V0P00Q2?jVGBGGv4?w>2D19,0*0F

!AIVDM,1,1,,B,13cWAL0P49Q1FpbGBju0<?w>0D0m,0*0E

$GPRMC,163543.00,A,4049.59826,N,01413.22806,E,0.000,0.00,131021,3.72,E,A*35

$GPVTG,0.00,T,356.27,M,0.000,N,0.000,K,A*26

$GPGGA,163543.00,4049.59826,N,01413.22806,E,1,08,1.04,8.9,M,41.2,M,,*51

$GPGSA,A,3,20,30,17,05,07,13,14,15,,,,,1.87,1.04,1.55*0E

$GPGSV,3,1,09,05,53,248,42,07,19,064,40,13,60,318,46,14,66,116,45*7E

$GPGSV,3,2,09,15,31,306,32,17,06,132,39,20,36,205,43,28,58,155,47*7B

$GPGSV,3,3,09,30,51,053,40*45

$GPGLL,4049.59826,N,01413.22806,E,163543.00,A,A*6F

$GPGST,163543.00,8.5,,,,1.2,1.0,2.3*71

!AIVDM,1,1,,B,17f6F1PP@111EedGGhTujUaB0D0j,0*4A

$GPRMC,163544.00,A,4049.59826,N,01413.22806,E,0.000,0.00,131021,3.72,E,A*32

!AIVDM,1,1,,B,13cVlR0P4MQ1LhtGF:Jmugw@062<,0*34

$GPVTG,0.00,T,356.27,M,0.000,N,0.000,K,A*26

$GPGGA,163544.00,4049.59826,N,01413.22806,E,1,08,1.04,8.9,M,41.2,M,,*56

$GPGSA,A,3,20,30,17,05,07,13,14,15,,,,,1.87,1.04,1.55*0E

$GPGSV,3,1,09,05,53,248,41,07,19,064,40,13,60,318,45,14,66,116,45*7E

$GPGSV,3,2,09,15,31,306,33,17,06,132,36,20,36,205,40,28,58,155,45*74

$GPGSV,3,3,09,30,51,053,38*4A

$GPGLL,4049.59826,N,01413.22806,E,163544.00,A,A*68

$GPGST,163544.00,8.3,,,,1.2,1.0,2.3*70

!AIVDM,1,1,,B,13cWA3003r11?flGFNt2CiuD0@HA,0*7E

!AIVDM,1,1,,B,35@`?M@4Q@Q1FA`GGE;4i45B00rA,0*40

!AIVDM,1,1,,B,13cVCE002?114FLGEj2RMQuB0<1o,0*56

$GPRMC,163545.00,A,4049.59826,N,01413.22806,E,0.000,0.00,131021,3.72,E,A*33

$GPVTG,0.00,T,356.27,M,0.000,N,0.000,K,A*26

!AIVDM,1,1,,B,13c`;@0P17Q1F;DGGEfDjgw@00SI,0*27

$GPGGA,163545.00,4049.59826,N,01413.22806,E,1,08,1.04,8.9,M,41.2,M,,*57

$GPGSA,A,3,20,30,17,05,07,13,14,15,,,,,1.87,1.04,1.55*0E

$GPGSV,3,1,09,05,53,248,42,07,19,064,39,13,60,318,46,14,66,116,46*73

$GPGSV,3,2,09,15,31,306,32,17,06,132,40,20,36,205,41,28,58,155,46*76

$GPGSV,3,3,09,30,51,053,40*45

$GPGLL,4049.59826,N,01413.22806,E,163545.00,A,A*69

$GPGST,163545.00,8.5,,,,1.2,1.0,2.3*77

!AIVDM,1,1,,B,13=5bv000012@M:GC;BcbqIF08I4,0*78

!AIVDM,1,1,,B,13d4a80OkqQ2?cJGBOT3<RGD0@I:,0*7D

!AIVDM,1,1,,B,13crd15PAO11GVHGG?Q5CkwD0D1>,0*6A

$GPRMC,163546.00,A,4049.59826,N,01413.22806,E,0.000,0.00,131021,3.72,E,A*30

!AIVDM,1,1,,B,13ciE<0P0011Al@GG`W00?wD062<,0*6A

$GPVTG,0.00,T,356.27,M,0.000,N,0.000,K,A*26

$GPGGA,163546.00,4049.59826,N,01413.22806,E,1,08,1.04,8.9,M,41.2,M,,*54

$GPGSA,A,3,20,30,17,05,07,13,14,15,,,,,1.87,1.04,1.55*0E

$GPGSV,3,1,09,05,53,248,41,07,19,064,37,13,60,318,45,14,66,116,45*7E

$GPGSV,3,2,09,15,31,306,35,17,06,132,39,20,36,205,41,28,58,155,45*7C

$GPGSV,3,3,09,30,51,053,39*4B

$GPGLL,4049.59826,N,01413.22806,E,163546.00,A,A*6A

$GPGST,163546.00,7.1,,,,1.2,1.0,2.3*7F

!AIVDM,1,1,,B,H3cV76TUCBD5?de00000002`333t,0*00

!AIVDM,1,1,,B,13cqIV?400Q17:TGG6Qqj:GF262<,0*55

$GPRMC,163547.00,A,4049.59826,N,01413.22806,E,0.000,0.00,131021,3.72,E,A*31

$GPVTG,0.00,T,356.27,M,0.000,N,0.000,K,A*26

$GPGGA,163547.00,4049.59826,N,01413.22806,E,1,08,1.04,8.9,M,41.2,M,,*55

$GPGSA,A,3,20,30,17,05,07,13,14,15,,,,,1.87,1.04,1.55*0E

$GPGSV,3,1,09,05,53,248,40,07,19,064,39,13,60,318,42,14,66,116,43*70

$GPGSV,3,2,09,15,31,306,35,17,06,132,37,20,36,205,41,28,58,155,45*72

$GPGSV,3,3,09,30,51,053,41*44

$GPGLL,4049.59826,N,01413.22806,E,163547.00,A,A*6B

$GPGST,163547.00,7.0,,,,1.2,1.0,2.3*7F

!AIVDM,1,1,,B,14i80v0P00117EHGG7geN?wJ08J;,0*6D

$GPRMC,163548.00,A,4049.59826,N,01413.22806,E,0.000,0.00,131021,3.72,E,A*3E

$GPVTG,0.00,T,356.27,M,0.000,N,0.000,K,A*26

$GPGGA,163548.00,4049.59826,N,01413.22806,E,1,08,1.04,8.9,M,41.2,M,,*5A

$GPGSA,A,3,20,30,17,05,07,13,14,15,,,,,1.87,1.04,1.55*0E

!AIVDM,1,1,,B,13cVlR0P4MQ1LnhGF9CmvOwH0D15,0*7F

$GPGSV,3,1,09,05,53,248,41,07,19,064,41,13,60,318,44,14,66,116,45*7E

$GPGSV,3,2,09,15,31,306,34,17,06,132,39,20,36,205,42,28,58,155,46*7D

$GPGSV,3,3,09,30,51,053,42*47

$GPGLL,4049.59826,N,01413.22806,E,163548.00,A,A*64

$GPGST,163548.00,7.0,,,,1.2,1.0,2.3*70

!AIVDM,1,1,,B,13cWA3003r11?p`GFOPRCQuL08Jb,0*48

$GPRMC,163549.00,A,4049.59826,N,01413.22806,E,0.000,0.00,131021,3.72,E,A*3F

$GPVTG,0.00,T,356.27,M,0.000,N,0.000,K,A*26

$GPGGA,163549.00,4049.59826,N,01413.22806,E,1,08,1.04,8.9,M,41.2,M,,*5B

$GPGSA,A,3,20,30,17,05,07,13,14,15,,,,,1.87,1.04,1.55*0E

$GPGSV,3,1,09,05,53,248,41,07,19,064,41,13,60,318,44,14,66,116,45*7E

$GPGSV,3,2,09,15,31,306,33,17,06,132,39,20,36,205,41,28,58,155,46*79

$GPGSV,3,3,09,30,51,053,40*45

$GPGLL,4049.59826,N,01413.22806,E,163549.00,A,A*65

$GPGST,163549.00,7.6,,,,1.2,1.0,2.3*77

!AIVDM,1,1,,B,15CV<B002m118c6GDRk`vW=L062<,0*7A

!AIVDM,1,1,,B,35BhbP001611H70GFu<hi0UJ00<h,0*41

$GPRMC,163550.00,A,4049.59826,N,01413.22806,E,0.000,0.00,131021,3.72,E,A*37

$GPVTG,0.00,T,356.27,M,0.000,N,0.000,K,A*26

$GPGGA,163550.00,4049.59826,N,01413.22806,E,1,08,1.04,8.9,M,41.2,M,,*53

$GPGSA,A,3,20,30,17,05,07,13,14,15,,,,,1.87,1.04,1.55*0E

$GPGSV,3,1,09,05,53,248,41,07,19,064,40,13,60,318,44,14,66,116,44*7E

$GPGSV,3,2,09,15,31,306,29,17,06,132,37,20,36,205,41,28,58,155,45*7F

$GPGSV,3,3,09,30,51,053,39*4B

$GPGLL,4049.59826,N,01413.22806,E,163550.00,A,A*6D

$GPGST,163550.00,11,,,,1.2,1.0,2.3*50

!AIVDM,1,1,,B,35E3lN500011L<vGGCcm<T;J0P00,0*40

!AIVDM,1,1,,B,35@`?M@5Q@Q1FGpGGDj4n49N00r@,0*01

$GPRMC,163551.00,A,4049.59826,N,01413.22806,E,0.000,0.00,131021,3.72,E,A*36

$GPVTG,0.00,T,356.27,M,0.000,N,0.000,K,A*26

!AIVDM,1,1,,B,13cWAL0P48Q1Ft<GBm>@A?wN062<,0*45

$GPGGA,163551.00,4049.59826,N,01413.22806,E,1,08,1.04,8.9,M,41.2,M,,*52

$GPGSA,A,3,20,30,17,05,07,13,14,15,,,,,1.87,1.04,1.55*0E

$GPGSV,3,1,09,05,53,248,42,07,19,064,40,13,60,318,45,14,66,116,46*7E

$GPGSV,3,2,09,15,31,306,30,17,06,132,37,20,36,205,41,28,58,155,46*74

$GPGSV,3,3,09,30,51,053,41*44

$GPGLL,4049.59826,N,01413.22806,E,163551.00,A,A*6C

$GPGST,163551.00,11,,,,1.2,1.0,2.3*51

$GPRMC,163552.00,A,4049.59826,N,01413.22806,E,0.000,0.00,131021,3.72,E,A*35

$GPVTG,0.00,T,356.27,M,0.000,N,0.000,K,A*26

$GPGGA,163552.00,4049.59826,N,01413.22806,E,1,08,1.04,8.9,M,41.2,M,,*51

$GPGSA,A,3,20,30,17,05,07,13,14,15,,,,,1.87,1.04,1.55*0E

$GPGSV,3,1,09,05,53,248,42,07,19,064,40,13,60,318,44,14,66,116,46*7F

$GPGSV,3,2,09,15,31,306,37,17,06,132,37,20,36,205,41,28,58,155,46*73

$GPGSV,3,3,09,30,51,053,42*47

$GPGLL,4049.59826,N,01413.22806,E,163552.00,A,A*6F

$GPGST,163552.00,6.0,,,,1.2,1.0,2.2*7B

!AIVDM,1,1,,B,13cVlR0P4MQ1LtTGF8<Uw?wP0D16,0*75

!AIVDM,1,1,,B,35BhbP0PA611H7hGFuIhihSP01n0,0*33

!AIVDM,1,1,,B,13cWA3003q11@2LGFP4RCQuT0L1d,0*30

!AIVDM,1,1,,B,ENjO`0C2psIH@1P`7h6TaRW7P000P?lb;bc2`10888N000,4*2D

!AIVDM,1,1,,B,13cbV17P00Q1glTGE`W@0?wR20SM,0*5A

$GPRMC,163553.00,A,4049.59826,N,01413.22806,E,0.000,0.00,131021,3.72,E,A*34

$GPVTG,0.00,T,356.27,M,0.000,N,0.000,K,A*26

$GPGGA,163553.00,4049.59826,N,01413.22806,E,1,08,1.04,8.9,M,41.2,M,,*50

$GPGSA,A,3,20,30,17,05,07,13,14,15,,,,,1.87,1.04,1.55*0E

$GPGSV,3,1,09,05,53,248,41,07,19,064,40,13,60,318,43,14,66,116,43*7E

$GPGSV,3,2,09,15,31,306,33,17,06,132,36,20,36,205,40,28,58,155,45*74

$GPGSV,3,3,09,30,51,053,41*44

$GPGLL,4049.59826,N,01413.22806,E,163553.00,A,A*6E

$GPGST,163553.00,8.2,,,,1.2,1.0,2.3*77

$GPRMC,163554.00,A,4049.59826,N,01413.22806,E,0.000,0.00,131021,3.72,E,A*33

$GPVTG,0.00,T,356.27,M,0.000,N,0.000,K,A*26

$GPGGA,163554.00,4049.59826,N,01413.22806,E,1,08,1.04,8.9,M,41.2,M,,*57

$GPGSA,A,3,20,30,17,05,07,13,14,15,,,,,1.87,1.04,1.55*0E

$GPGSV,3,1,09,05,53,248,42,07,19,064,41,13,60,318,43,14,66,116,44*7B

$GPGSV,3,2,09,15,31,306,34,17,06,132,37,20,36,205,41,28,58,155,46*70

$GPGSV,3,3,09,30,51,053,41*44

$GPGLL,4049.59826,N,01413.22806,E,163554.00,A,A*69

$GPGST,163554.00,7.4,,,,1.2,1.0,2.3*79

!AIVDM,1,1,,B,402FhOQvFVhSk11BePGGgg7008N6,0*15

$GPRMC,163555.00,A,4049.59826,N,01413.22806,E,0.000,0.00,131021,3.72,E,A*32

$GPVTG,0.00,T,356.27,M,0.000,N,0.000,K,A*26

$GPGGA,163555.00,4049.59826,N,01413.22806,E,1,08,1.04,8.9,M,41.2,M,,*56

$GPGSA,A,3,20,30,17,05,07,13,14,15,,,,,1.87,1.04,1.55*0E

$GPGSV,3,1,09,05,53,248,43,07,19,064,42,13,60,318,45,14,66,116,44*7F

$GPGSV,3,2,09,15,31,306,32,17,06,132,39,20,36,205,42,28,58,155,47*7A

$GPGSV,3,3,09,30,51,053,42*47

!AIVDM,1,1,,B,13cWAL0P48Q1FuLGBnFP@OwV08NT,0*2C

$GPGLL,4049.59826,N,01413.22806,E,163555.00,A,A*68

$GPGST,163555.00,8.8,,,,1.2,1.0,2.2*7A

$GPRMC,163556.00,A,4049.59826,N,01413.22806,E,0.000,0.00,131021,3.72,E,A*31

$GPVTG,0.00,T,356.27,M,0.000,N,0.000,K,A*26

$GPGGA,163556.00,4049.59826,N,01413.22806,E,1,08,1.04,8.9,M,41.2,M,,*55

$GPGSA,A,3,20,30,17,05,07,13,14,15,,,,,1.87,1.04,1.55*0E

$GPGSV,3,1,09,05,53,248,41,07,19,064,41,13,60,318,43,14,66,116,44*78

$GPGSV,3,2,09,15,31,306,33,17,06,132,37,20,36,205,41,28,58,155,45*74

$GPGSV,3,3,09,30,51,053,42*47

$GPGLL,4049.59826,N,01413.22806,E,163556.00,A,A*6B

$GPGST,163556.00,7.9,,,,1.1,1.0,2.2*74

!AIVDM,1,1,,B,13cVlR0P4NQ1M2NGF76Evww`0<16,0*3F

!AIVDM,1,1,,B,13cWA30Okq11@<BGFPWjD1wd0L1d,0*19

$GPRMC,163557.00,A,4049.59826,N,01413.22806,E,0.000,0.00,131021,3.72,E,A*30

$GPVTG,0.00,T,356.27,M,0.000,N,0.000,K,A*26

$GPGGA,163557.00,4049.59826,N,01413.22806,E,1,08,1.04,8.9,M,41.2,M,,*54

$GPGSA,A,3,20,30,17,05,07,13,14,15,,,,,1.87,1.04,1.55*0E

!AIVDM,1,1,,B,35@`?M@6QAQ1FK0GGDI4s4=b0000,0*6B

$GPGSV,3,1,09,05,53,248,42,07,19,064,43,13,60,318,44,14,66,116,45*7F

$GPGSV,3,2,09,15,31,306,34,17,06,132,39,20,36,205,42,28,58,155,47*7C

$GPGSV,3,3,09,30,51,053,42*47

$GPGLL,4049.59826,N,01413.22806,E,163557.00,A,A*6A

$GPGST,163557.00,7.1,,,,1.1,1.0,2.2*7D

!AIVDM,1,1,,B,13cVCE002@114`@GEjo2P1w`00S2,0*50

!AIVDM,1,1,,B,15BhbP0PA611H9DGFughkhQb08Or,0*65

$GPRMC,163558.00,A,4049.59826,N,01413.22806,E,0.000,0.00,131021,3.72,E,A*3F

$GPVTG,0.00,T,356.27,M,0.000,N,0.000,K,A*26

$GPGGA,163558.00,4049.59826,N,01413.22806,E,1,08,1.04,8.9,M,41.2,M,,*5B

$GPGSA,A,3,20,30,17,05,07,13,14,15,,,,,1.87,1.04,1.55*0E

$GPGSV,3,1,09,05,53,248,42,07,19,064,41,13,60,318,43,14,66,116,43*7C

$GPGSV,3,2,09,15,31,306,30,17,06,132,39,20,36,205,40,28,58,155,45*78

$GPGSV,3,3,09,30,51,053,41*44

$GPGLL,4049.59826,N,01413.22806,E,163558.00,A,A*65

$GPGST,163558.00,10,,,,1.1,1.0,2.2*5B

$AITXT,01,01,03,Ending DSC monitor period on channel 1*12

!AIVDM,1,1,,A,13cWA30Okq11@>fGFPhRDB1h0<1d,0*72

!AIVDM,1,1,,A,14i80v0P00117EBGG7h=N?wh0@Pl,0*24

!AIVDM,1,1,,B,13c`==0P0011C6PGGgF7P?wh08Pm,0*32

$GPRMC,163559.00,A,4049.59826,N,01413.22806,E,0.000,0.00,131021,3.72,E,A*3E

$GPVTG,0.00,T,356.27,M,0.000,N,0.000,K,A*26

$GPGGA,163559.00,4049.59826,N,01413.22806,E,1,08,1.04,8.9,M,41.2,M,,*5A

$GPGSA,A,3,20,30,17,05,07,13,14,15,,,,,1.87,1.04,1.55*0E

$GPGSV,3,1,09,05,53,248,42,07,19,064,41,13,60,318,43,14,66,116,43*7C

$GPGSV,3,2,09,15,31,306,30,17,06,132,38,20,36,205,41,28,58,155,45*78

$GPGSV,3,3,09,30,51,053,41*44

$GPGLL,4049.59826,N,01413.22806,E,163559.00,A,A*64

$GPGST,163559.00,10,,,,1.1,1.0,2.2*5A

!AIVDM,1,1,,B,13cWAL0P48Q1Fv2GBoOh=Owf0<0m,0*6F

!AIVDM,1,1,,A,13cbLVgP01Q1WB:GFO4:m?wh28Q3,0*23

!AIVDM,1,1,,B,13cVlR0P4NQ1M74GF6Amv?wf0<16,0*50

$GPRMC,163600.00,A,4049.59826,N,01413.22806,E,0.000,0.00,131021,3.72,E,A*31

$GPVTG,0.00,T,356.27,M,0.000,N,0.000,K,A*26

$GPGGA,163600.00,4049.59826,N,01413.22806,E,1,07,1.48,8.9,M,41.2,M,,*52

$GPGSA,A,3,20,30,17,05,07,13,14,,,,,,2.55,1.48,2.07*0A

$GPGSV,3,1,09,05,53,248,41,07,19,064,41,13,60,318,43,14,66,116,44*78

$GPGSV,3,2,09,15,31,306,,17,06,132,36,20,36,205,43,28,58,155,46*74

$GPGSV,3,3,09,30,51,053,42*47

$GPGLL,4049.59826,N,01413.22806,E,163600.00,A,A*6B

$GPGST,163600.00,5.8,,,,1.2,1.0,2.3*75

!AIVDM,2,1,9,B,54i80v00?H4e`L=GB20<4<U5DF2222222222221J2pG555I@07CPD31Dp888,0*73

!AIVDM,2,2,9,B,88888888880,2*2E

!AIVDM,1,1,,B,13cWA30Okp11@F<GFQ9BEj3l0D1d,0*45

!AIVDM,1,1,,B,13cmw`000712@nHGB>kQu9UhH@RE,0*33

!AIVDM,1,1,,A,33cv0Q5P0111FgTGGcH7bgwh0000,0*45

!AIVDM,1,1,,A,35@`?M@61AQ1FN8GGDI4uTAj00th,0*0B

!AIVDM,1,1,,A,13cbWv7P00Q1W>:GFOh@0?wjR0R?,0*2B

!AIVDM,1,1,,A,35BhbP0PA611H:`GFv2@lPOj01t0,0*64

!AIVDM,1,1,,A,13cWAL0P48Q1FvHGBp4P<gwj00SC,0*2E

$GPRMC,163601.00,A,4049.59826,N,01413.22806,E,0.000,0.00,131021,3.72,E,A*30

$GPVTG,0.00,T,356.27,M,0.000,N,0.000,K,A*26

$GPGGA,163601.00,4049.59826,N,01413.22806,E,1,08,1.04,8.9,M,41.2,M,,*54

$GPGSA,A,3,20,30,17,05,07,13,14,15,,,,,1.87,1.04,1.56*0D

$GPGSV,3,1,09,05,53,248,41,07,19,064,39,13,60,318,43,14,66,116,43*70

$GPGSV,3,2,09,15,31,306,32,17,06,132,37,20,36,205,42,28,58,155,46*75

$GPGSV,3,3,09,30,51,053,43*46

$GPGLL,4049.59826,N,01413.22806,E,163601.00,A,A*6A

$GPGST,163601.00,13,,,,1.2,1.0,2.3*55

!AIVDM,1,1,,B,15CV<B002m118GtGDQB`vo=n062<,0*2C

!AIVDM,1,1,,B,13cf4V0P00Q2?jfGBGFv4?wl2<1:,0*17

$GPRMC,163602.00,A,4049.59826,N,01413.22806,E,0.000,0.00,131021,3.72,E,A*33

$GPVTG,0.00,T,356.27,M,0.000,N,0.000,K,A*26

$GPGGA,163602.00,4049.59826,N,01413.22806,E,1,08,1.04,8.9,M,41.2,M,,*57

$GPGSA,A,3,20,30,17,05,07,13,14,15,,,,,1.87,1.04,1.56*0D

$GPGSV,3,1,09,05,53,248,41,07,19,064,39,13,60,318,41,14,66,116,41*70

$GPGSV,3,2,09,15,31,306,34,17,06,132,34,20,36,205,40,28,58,155,46*72

$GPGSV,3,3,09,30,51,053,40*45

$GPGLL,4049.59826,N,01413.22806,E,163602.00,A,A*69

$GPGST,163602.00,9.8,,,,1.2,1.0,2.3*7B

!AIVDM,1,1,,A,13cVlR0P4NQ1M;fGF5MEugwl08Rg,0*4D

!AIVDM,1,1,,A,13cWA3003p11@K<GFQIRFR000@Rl,0*07

!AIVDM,1,1,,A,13cVCE002?114i0GEkBRMQun062@,0*7D

$GPRMC,163603.00,A,4049.59826,N,01413.22806,E,0.000,0.00,131021,3.72,E,A*32

$GPVTG,0.00,T,356.27,M,0.000,N,0.000,K,A*26

$GPGGA,163603.00,4049.59826,N,01413.22806,E,1,08,1.04,8.9,M,41.2,M,,*56

$GPGSA,A,3,20,30,17,05,07,13,14,15,,,,,1.87,1.04,1.56*0D

$GPGSV,3,1,09,05,53,248,43,07,19,064,41,13,60,318,43,14,66,116,45*7B

$GPGSV,3,2,09,15,31,306,36,17,06,132,33,20,36,205,39,28,58,155,47*78

$GPGSV,3,3,09,30,51,053,41*44

