$GPGGA,131848.00,4049.54618,N,01413.24288,E,1,08,1.04,11.6,M,41.2,M,,*63
$GPGSA,A,3,26,02,03,04,01,06,09,22,,,,,1.61,1.04,1.22*0F
$GPGSV,3,1,11,01,11,159,28,02,15,319,38,03,40,097,45,04,64,040,44*71
$GPGSV,3,2,11,06,50,297,40,07,29,181,22,09,70,274,46,11,19,317,38*7C
$GPGSV,3,3,11,22,22,110,45,26,06,058,39,30,00,199,*4F
$GPGLL,4049.54618,N,01413.24288,E,131848.00,A,A*6A
$GPGST,131848.00,13,,,,1.7,1.0,1.9*5D
!AIVDM,1,1,,A,13ce490P5O11EVPGFbIRK?wF0PS<,0*44
$GPRMC,131849.00,A,4049.54618,N,01413.24288,E,0.000,0.00,210921,3.71,E,A*3B
$GPVTG,0.00,T,356.29,M,0.000,N,0.000,K,A*28
$GPGGA,131849.00,4049.54618,N,01413.24288,E,1,08,1.04,11.6,M,41.2,M,,*62
$GPGSA,A,3,26,02,03,04,01,06,09,22,,,,,1.61,1.04,1.22*0F
$GPGSV,3,1,11,01,11,159,27,02,15,319,38,03,40,097,45,04,64,040,43*79
$GPGSV,3,2,11,06,50,297,40,07,29,181,20,09,70,274,46,11,19,317,39*7F
$GPGSV,3,3,11,22,22,110,45,26,06,057,39,30,00,199,*40
$GPGLL,4049.54618,N,01413.24288,E,131849.00,A,A*6B
$GPGST,131849.00,14,,,,1.7,1.0,1.9*5B
$GPRMC,131850.00,A,4049.54618,N,01413.24288,E,0.000,0.00,210921,3.71,E,A*33
$GPVTG,0.00,T,356.29,M,0.000,N,0.000,K,A*28
$GPGGA,131850.00,4049.54618,N,01413.24288,E,1,08,1.04,11.6,M,41.2,M,,*6A
$GPGSA,A,3,26,02,03,04,01,06,09,22,,,,,1.61,1.04,1.22*0F
$GPGSV,3,1,11,01,11,159,26,02,15,319,38,03,40,097,45,04,64,040,43*78
$GPGSV,3,2,11,06,50,297,40,07,29,181,21,09,70,274,46,11,19,317,39*7E
!AIVDM,1,1,,B,14i80v0P00117EjGG7fEigwN05a8,0*30
$GPGSV,3,3,11,22,22,110,45,26,06,057,39,30,00,199,*40
$GPGLL,4049.54618,N,01413.24288,E,131850.00,A,A*63
$GPGST,131850.00,15,,,,1.7,1.0,1.9*52
!AIVDM,1,1,,B,13ce490P5O11EedGFbh2HgwH0t0A,0*6E
!AIVDM,1,1,,A,33coMi01h0Q17A4GG7RE`rKN2000,0*40
$GPRMC,131851.00,A,4049.54618,N,01413.24288,E,0.000,0.00,210921,3.71,E,A*32
$GPVTG,0.00,T,356.29,M,0.000,N,0.000,K,A*28
$GPGGA,131851.00,4049.54618,N,01413.24288,E,1,08,1.04,11.6,M,41.2,M,,*6B
$GPGSA,A,3,26,02,03,04,01,06,09,22,,,,,1.61,1.04,1.22*0F
$GPGSV,3,1,11,01,11,159,26,02,15,319,38,03,40,097,45,04,64,040,44*7F
$GPGSV,3,2,11,06,50,297,40,07,29,181,24,09,70,274,46,11,19,317,38*7A
$GPGSV,3,3,11,22,22,110,45,26,06,057,38,30,00,199,*41
$GPGLL,4049.54618,N,01413.24288,E,131851.00,A,A*62
$GPGST,131851.00,15,,,,1.7,1.0,1.9*53
$GPRMC,131852.00,A,4049.54618,N,01413.24288,E,0.000,0.00,210921,3.71,E,A*31
$GPVTG,0.00,T,356.29,M,0.000,N,0.000,K,A*28
!AIVDM,1,1,,B,33cVCE0Oj711FhTGG@6Ut51L01ph,0*48
$GPGGA,131852.00,4049.54618,N,01413.24288,E,1,08,1.04,11.6,M,41.2,M,,*68
$GPGSA,A,3,26,02,03,04,01,06,09,22,,,,,1.61,1.04,1.22*0F
$GPGSV,3,1,11,01,11,159,27,02,15,319,38,03,40,097,46,04,64,040,44*7D
$GPGSV,3,2,11,06,50,297,40,07,29,181,23,09,70,274,46,11,19,317,38*7D
$GPGSV,3,3,11,22,22,110,45,26,06,057,38,30,00,199,*41
$GPGLL,4049.54618,N,01413.24288,E,131852.00,A,A*61
$GPGST,131852.00,14,,,,1.7,1.0,1.9*51
!AIVDM,1,1,,A,33d1qF0000Q1BrlGGILMak5P0Pr1,0*7C
$GPRMC,131853.00,A,4049.54618,N,01413.24288,E,0.000,0.00,210921,3.71,E,A*30
$GPVTG,0.00,T,356.29,M,0.000,N,0.000,K,A*28
$GPGGA,131853.00,4049.54618,N,01413.24288,E,1,08,1.04,11.6,M,41.2,M,,*69
$GPGSA,A,3,26,02,03,04,01,06,09,22,,,,,1.61,1.04,1.22*0F
$GPGSV,3,1,11,01,11,159,28,02,15,319,38,03,40,097,46,04,64,040,44*72
!AIVDM,1,1,,B,13cwdf0P0211FOTGGWbe9?wT0<0u,0*32
$GPGSV,3,2,11,06,50,297,40,07,29,181,22,09,70,274,46,11,19,317,39*7D
$GPGSV,3,3,11,22,22,110,45,26,06,057,38,30,00,199,*41
$GPGLL,4049.54618,N,01413.24288,E,131853.00,A,A*60
$GPGST,131853.00,13,,,,1.7,1.0,1.9*57
!AIVDM,1,1,,B,33coMi01h0Q17A4GG7RUM:KR20u0,0*6F
!AIVDM,1,1,,A,13c`==0P0011Hl8GGU<<<?wV0@Me,0*74
$GPRMC,131854.00,A,4049.54618,N,01413.24288,E,0.000,0.00,210921,3.71,E,A*37
$GPVTG,0.00,T,356.29,M,0.000,N,0.000,K,A*28
$GPGGA,131854.00,4049.54618,N,01413.24288,E,1,08,1.04,11.6,M,41.2,M,,*6E
$GPGSA,A,3,26,02,03,04,01,06,09,22,,,,,1.61,1.04,1.22*0F
$GPGSV,3,1,11,01,11,159,29,02,15,319,38,03,40,097,46,04,64,040,44*73
$GPGSV,3,2,11,06,50,297,40,07,29,181,20,09,70,274,46,11,19,317,39*7F
$GPGSV,3,3,11,22,22,110,45,26,06,057,38,30,00,199,*41
$GPGLL,4049.54618,N,01413.24288,E,131854.00,A,A*67
$GPGST,131854.00,12,,,,1.7,1.0,1.9*51
!AIVDM,1,1,,B,13ce490P5O11Et4GFcJRK?wR0`N;,0*3D
!AIVDM,1,1,,A,33cVCE0Oj711Fk4GG?S63U5V00vP,0*57
$GPRMC,131855.00,A,4049.54618,N,01413.24288,E,0.000,0.00,210921,3.71,E,A*36
$GPVTG,0.00,T,356.29,M,0.000,N,0.000,K,A*28
$GPGGA,131855.00,4049.54618,N,01413.24288,E,1,08,1.04,11.6,M,41.2,M,,*6F
$GPGSA,A,3,26,02,03,04,01,06,09,22,,,,,1.61,1.04,1.22*0F
$GPGSV,3,1,11,01,11,159,28,02,15,319,38,03,40,097,46,04,64,040,44*72
$GPGSV,3,2,11,06,50,297,40,07,29,181,,09,70,274,46,11,19,317,39*7D
$GPGSV,3,3,11,22,22,110,45,26,06,057,38,30,00,199,*41
$GPGLL,4049.54618,N,01413.24288,E,131855.00,A,A*66
$GPGST,131855.00,13,,,,1.7,1.0,1.9*51
!AIVDM,1,1,,B,33d1qF0000Q1BrlGGILMSS5V0P00,0*30
$GPRMC,131856.00,A,4049.54618,N,01413.24288,E,0.000,0.00,210921,3.71,E,A*35
$GPVTG,0.00,T,356.29,M,0.000,N,0.000,K,A*28
$GPGGA,131856.00,4049.54618,N,01413.24288,E,1,08,1.04,11.6,M,41.2,M,,*6C
$GPGSA,A,3,26,02,03,04,01,06,09,22,,,,,1.61,1.04,1.22*0F
$GPGSV,3,1,11,01,11,159,27,02,15,319,38,03,40,097,46,04,64,040,43*7A
$GPGSV,3,2,11,06,50,297,39,07,29,181,,09,70,274,46,11,19,317,39*73
$GPGSV,3,3,11,22,22,110,45,26,06,057,39,30,00,199,*40
$GPGLL,4049.54618,N,01413.24288,E,131856.00,A,A*65
$GPGST,131856.00,14,,,,1.7,1.0,1.9*55
!AIVDM,1,1,,A,13ce490P5O11F3@GFci2K?wT0`O?,0*4E
!AIVDM,2,1,7,B,54i80v00?H4e`L=GB20<4<U5DF2222222222221J2pG555I@07CPD31Dp888,0*7D
!AIVDM,2,2,7,B,88888888880,2*20
$GPRMC,131857.00,A,4049.54618,N,01413.24288,E,0.000,0.00,210921,3.71,E,A*34
$GPVTG,0.00,T,356.29,M,0.000,N,0.000,K,A*28
$GPGGA,131857.00,4049.54618,N,01413.24288,E,1,08,1.04,11.6,M,41.2,M,,*6D
$GPGSA,A,3,26,02,03,04,01,06,09,22,,,,,1.61,1.04,1.22*0F
$GPGSV,3,1,11,01,11,159,26,02,15,319,38,03,40,097,46,04,64,040,44*7C
$GPGSV,3,2,11,06,50,297,39,07,29,181,22,09,70,274,46,11,19,317,39*73
$GPGSV,3,3,11,22,22,110,45,26,06,057,39,30,00,199,*40
$GPGLL,4049.54618,N,01413.24288,E,131857.00,A,A*64
$GPGST,131857.00,15,,,,1.7,1.0,1.9*55
!AIVDM,1,1,,A,33coMi01@0Q17A2GG7RmAbMb20pi,0*44
$GPRMC,131858.00,A,4049.54618,N,01413.24288,E,0.000,0.00,210921,3.71,E,A*3B
$GPVTG,0.00,T,356.29,M,0.000,N,0.000,K,A*28
$GPGGA,131858.00,4049.54618,N,01413.24288,E,1,08,1.04,11.6,M,41.2,M,,*62
$GPGSA,A,3,26,02,03,04,01,06,09,22,,,,,1.61,1.04,1.22*0F
$GPGSV,3,1,11,01,11,159,25,02,15,319,38,03,40,097,46,04,64,040,44*7F
$GPGSV,3,2,11,06,50,297,40,07,29,181,19,09,70,274,46,11,19,317,39*75
$GPGSV,3,3,11,22,22,110,45,26,06,057,39,30,00,199,*40
$GPGLL,4049.54618,N,01413.24288,E,131858.00,A,A*6B
$GPGST,131858.00,16,,,,1.7,1.0,1.9*59
!AIVDM,1,1,,B,13ce490P5O11F:8GFd7RK?wb0PS1,0*11
!AIVDM,2,1,8,A,55E3lN02=9b0S<IH000m<>0u0E8400000000000t3cn@@6A@NA2E3PD00000,0*32
!AIVDM,2,2,8,A,00000000000,2*2C
!AIVDM,1,1,,B,13cVCE0Oj711FmTGG>nV659f00S8,0*78
$GPRMC,131859.00,A,4049.54618,N,01413.24288,E,0.000,0.00,210921,3.71,E,A*3A
$GPVTG,0.00,T,356.29,M,0.000,N,0.000,K,A*28
$GPGGA,131859.00,4049.54618,N,01413.24288,E,1,08,1.04,11.6,M,41.2,M,,*63
$GPGSA,A,3,26,02,03,04,01,06,09,22,,,,,1.61,1.04,1.22*0F
$GPGSV,3,1,11,01,11,159,26,02,15,319,38,03,40,097,46,04,64,040,44*7C
$GPGSV,3,2,11,06,50,297,39,07,29,181,,09,70,274,46,11,19,317,39*73
$GPGSV,3,3,11,22,22,110,45,26,06,057,40,30,00,199,*4E
$GPGLL,4049.54618,N,01413.24288,E,131859.00,A,A*6A
$GPGST,131859.00,15,,,,1.7,1.0,1.9*5B
!AIVDM,1,1,,A,14i80v0P00117ElGG7emigwj0D1v,0*55
!AIVDM,1,1,,B,33coMi02h0Q17A0GG7Rm4:Mh2000,0*50
$GPRMC,131900.00,A,4049.54618,N,01413.24288,E,0.000,0.00,210921,3.71,E,A*37
$GPVTG,0.00,T,356.29,M,0.000,N,0.000,K,A*28
$GPGGA,131900.00,4049.54618,N,01413.24288,E,1,08,1.04,11.6,M,41.2,M,,*6E
$GPGSA,A,3,26,02,03,04,01,06,09,22,,,,,1.61,1.04,1.22*0F
$GPGSV,3,1,11,01,11,159,28,02,15,319,38,03,40,097,46,04,64,040,44*72
$GPGSV,3,2,11,06,50,297,39,07,29,181,,09,70,274,46,11,19,317,39*73
!AIVDM,1,1,,B,34`bt41002Q1@:4GFDE5?WKf8Dfb,0*45
$GPGSV,3,3,11,22,22,110,45,26,06,057,40,30,00,199,*4E
$GPGLL,4049.54618,N,01413.24288,E,131900.00,A,A*67
$GPGST,131900.00,13,,,,1.7,1.0,1.9*50
!AIVDM,1,1,,A,13ce490P5O11FADGFdPRK?wd0d0C,0*51
$GPRMC,131901.00,A,4049.54618,N,01413.24288,E,0.000,0.00,210921,3.71,E,A*36
$GPVTG,0.00,T,356.29,M,0.000,N,0.000,K,A*28
$GPGGA,131901.00,4049.54618,N,01413.24288,E,1,08,1.04,11.6,M,41.2,M,,*6F
$GPGSA,A,3,26,02,03,04,01,06,09,22,,,,,1.61,1.04,1.22*0F
$GPGSV,3,1,11,01,11,159,28,02,15,319,38,03,40,097,46,04,64,040,44*72
$GPGSV,3,2,11,06,50,297,39,07,29,181,,09,70,274,46,11,19,317,39*73
$GPGSV,3,3,11,22,22,110,45,26,06,057,40,30,00,199,*4E
$GPGLL,4049.54618,N,01413.24288,E,131901.00,A,A*66
$GPGST,131901.00,13,,,,1.7,1.0,1.9*51
!AIVDM,2,1,9,B,55E3lN02=9b0S<IH000m<>0u0E8400000000000t3cn@@6A@NA2E3PD00000,0*30
!AIVDM,2,2,9,B,00000000000,2*2E
!AIVDM,1,1,,A,33cVCE0Oj711FnPGG>TV=U=j01wh,0*52
!AIVDM,1,1,,B,33d1qF0Oh0Q1BrlGGILMaC5j0PwA,0*3F
$GPRMC,131902.00,A,4049.54618,N,01413.24288,E,0.000,0.00,210921,3.71,E,A*35
$GPVTG,0.00,T,356.29,M,0.000,N,0.000,K,A*28
$GPGGA,131902.00,4049.54618,N,01413.24288,E,1,08,1.04,11.6,M,41.2,M,,*6C
$GPGSA,A,3,26,02,03,04,01,06,09,22,,,,,1.61,1.04,1.22*0F
$GPGSV,3,1,11,01,11,159,27,02,15,319,38,03,40,097,46,04,64,040,44*7D
$GPGSV,3,2,11,06,50,297,39,07,29,181,,09,70,274,46,11,19,317,39*73
$GPGSV,3,3,11,22,22,110,45,26,06,057,41,30,00,199,*4F
$GPGLL,4049.54618,N,01413.24288,E,131902.00,A,A*65
$GPGST,131902.00,14,,,,1.7,1.0,1.9*55
!AIVDM,1,1,,B,13ce490P5O11FGpGFdt2Hgwh0d0C,0*73
$GPRMC,131903.00,A,4049.54618,N,01413.24288,E,0.000,0.00,210921,3.71,E,A*34
$GPVTG,0.00,T,356.29,M,0.000,N,0.000,K,A*28
$GPGGA,131903.00,4049.54618,N,01413.24288,E,1,08,1.04,11.6,M,41.2,M,,*6D
$GPGSA,A,3,26,02,03,04,01,06,09,22,,,,,1.61,1.04,1.22*0F
$GPGSV,3,1,11,01,11,159,28,02,15,319,38,03,40,097,46,04,64,040,43*75
$GPGSV,3,2,11,06,50,297,39,07,29,181,31,09,70,274,46,11,19,317,39*71
$GPGSV,3,3,11,22,22,110,45,26,06,057,41,30,00,199,*4F
$GPGLL,4049.54618,N,01413.24288,E,131903.00,A,A*64
!AIVDM,1,1,,B,13c`==0P0011Hl8GGU<<F?v20<2<,0*32
$GPGST,131903.00,13,,,,1.7,1.0,1.9*53
!AIVDM,1,1,,A,33coMi0000Q17A0GG7RE7JL0210P,0*6A
$GPRMC,131904.00,A,4049.54618,N,01413.24288,E,0.000,0.00,210921,3.71,E,A*33
$GPVTG,0.00,T,356.29,M,0.000,N,0.000,K,A*28
$GPGGA,131904.00,4049.54618,N,01413.24288,E,1,08,1.04,11.6,M,41.2,M,,*6A
$GPGSA,A,3,26,02,03,04,01,06,09,22,,,,,1.61,1.04,1.22*0F
$GPGSV,3,1,11,01,11,159,29,02,15,319,38,03,40,097,46,04,64,040,43*74
$GPGSV,3,2,11,06,50,297,39,07,29,181,23,09,70,274,46,11,19,317,39*72
$GPGSV,3,3,11,22,22,110,45,26,06,057,42,30,00,199,*4C
$GPGLL,4049.54618,N,01413.24288,E,131904.00,A,A*63
$GPGST,131904.00,12,,,,1.7,1.0,1.9*55
!AIVDM,1,1,,A,402FhOQvFJeC111BePGGgg700@0k,0*16
!AIVDM,1,1,,A,13ce490P5O11FNhGFeE2Hgwl0l0D,0*5A
!AIVDM,1,1,,A,13cwdf0P0111FOVGGWat8?v20<0u,0*44
!AIVDM,1,1,,B,33cVCE0Oj711FpJGG=wVBU>200wP,0*68
$GPRMC,131905.00,A,4049.54618,N,01413.24288,E,0.000,0.00,210921,3.71,E,A*32
$GPVTG,0.00,T,356.29,M,0.000,N,0.000,K,A*28
$GPGGA,131905.00,4049.54618,N,01413.24288,E,1,08,1.04,11.6,M,41.2,M,,*6B
$GPGSA,A,3,26,02,03,04,01,06,09,22,,,,,1.61,1.04,1.22*0F
$GPGSV,3,1,11,01,11,159,29,02,15,319,38,03,40,097,46,04,64,040,44*73
$GPGSV,3,2,11,06,50,297,39,07,29,181,19,09,70,274,46,11,19,317,39*7B
$GPGSV,3,3,11,22,22,110,45,26,06,057,41,30,00,199,*4F
$GPGLL,4049.54618,N,01413.24288,E,131905.00,A,A*62
$GPGST,131905.00,11,,,,1.7,1.0,1.9*57
!AIVDM,1,1,,A,33d1qF0000Q1BrlGGILMe3420P00,0*00
!AIVDM,1,1,,B,33coMi0v00Q17A0GG7R4rJL42141,0*7A
$GPRMC,131906.00,A,4049.54618,N,01413.24288,E,0.000,0.00,210921,3.71,E,A*31
$GPVTG,0.00,T,356.29,M,0.000,N,0.000,K,A*28
$GPGGA,131906.00,4049.54618,N,01413.24288,E,1,08,1.04,11.6,M,41.2,M,,*68
$GPGSA,A,3,26,02,03,04,01,06,09,22,,,,,1.61,1.04,1.22*0F
$GPGSV,3,1,11,01,11,159,29,02,15,319,39,03,40,097,46,04,64,040,44*72
$GPGSV,3,2,11,06,50,297,39,07,29,181,20,09,70,274,46,11,19,317,39*71
$GPGSV,3,3,11,22,22,110,45,26,06,057,41,30,00,199,*4F
$GPGLL,4049.54618,N,01413.24288,E,131906.00,A,A*61
$GPGST,131906.00,11,,,,1.7,1.0,1.9*54
!AIVDM,1,1,,A,34`a1J5000Q1@V8GGQbGhq268DmJ,0*22
!AIVDM,1,1,,A,33cSeD0P@MQ1Bw>GGS8JCWmn022@,0*77
$GPRMC,131907.00,A,4049.54618,N,01413.24288,E,0.000,0.00,210921,3.71,E,A*30
$GPVTG,0.00,T,356.29,M,0.000,N,0.000,K,A*28
$GPGGA,131907.00,4049.54618,N,01413.24288,E,1,08,1.04,11.6,M,41.2,M,,*69
$GPGSA,A,3,26,02,03,04,01,06,09,22,,,,,1.61,1.04,1.22*0F
$GPGSV,3,1,11,01,11,159,30,02,15,319,39,03,40,097,46,04,64,040,44*7A
$GPGSV,3,2,11,06,50,297,39,07,29,181,26,09,70,274,46,11,19,317,39*77
$GPGSV,3,3,11,22,22,110,45,26,06,057,41,30,00,199,*4F
$GPGLL,4049.54618,N,01413.24288,E,131907.00,A,A*60
$GPGST,131907.00,10,,,,1.7,1.0,1.9*54
!AIVDM,1,1,,A,13cVCE0Oj711Fq0GG=eVE5B6082j,0*68
$GPRMC,131908.00,A,4049.54618,N,01413.24288,E,0.000,0.00,210921,3.71,E,A*3F
$GPVTG,0.00,T,356.29,M,0.000,N,0.000,K,A*28
$GPGGA,131908.00,4049.54618,N,01413.24288,E,1,08,1.04,11.6,M,41.2,M,,*66
$GPGSA,A,3,26,02,03,04,01,06,09,22,,,,,1.61,1.04,1.22*0F
$GPGSV,3,1,11,01,11,159,29,02,15,319,39,03,40,097,45,04,64,040,42*77
$GPGSV,3,2,11,06,50,297,39,07,29,181,28,09,70,274,46,11,19,317,39*79
$GPGSV,3,3,11,22,22,110,44,26,06,057,41,30,00,199,*4E
$GPGLL,4049.54618,N,01413.24288,E,131908.00,A,A*6F
$GPGST,131908.00,11,,,,1.7,1.0,1.9*5A
!AIVDM,1,1,,A,13ce490P5O11Fd<GFf<2Hgv40l0E,0*06
!AIVDM,1,1,,B,14i80v0P00117EnGG7eEigv<05a<,0*40
$GPRMC,131909.00,A,4049.54618,N,01413.24288,E,0.000,0.00,210921,3.71,E,A*3E
$GPVTG,0.00,T,356.29,M,0.000,N,0.000,K,A*28
$GPGGA,131909.00,4049.54618,N,01413.24288,E,1,08,1.04,11.6,M,41.2,M,,*67
$GPGSA,A,3,26,02,03,04,01,06,09,22,,,,,1.61,1.04,1.22*0F
$GPGSV,3,1,11,01,11,159,30,02,15,319,39,03,40,097,47,04,64,040,43*7C
$GPGSV,3,2,11,06,50,297,39,07,29,181,29,09,70,274,46,11,19,317,40*76
$GPGSV,3,3,11,22,22,110,45,26,06,057,41,30,00,199,*4F
$GPGLL,4049.54618,N,01413.24288,E,131909.00,A,A*6E
$GPGST,131909.00,11,,,,1.7,1.0,1.9*5B
$GPRMC,131910.00,A,4049.54618,N,01413.24288,E,0.000,0.00,210921,3.71,E,A*36
$GPVTG,0.00,T,356.29,M,0.000,N,0.000,K,A*28
$GPGGA,131910.00,4049.54618,N,01413.24288,E,1,08,1.04,11.6,M,41.2,M,,*6F
$GPGSA,A,3,26,02,03,04,01,06,09,22,,,,,1.61,1.04,1.22*0F
$GPGSV,3,1,11,01,11,159,30,02,15,319,39,03,40,097,47,04,64,040,44*7B
$GPGSV,3,2,11,06,50,297,39,07,29,181,28,09,70,274,46,11,19,317,40*77
$GPGSV,3,3,11,22,22,110,44,26,06,057,39,30,00,199,*41
$GPGLL,4049.54618,N,01413.24288,E,131910.00,A,A*66
$GPGST,131910.00,11,,,,1.7,1.0,1.9*53
!AIVDM,1,1,,A,33coMi0vh0Q17A0GG7QE7bL<2000,0*32
$GPRMC,131911.00,A,4049.54618,N,01413.24288,E,0.000,0.00,210921,3.71,E,A*37
$GPVTG,0.00,T,356.29,M,0.000,N,0.000,K,A*28
$GPGGA,131911.00,4049.54618,N,01413.24288,E,1,08,1.04,11.6,M,41.2,M,,*6E
$GPGSA,A,3,26,02,03,04,01,06,09,22,,,,,1.61,1.04,1.22*0F
$GPGSV,3,1,11,01,11,159,29,02,15,319,39,03,40,097,47,04,64,040,43*74
$GPGSV,3,2,11,06,50,297,39,07,29,181,28,09,70,274,47,11,19,317,40*76
$GPGSV,3,3,11,22,22,110,45,26,06,057,40,30,00,199,*4E
$GPGLL,4049.54618,N,01413.24288,E,131911.00,A,A*67
$GPGST,131911.00,12,,,,1.7,1.0,1.9*51
!AIVDM,1,1,,B,33cVCE0Oj711FrBGG=BVJ5D<01uP,0*48
!AIVDM,1,1,,A,B1OGQ0001p@AqVUmj8CQ3wT4WP06,0*06
!AIVDM,1,1,,A,H3K;U`4TC=D7<B7q82komh1`8730,0*1B
$GPRMC,131912.00,A,4049.54618,N,01413.24288,E,0.000,0.00,210921,3.71,E,A*34
$GPVTG,0.00,T,356.29,M,0.000,N,0.000,K,A*28
$GPGGA,131912.00,4049.54618,N,01413.24288,E,1,08,1.04,11.6,M,41.2,M,,*6D
$GPGSA,A,3,26,02,03,04,01,06,09,22,,,,,1.61,1.04,1.22*0F
!AIVDM,1,1,,A,33d1qF0Oh0Q1BrfGGIMM9k4@0PuQ,0*7E
$GPGSV,3,1,11,01,11,159,28,02,15,319,39,03,40,097,47,04,64,040,44*72
$GPGSV,3,2,11,06,50,297,39,07,29,181,28,09,70,274,47,11,19,317,40*76
$GPGSV,3,3,11,22,22,110,45,26,06,057,41,30,00,199,*4F
$GPGLL,4049.54618,N,01413.24288,E,131912.00,A,A*64
$GPGST,131912.00,13,,,,1.7,1.0,1.9*53
!AIVDM,1,1,,A,13ce490P5O11FqDGFg32F?v<0PS<,0*1D
$GPRMC,131913.00,A,4049.54618,N,01413.24288,E,0.000,0.00,210921,3.71,E,A*35
$GPVTG,0.00,T,356.29,M,0.000,N,0.000,K,A*28
$GPGGA,131913.00,4049.54618,N,01413.24288,E,1,08,1.04,11.6,M,41.2,M,,*6C
$GPGSA,A,3,26,02,03,04,01,06,09,22,,,,,1.61,1.04,1.22*0F
$GPGSV,3,1,11,01,11,159,28,02,15,319,39,03,40,097,47,04,64,040,45*73
$GPGSV,3,2,11,06,50,297,39,07,29,181,28,09,70,274,46,11,19,317,39*79
$GPGSV,3,3,11,22,22,110,45,26,06,057,40,30,00,199,*4E
!AIVDM,1,1,,B,33coMi01@0Q17A0GG7Pm9JLB211h,0*77
$GPGLL,4049.54618,N,01413.24288,E,131913.00,A,A*65
$GPGST,131913.00,13,,,,1.7,1.0,1.9*52
!AIVDM,1,1,,A,13c`==0P0011Hl8GGU<<HgvF0@5w,0*23
!AIVDM,1,1,,B,13cwdf0P0111FP8GGWg;v?vD00S7,0*6A
$GPRMC,131914.00,A,4049.54618,N,01413.24288,E,0.000,0.00,210921,3.71,E,A*32
$GPVTG,0.00,T,356.29,M,0.000,N,0.000,K,A*28
$GPGGA,131914.00,4049.54618,N,01413.24288,E,1,08,1.04,11.6,M,41.2,M,,*6B
$GPGSA,A,3,26,02,03,04,01,06,09,22,,,,,1.61,1.04,1.22*0F
$GPGSV,3,1,11,01,11,159,28,02,15,319,39,03,40,097,48,04,64,040,44*7D
$GPGSV,3,2,11,06,50,297,39,07,29,181,29,09,70,274,46,11,19,317,40*76
$GPGSV,3,3,11,22,22,110,46,26,06,057,40,30,00,199,*4D
$GPGLL,4049.54618,N,01413.24288,E,131914.00,A,A*62
$GPGST,131914.00,13,,,,1.7,1.0,1.9*55
!AIVDM,1,1,,B,402FhOQvFJeC;11BePGGgg7000S:,0*5D
!AIVDM,1,1,,B,13ce490P5O11G6hGFgr2CgvD0h6k,0*1A
!AIVDM,1,1,,A,13cek10P0011FFhGGW<@0?vD0@6n,0*4E
$GPRMC,131915.00,A,4049.54618,N,01413.24288,E,0.000,0.00,210921,3.71,E,A*33
$GPVTG,0.00,T,356.29,M,0.000,N,0.000,K,A*28
$GPGGA,131915.00,4049.54618,N,01413.24288,E,1,08,1.04,11.6,M,41.2,M,,*6A
$GPGSA,A,3,26,02,03,04,01,06,09,22,,,,,1.61,1.04,1.22*0F
$GPGSV,3,1,11,01,11,159,28,02,15,319,38,03,40,097,48,04,64,040,44*7C
!AIVDM,1,1,,A,34hs@T5000Q17JRGG7rqnJBF2Dmb,0*09
$GPGSV,3,2,11,06,50,297,39,07,29,181,28,09,70,274,46,11,19,317,40*77
$GPGSV,3,3,11,22,22,110,46,26,06,057,40,30,00,199,*4D
$GPGLL,4049.54618,N,01413.24288,E,131915.00,A,A*63
$GPGST,131915.00,13,,,,1.7,1.0,1.9*54
!AIVDM,1,1,,A,33cVCE0Oj811FsPGG<dVO5FF00t0,0*6D
$GPRMC,131916.00,A,4049.54618,N,01413.24288,E,0.000,0.00,210921,3.71,E,A*30
$GPVTG,0.00,T,356.29,M,0.000,N,0.000,K,A*28
$GPGGA,131916.00,4049.54618,N,01413.24288,E,1,08,1.04,11.6,M,41.2,M,,*69
$GPGSA,A,3,26,02,03,04,01,06,09,22,,,,,1.61,1.04,1.22*0F
$GPGSV,3,1,11,01,11,159,29,02,15,319,38,03,40,097,48,04,64,040,44*7D
$GPGSV,3,2,11,06,50,297,40,07,29,181,27,09,70,275,46,11,19,317,39*79
$GPGSV,3,3,11,22,22,110,45,26,06,057,40,30,00,199,*4E
$GPGLL,4049.54618,N,01413.24288,E,131916.00,A,A*60
$GPGST,131916.00,12,,,,1.7,1.0,1.9*56
$GPRMC,131917.00,A,4049.54618,N,01413.24288,E,0.000,0.00,210921,3.71,E,A*31
$GPVTG,0.00,T,356.29,M,0.000,N,0.000,K,A*28
$GPGGA,131917.00,4049.54618,N,01413.24288,E,1,08,1.04,11.6,M,41.2,M,,*68
$GPGSA,A,3,26,02,03,04,01,06,09,22,,,,,1.61,1.04,1.22*0F
$GPGSV,3,1,11,01,11,159,29,02,15,319,38,03,40,097,47,04,64,040,43*75
$GPGSV,3,2,11,06,50,297,40,07,29,181,27,09,70,275,46,11,19,317,40*77
$GPGSV,3,3,11,22,22,110,45,26,06,057,38,30,00,199,*41
$GPGLL,4049.54618,N,01413.24288,E,131917.00,A,A*61
$GPGST,131917.00,12,,,,1.7,1.0,1.9*57
!AIVDM,1,1,,A,33coMi0t00Q17@vGG7PEU:LJ20o1,0*3C
!AIVDM,1,1,,B,33cjOk5P0311FFrGGas@KgvL0Dg:,0*71
$GPRMC,131918.00,A,4049.54618,N,01413.24288,E,0.000,0.00,210921,3.71,E,A*3E
$GPVTG,0.00,T,356.29,M,0.000,N,0.000,K,A*28
$GPGGA,131918.00,4049.54618,N,01413.24288,E,1,08,1.04,11.6,M,41.2,M,,*67
$GPGSA,A,3,26,02,03,04,01,06,09,22,,,,,1.61,1.04,1.22*0F
$GPGSV,3,1,11,01,11,159,29,02,15,319,39,03,40,097,48,04,64,040,43*7B
$GPGSV,3,2,11,06,50,297,40,07,29,181,27,09,70,275,46,11,19,317,40*77
$GPGSV,3,3,11,22,22,110,45,26,06,057,39,30,00,199,*40
$GPGLL,4049.54618,N,01413.24288,E,131918.00,A,A*6E
$GPGST,131918.00,12,,,,1.7,1.0,1.9*58
!AIVDM,1,1,,A,33d1qF0000Q1BrbGGIMuw34L0Q3P,0*39
!AIVDM,1,1,,A,14i80v0P00117EnGG7e5igvP089J,0*7C
$GPRMC,131919.00,A,4049.54618,N,01413.24288,E,0.000,0.00,210921,3.71,E,A*3F
$GPVTG,0.00,T,356.29,M,0.000,N,0.000,K,A*28
$GPGGA,131919.00,4049.54618,N,01413.24288,E,1,08,1.04,11.6,M,41.2,M,,*66
$GPGSA,A,3,26,02,03,04,01,06,09,22,,,,,1.61,1.04,1.22*0F
$GPGSV,3,1,11,01,11,159,29,02,15,319,39,03,40,097,48,04,64,040,44*7C
$GPGSV,3,2,11,06,50,297,40,07,29,181,28,09,70,275,46,11,19,317,39*76
$GPGSV,3,3,11,22,22,110,45,26,06,057,40,30,00,199,*4E
$GPGLL,4049.54618,N,01413.24288,E,131919.00,A,A*6F
$GPGST,131919.00,12,,,,1.7,1.0,1.9*59
$GPRMC,131920.00,A,4049.54618,N,01413.24288,E,0.000,0.00,210921,3.71,E,A*35
$GPVTG,0.00,T,356.29,M,0.000,N,0.000,K,A*28
$GPGGA,131920.00,4049.54618,N,01413.24288,E,1,08,1.04,11.6,M,41.2,M,,*6C
$GPGSA,A,3,26,02,03,04,01,06,09,22,,,,,1.61,1.04,1.22*0F
$GPGSV,3,1,11,01,11,159,30,02,15,319,39,03,40,097,47,04,64,040,44*7B
$GPGSV,3,2,11,06,50,297,40,07,29,181,28,09,70,275,47,11,19,317,39*77
$GPGSV,3,3,11,22,22,110,45,26,06,057,41,30,00,199,*4F
$GPGLL,4049.54618,N,01413.24288,E,131920.00,A,A*65
!AIVDM,1,1,,B,33coMi0v00Q17A2GG7PmgJLP2000,0*56
$GPGST,131920.00,11,,,,1.7,1.0,1.9*50
$GPRMC,131921.00,A,4049.54618,N,01413.24288,E,0.000,0.00,210921,3.71,E,A*34
$GPVTG,0.00,T,356.29,M,0.000,N,0.000,K,A*28
$GPGGA,131921.00,4049.54618,N,01413.24288,E,1,08,1.04,11.6,M,41.2,M,,*6D
$GPGSA,A,3,26,02,03,04,01,06,09,22,,,,,1.61,1.04,1.22*0F
$GPGSV,3,1,11,01,11,159,30,02,15,319,39,03,40,097,47,04,64,040,43*7C
$GPGSV,3,2,11,06,50,297,40,07,29,181,29,09,70,275,47,11,19,317,39*76
$GPGSV,3,3,11,22,22,110,45,26,06,057,41,30,00,199,*4F
$GPGLL,4049.54618,N,01413.24288,E,131921.00,A,A*64
$GPGST,131921.00,11,,,,1.7,1.0,1.9*51
!AIVDM,1,1,,A,33cVCE0Oj911FuJGG;aVVUHR01tP,0*70
$GPRMC,131922.00,A,4049.54618,N,01413.24288,E,0.000,0.00,210921,3.71,E,A*37
$GPVTG,0.00,T,356.29,M,0.000,N,0.000,K,A*28
$GPGGA,131922.00,4049.54618,N,01413.24288,E,1,08,1.04,11.6,M,41.2,M,,*6E
$GPGSA,A,3,26,02,03,04,01,06,09,22,,,,,1.61,1.04,1.22*0F
$GPGSV,3,1,11,01,11,159,30,02,15,319,39,03,40,097,48,04,64,040,44*74
$GPGSV,3,2,11,06,50,297,40,07,29,181,29,09,70,275,46,11,19,317,39*77
$GPGSV,3,3,11,22,22,110,46,26,06,057,42,30,00,199,*4F
$GPGLL,4049.54618,N,01413.24288,E,131922.00,A,A*67
$GPGST,131922.00,11,,,,1.7,1.0,1.9*52
$GPRMC,131923.00,A,4049.54618,N,01413.24288,E,0.000,0.00,210921,3.71,E,A*36
$GPVTG,0.00,T,356.29,M,0.000,N,0.000,K,A*28
$GPGGA,131923.00,4049.54618,N,01413.24288,E,1,08,1.04,11.6,M,41.2,M,,*6F
$GPGSA,A,3,26,02,03,04,01,06,09,22,,,,,1.61,1.04,1.22*0F
$GPGSV,3,1,11,01,11,159,30,02,15,319,39,03,40,097,47,04,64,040,44*7B
$GPGSV,3,2,11,06,50,297,40,07,29,181,29,09,70,275,46,11,19,317,39*77
$GPGSV,3,3,11,22,22,110,46,26,06,057,42,30,00,199,*4F
$GPGLL,4049.54618,N,01413.24288,E,131923.00,A,A*66
$GPGST,131923.00,11,,,,1.7,1.0,1.9*53
!AIVDM,1,1,,A,33coMi0v@0Q17A4GG7QF2:JV20w@,0*1B
!AIVDM,1,1,,A,13cwdf0P0011FOVGGWi0Agv`0<0u,0*7A
$GPRMC,131924.00,A,4049.54618,N,01413.24288,E,0.000,0.00,210921,3.71,E,A*31
$GPVTG,0.00,T,356.29,M,0.000,N,0.000,K,A*28
$GPGGA,131924.00,4049.54618,N,01413.24288,E,1,08,1.04,11.6,M,41.2,M,,*68
$GPGSA,A,3,26,02,03,04,01,06,09,22,,,,,1.61,1.04,1.22*0F
$GPGSV,3,1,11,01,11,159,30,02,15,319,39,03,40,097,47,04,64,040,44*7B
$GPGSV,3,2,11,06,50,297,40,07,29,181,29,09,70,275,46,11,19,317,39*77
$GPGSV,3,3,11,22,22,110,45,26,06,057,42,30,00,199,*4C
$GPGLL,4049.54618,N,01413.24288,E,131924.00,A,A*61
$GPGST,131924.00,11,,,,1.7,1.0,1.9*54
$GPRMC,131925.00,A,4049.54618,N,01413.24288,E,0.000,0.00,210921,3.71,E,A*30
$GPVTG,0.00,T,356.29,M,0.000,N,0.000,K,A*28
$GPGGA,131925.00,4049.54618,N,01413.24288,E,1,08,1.04,11.6,M,41.2,M,,*69
$GPGSA,A,3,26,02,03,04,01,06,09,22,,,,,1.61,1.04,1.22*0F
$GPGSV,3,1,11,01,11,159,29,02,15,319,39,03,40,097,47,04,64,040,44*73
!AIVDM,1,1,,B,33cVCE0Oj911FvDGG;3Va5H`00uh,0*71
$GPGSV,3,2,11,06,50,297,40,07,29,181,30,09,70,275,46,11,19,317,39*7F
$GPGSV,3,3,11,22,22,110,46,26,06,057,42,30,00,199,*4F
$GPGLL,4049.54618,N,01413.24288,E,131925.00,A,A*60
$GPGST,131925.00,12,,,,1.7,1.0,1.9*56
!AIVDM,1,1,,A,33d1qF0Oh0Q1Br`GGIN=mS4b0P00,0*61
$GPRMC,131926.00,A,4049.54618,N,01413.24288,E,0.000,0.00,210921,3.71,E,A*33
$GPVTG,0.00,T,356.29,M,0.000,N,0.000,K,A*28
$GPGGA,131926.00,4049.54618,N,01413.24288,E,1,08,1.04,11.6,M,41.2,M,,*6A
$GPGSA,A,3,26,02,03,04,01,06,09,22,,,,,1.61,1.04,1.22*0F
$GPGSV,3,1,11,01,11,159,27,02,15,319,40,03,40,097,48,04,64,040,44*7C
$GPGSV,3,2,11,06,50,297,40,07,29,181,29,09,70,275,46,11,19,317,39*77
$GPGSV,3,3,11,22,22,110,46,26,06,057,42,30,00,199,*4F
$GPGLL,4049.54618,N,01413.24288,E,131926.00,A,A*63
$GPGST,131926.00,15,,,,1.7,0.99,1.9*63
$GPRMC,131927.00,A,4049.54618,N,01413.24288,E,0.000,0.00,210921,3.71,E,A*32
$GPVTG,0.00,T,356.29,M,0.000,N,0.000,K,A*28
$GPGGA,131927.00,4049.54618,N,01413.24288,E,1,08,1.04,11.6,M,41.2,M,,*6B
$GPGSA,A,3,26,02,03,04,01,06,09,22,,,,,1.61,1.04,1.22*0F
$GPGSV,3,1,11,01,11,159,26,02,15,319,40,03,40,097,47,04,64,040,44*72
$GPGSV,3,2,11,06,50,297,40,07,29,181,29,09,70,275,47,11,19,317,39*76
$GPGSV,3,3,11,22,22,110,46,26,06,057,41,30,00,199,*4C
$GPGLL,4049.54618,N,01413.24288,E,131927.00,A,A*62
$GPGST,131927.00,15,,,,1.7,0.99,1.9*62
!AIVDM,1,1,,B,33coMi0th0Q17A2GG7Q6LbJf20q1,0*25
$GPRMC,131928.00,A,4049.54618,N,01413.24288,E,0.000,0.00,210921,3.71,E,A*3D
$GPVTG,0.00,T,356.29,M,0.000,N,0.000,K,A*28
$GPGGA,131928.00,4049.54618,N,01413.24288,E,1,08,1.04,11.6,M,41.2,M,,*64
$GPGSA,A,3,26,02,03,04,01,06,09,22,,,,,1.61,1.04,1.22*0F
$GPGSV,3,1,11,01,11,159,25,02,15,319,40,03,40,097,47,04,64,040,44*71
$GPGSV,3,2,11,06,50,297,40,07,29,181,30,09,70,275,47,11,19,317,39*7E
$GPGSV,3,3,11,22,22,110,45,26,06,057,41,30,00,199,*4F
$GPGLL,4049.54618,N,01413.24288,E,131928.00,A,A*6D
$GPGST,131928.00,16,,,,1.7,0.98,1.9*6F
!AIVDM,1,1,,A,13cVCE0Oj911FvDGG:qVa5Jd05a<,0*70
$GPRMC,131929.00,A,4049.54618,N,01413.24288,E,0.000,0.00,210921,3.71,E,A*3C
$GPVTG,0.00,T,356.29,M,0.000,N,0.000,K,A*28
$GPGGA,131929.00,4049.54618,N,01413.24288,E,1,08,1.04,11.6,M,41.2,M,,*65
$GPGSA,A,3,26,02,03,04,01,06,09,22,,,,,1.61,1.04,1.22*0F
$GPGSV,3,1,11,01,11,159,26,02,15,319,40,03,40,097,47,04,64,040,44*72
$GPGSV,3,2,11,06,50,297,40,07,29,181,30,09,70,275,46,11,19,317,39*7F
$GPGSV,3,3,11,22,22,110,46,26,06,057,41,30,00,199,*4C
$GPGLL,4049.54618,N,01413.24288,E,131929.00,A,A*6C
$GPGST,131929.00,15,,,,1.7,0.98,1.9*6D
!AIVDM,1,1,,B,14i80v0P00117ErGG7e5igvn0<1w,0*6C
!AIVDM,1,1,,A,33coMi01@0Q17A0GG7Q6`:Jl2000,0*77
$GPRMC,131930.00,A,4049.54618,N,01413.24288,E,0.000,0.00,210921,3.71,E,A*34
$GPVTG,0.00,T,356.29,M,0.000,N,0.000,K,A*28
$GPGGA,131930.00,4049.54618,N,01413.24288,E,1,08,1.04,11.6,M,41.2,M,,*6D
$GPGSA,A,3,26,02,03,04,01,06,09,22,,,,,1.61,1.04,1.22*0F
$GPGSV,3,1,11,01,11,159,27,02,15,319,40,03,40,097,47,04,64,040,44*73
$GPGSV,3,2,11,06,50,297,40,07,29,181,30,09,70,275,46,11,19,317,39*7F
$GPGSV,3,3,11,22,22,110,46,26,06,057,41,30,00,199,*4C
$GPGLL,4049.54618,N,01413.24288,E,131930.00,A,A*64
$GPGST,131930.00,14,,,,1.7,0.98,1.8*65
$GPRMC,131931.00,A,4049.54618,N,01413.24288,E,0.000,0.00,210921,3.71,E,A*35
$GPVTG,0.00,T,356.29,M,0.000,N,0.000,K,A*28
$GPGGA,131931.00,4049.54618,N,01413.24288,E,1,08,1.04,11.6,M,41.2,M,,*6C
$GPGSA,A,3,26,02,03,04,01,06,09,22,,,,,1.61,1.04,1.22*0F
$GPGSV,3,1,11,01,11,159,27,02,15,319,40,03,40,097,47,04,64,040,44*73
$GPGSV,3,2,11,06,50,297,40,07,29,181,30,09,70,275,46,11,19,317,39*7F
$GPGSV,3,3,11,22,22,110,46,26,06,057,41,30,00,199,*4C
$GPGLL,4049.54618,N,01413.24288,E,131931.00,A,A*65
$GPGST,131931.00,14,,,,1.7,0.98,1.8*64
!AIVDM,1,1,,B,33cVCE002911Fw@GG:DVcUJl01wh,0*4A
$GPRMC,131932.00,A,4049.54618,N,01413.24288,E,0.000,0.00,210921,3.71,E,A*36
!AIVDM,1,1,,A,33d1qF0000Q1Br`GGIN=hk4n0Q2Q,0*15
$GPVTG,0.00,T,356.29,M,0.000,N,0.000,K,A*28
$GPGGA,131932.00,4049.54618,N,01413.24288,E,1,08,1.04,11.6,M,41.2,M,,*6F
$GPGSA,A,3,26,02,03,04,01,06,09,22,,,,,1.61,1.04,1.22*0F
$GPGSV,3,1,11,01,11,159,27,02,15,319,40,03,40,097,47,04,64,040,44*73
$GPGSV,3,2,11,06,50,297,40,07,29,181,30,09,70,275,47,11,19,317,39*7E
$GPGSV,3,3,11,22,22,110,46,26,06,057,41,30,00,199,*4C
$GPGLL,4049.54618,N,01413.24288,E,131932.00,A,A*66
$GPGST,131932.00,14,,,,1.7,0.98,1.8*67
!AIVDM,1,1,,A,13ce490P5O11H6PGFk72F?vp0d0I,0*26
$GPRMC,131933.00,A,4049.54618,N,01413.24288,E,0.000,0.00,210921,3.71,E,A*37
$GPVTG,0.00,T,356.29,M,0.000,N,0.000,K,A*28
$GPGGA,131933.00,4049.54618,N,01413.24288,E,1,08,1.04,11.6,M,41.2,M,,*6E
$GPGSA,A,3,26,02,03,04,01,06,09,22,,,,,1.61,1.04,1.22*0F
$GPGSV,3,1,11,01,11,159,27,02,15,319,40,03,40,097,47,04,64,040,44*73
$GPGSV,3,2,11,06,50,297,40,07,29,181,29,09,70,275,46,11,19,317,39*77
$GPGSV,3,3,11,22,22,110,45,26,06,057,41,30,00,199,*4F
$GPGLL,4049.54618,N,01413.24288,E,131933.00,A,A*67
$GPGST,131933.00,14,,,,1.7,0.98,1.8*66
!AIVDM,1,1,,B,33coMi03h0Q17@tGG7PntrJr212@,0*73
$GPRMC,131934.00,A,4049.54618,N,01413.24288,E,0.000,0.00,210921,3.71,E,A*30
$GPVTG,0.00,T,356.29,M,0.000,N,0.000,K,A*28
$GPGGA,131934.00,4049.54618,N,01413.24288,E,1,09,0.91,11.6,M,41.2,M,,*65
$GPGSA,A,3,26,02,03,04,01,06,07,09,22,,,,1.52,0.91,1.22*05
$GPGSV,3,1,11,01,11,159,28,02,15,319,41,03,40,097,47,04,64,040,44*7D
$GPGSV,3,2,11,06,50,297,40,07,29,181,30,09,70,275,46,11,19,317,39*7F
$GPGSV,3,3,11,22,22,110,45,26,06,057,41,30,00,199,*4F
$GPGLL,4049.54618,N,01413.24288,E,131934.00,A,A*60
$GPGST,131934.00,15,,,,1.7,0.98,1.8*60
!AIVDM,1,1,,A,13cSeD0P@DQ1Bq6GGRn9UGBn05a<,0*57
!AIVDM,1,1,,A,13c`==0P0011Hi0GGU<<F?w00@Bh,0*67
!AIVDM,1,1,,A,33cVCE002:11G0<GG9d6f5Hv010@,0*21
$GPRMC,131935.00,A,4049.54618,N,01413.24288,E,0.000,0.00,210921,3.71,E,A*31
$GPVTG,0.00,T,356.29,M,0.000,N,0.000,K,A*28
$GPGGA,131935.00,4049.54618,N,01413.24288,E,1,09,0.91,11.6,M,41.2,M,,*64
$GPGSA,A,3,26,02,03,04,01,06,07,09,22,,,,1.52,0.91,1.22*05
$GPGSV,3,1,11,01,10,159,28,02,15,319,40,03,40,097,47,04,64,040,44*7D
$GPGSV,3,2,11,06,50,297,40,07,29,181,30,09,70,275,46,11,19,317,39*7F
$GPGSV,3,3,11,22,22,110,45,26,06,057,42,30,00,199,*4C
$GPGLL,4049.54618,N,01413.24288,E,131935.00,A,A*61
$GPGST,131935.00,15,,,,1.6,0.97,1.8*6F
!AIVDM,1,1,,A,33coMi0v@0Q17@rGG7QFtrK0214i,0*5E
$GPRMC,131936.00,A,4049.54618,N,01413.24288,E,0.000,0.00,210921,3.71,E,A*32
$GPVTG,0.00,T,356.29,M,0.000,N,0.000,K,A*28
$GPGGA,131936.00,4049.54618,N,01413.24288,E,1,09,0.91,11.6,M,41.2,M,,*67
$GPGSA,A,3,26,02,03,04,01,06,07,09,22,,,,1.52,0.91,1.22*05
$GPGSV,3,1,11,01,10,159,28,02,16,319,40,03,40,097,47,04,64,040,44*7E
$GPGSV,3,2,11,06,50,297,40,07,29,181,29,09,70,275,46,11,19,317,39*77
$GPGSV,3,3,11,22,22,110,45,26,06,057,41,30,00,199,*4F
$GPGLL,4049.54618,N,01413.24288,E,131936.00,A,A*62
$GPGST,131936.00,16,,,,1.6,0.97,1.8*6F
!AIVDM,1,1,,A,13ce490P5O11HALGFkWRHgvv0l0J,0*16
$GPRMC,131937.00,A,4049.54618,N,01413.24288,E,0.000,0.00,210921,3.71,E,A*33
$GPVTG,0.00,T,356.29,M,0.000,N,0.000,K,A*28
$GPGGA,131937.00,4049.54618,N,01413.24288,E,1,09,0.91,11.6,M,41.2,M,,*66
$GPGSA,A,3,26,02,03,04,01,06,07,09,22,,,,1.52,0.91,1.22*05
$GPGSV,3,1,11,01,10,159,29,02,16,319,40,03,39,098,47,04,64,040,43*79
$GPGSV,3,2,11,06,50,297,40,07,29,181,29,09,70,275,46,11,19,317,40*79
$GPGSV,3,3,11,22,22,110,45,26,06,057,40,30,00,199,*4E
$GPGLL,4049.54618,N,01413.24288,E,131937.00,A,A*63
$GPGST,131937.00,15,,,,1.6,0.97,1.8*6D
!AIVDM,1,1,,B,13cVCE002:11G0RGG9@Vf5I205a<,0*66
$GPRMC,131938.00,A,4049.54618,N,01413.24288,E,0.000,0.00,210921,3.71,E,A*3C
$GPVTG,0.00,T,356.29,M,0.000,N,0.000,K,A*28
$GPGGA,131938.00,4049.54618,N,01413.24288,E,1,09,0.91,11.6,M,41.2,M,,*69
$GPGSA,A,3,26,02,03,04,01,06,07,09,22,,,,1.52,0.91,1.22*05
$GPGSV,3,1,11,01,10,159,28,02,16,319,40,03,39,098,47,04,64,040,43*78
$GPGSV,3,2,11,06,50,297,39,07,29,181,28,09,70,275,46,11,19,317,40*76
$GPGSV,3,3,11,22,22,110,46,26,06,057,41,30,00,199,*4C
$GPGLL,4049.54618,N,01413.24288,E,131938.00,A,A*6C
$GPGST,131938.00,17,,,,1.6,0.97,1.8*60
$GPRMC,131939.00,A,4049.54618,N,01413.24288,E,0.000,0.00,210921,3.71,E,A*3D
$GPVTG,0.00,T,356.29,M,0.000,N,0.000,K,A*28
$GPGGA,131939.00,4049.54618,N,01413.24288,E,1,09,0.91,11.6,M,41.2,M,,*68
$GPGSA,A,3,26,02,03,04,01,06,07,09,22,,,,1.52,0.91,1.22*05
$GPGSV,3,1,11,01,10,159,27,02,16,319,40,03,39,098,47,04,64,040,44*70
$GPGSV,3,2,11,06,50,297,39,07,29,181,28,09,70,275,46,11,19,317,39*78
!AIVDM,1,1,,A,33d1qF0000Q1Br`GGIN>3k560PuP,0*53
$GPGSV,3,3,11,22,22,110,46,26,06,057,41,30,00,199,*4C
$GPGLL,4049.54618,N,01413.24288,E,131939.00,A,A*6D
$GPGST,131939.00,17,,,,1.6,0.97,1.8*61
!AIVDM,1,1,,A,14i80v0P00117F4GG7dmigw:0@E?,0*66
$GPRMC,131940.00,A,4049.54618,N,01413.24288,E,0.000,0.00,210921,3.71,E,A*33
$GPVTG,0.00,T,356.29,M,0.000,N,0.000,K,A*28
$GPGGA,131940.00,4049.54618,N,01413.24288,E,1,09,0.91,11.6,M,41.2,M,,*66
$GPGSA,A,3,26,02,03,04,01,06,07,09,22,,,,1.52,0.91,1.22*05
$GPGSV,3,1,11,01,10,159,26,02,16,319,40,03,39,098,47,04,64,040,44*71
$GPGSV,3,2,11,06,50,297,41,07,29,181,28,09,70,275,46,11,19,317,40*79
$GPGSV,3,3,11,22,22,110,46,26,06,057,41,30,00,199,*4C
$GPGLL,4049.54618,N,01413.24288,E,131940.00,A,A*63
$GPGST,131940.00,18,,,,1.6,0.97,1.8*60
!AIVDM,1,1,,A,33cSeD0P@CQ1Bp:GGRiIKW=2011P,0*3D
!AIVDM,1,1,,B,33coMi0000Q17@tGG7QW7bK:2000,0*79
!AIVDM,1,1,,A,13ce490P5N11HNTGFlL2Hgw60d0J,0*35
$GPRMC,131941.00,A,4049.54618,N,01413.24288,E,0.000,0.00,210921,3.71,E,A*32
$GPVTG,0.00,T,356.29,M,0.000,N,0.000,K,A*28
$GPGGA,131941.00,4049.54618,N,01413.24288,E,1,09,0.91,11.6,M,41.2,M,,*67
$GPGSA,A,3,26,02,03,04,01,06,07,09,22,,,,1.52,0.91,1.22*05
$GPGSV,3,1,11,01,10,159,27,02,16,319,40,03,39,098,47,04,64,040,44*70
$GPGSV,3,2,11,06,50,297,41,07,29,181,29,09,70,275,46,11,19,317,40*78
$GPGSV,3,3,11,22,22,110,46,26,06,057,41,30,00,199,*4C
$GPGLL,4049.54618,N,01413.24288,E,131941.00,A,A*62
$GPGST,131941.00,17,,,,1.6,0.97,1.8*6E
!AIVDM,1,1,,A,33cVCE002:11G1LGG8`Vf5G:01w@,0*31
$GPRMC,131942.00,A,4049.54618,N,01413.24288,E,0.000,0.00,210921,3.71,E,A*31
$GPVTG,0.00,T,356.29,M,0.000,N,0.000,K,A*28
$GPGGA,131942.00,4049.54618,N,01413.24288,E,1,09,0.91,11.6,M,41.2,M,,*64
$GPGSA,A,3,26,02,03,04,01,06,07,09,22,,,,1.52,0.91,1.22*05
$GPGSV,3,1,11,01,10,159,27,02,16,319,40,03,39,098,47,04,64,040,44*70
$GPGSV,3,2,11,06,50,297,41,07,29,181,30,09,70,275,46,11,19,317,40*70
$GPGSV,3,3,11,22,22,110,46,26,06,057,40,30,00,199,*4D
$GPGLL,4049.54618,N,01413.24288,E,131942.00,A,A*61
$GPGST,131942.00,16,,,,1.6,0.97,1.8*6C
$GPRMC,131943.00,A,4049.54618,N,01413.24288,E,0.000,0.00,210921,3.71,E,A*30
$GPVTG,0.00,T,356.29,M,0.000,N,0.000,K,A*28
$GPGGA,131943.00,4049.54618,N,01413.24288,E,1,09,0.91,11.6,M,41.2,M,,*65
$GPGSA,A,3,26,02,03,04,01,06,07,09,22,,,,1.52,0.91,1.22*05
$GPGSV,3,1,11,01,10,159,27,02,16,319,40,03,39,098,47,04,64,040,44*70
$GPGSV,3,2,11,06,50,297,40,07,29,181,30,09,70,275,46,11,19,317,40*71
$GPGSV,3,3,11,22,22,110,46,26,06,057,40,30,00,199,*4D
$GPGLL,4049.54618,N,01413.24288,E,131943.00,A,A*60
$GPGST,131943.00,16,,,,1.6,0.96,1.8*6C
!AIVDM,1,1,,A,13cc0q3P03Q1C<tGGfhQFww>0<1K,0*3F
!AIVDM,1,1,,A,33coMi0200Q17@rGG7QVrrK>20v0,0*68
!AIVDM,1,1,,A,13cwdf0P0111FOfGGWf2:Ow@0<0t,0*35
$GPRMC,131944.00,A,4049.54618,N,01413.24288,E,0.000,0.00,210921,3.71,E,A*37
$GPVTG,0.00,T,356.29,M,0.000,N,0.000,K,A*28
$GPGGA,131944.00,4049.54618,N,01413.24288,E,1,09,0.91,11.6,M,41.2,M,,*62
$GPGSA,A,3,26,02,03,04,01,06,07,09,22,,,,1.52,0.91,1.22*05
$GPGSV,3,1,11,01,10,159,27,02,16,319,40,03,39,098,47,04,64,040,44*70
$GPGSV,3,2,11,06,50,297,40,07,29,181,30,09,70,275,46,11,19,317,40*71
$GPGSV,3,3,11,22,22,110,46,26,06,057,40,30,00,199,*4D
$GPGLL,4049.54618,N,01413.24288,E,131944.00,A,A*67
$GPGST,131944.00,16,,,,1.6,0.96,1.8*6B
!AIVDM,1,1,,A,402FhOQvFJeCa11BePGGgg7000S:,0*04
!AIVDM,1,1,,A,13ce490P5L11Ha<GFmR2F?w@0Ua<,0*59
$GPRMC,131945.00,A,4049.54618,N,01413.24288,E,0.000,0.00,210921,3.71,E,A*36
$GPVTG,0.00,T,356.29,M,0.000,N,0.000,K,A*28
$GPGGA,131945.00,4049.54618,N,01413.24288,E,1,09,0.91,11.6,M,41.2,M,,*63
$GPGSA,A,3,26,02,03,04,01,06,07,09,22,,,,1.52,0.91,1.22*05
$GPGSV,3,1,11,01,10,159,29,02,16,319,40,03,39,098,47,04,64,040,44*7E
$GPGSV,3,2,11,06,50,297,39,07,29,181,29,09,70,275,46,11,20,316,40*7C
$GPGSV,3,3,11,22,22,110,46,26,06,057,41,30,00,199,*4C
$GPGLL,4049.54618,N,01413.24288,E,131945.00,A,A*66
$GPGST,131945.00,15,,,,1.6,0.96,1.8*69
!AIVDM,1,1,,B,33cVCE002;11G26GG8=6f5E@00t0,0*7D
!AIVDM,1,1,,A,33d1qF0000Q1Br`GGINMkS5B0P00,0*11
$GPRMC,131946.00,A,4049.54618,N,01413.24288,E,0.000,0.00,210921,3.71,E,A*35
$GPVTG,0.00,T,356.29,M,0.000,N,0.000,K,A*28
$GPGGA,131946.00,4049.54618,N,01413.24288,E,1,09,0.91,11.6,M,41.2,M,,*60
$GPGSA,A,3,26,02,03,04,01,06,07,09,22,,,,1.52,0.91,1.22*05
$GPGSV,3,1,11,01,10,159,29,02,16,319,40,03,39,098,46,04,64,040,43*78
$GPGSV,3,2,11,06,50,297,40,07,29,181,26,09,70,275,46,11,20,316,40*7D
$GPGSV,3,3,11,22,22,110,46,26,06,057,41,30,00,199,*4C
$GPGLL,4049.54618,N,01413.24288,E,131946.00,A,A*65
$GPGST,131946.00,17,,,,1.6,0.96,1.8*68
$GPRMC,131947.00,A,4049.54618,N,01413.24288,E,0.000,0.00,210921,3.71,E,A*34
$GPVTG,0.00,T,356.29,M,0.000,N,0.000,K,A*28
$GPGGA,131947.00,4049.54618,N,01413.24288,E,1,09,0.91,11.6,M,41.2,M,,*61
$GPGSA,A,3,26,02,03,04,01,06,07,09,22,,,,1.52,0.91,1.22*05
$GPGSV,3,1,11,01,10,159,29,02,16,319,40,03,39,098,47,04,64,040,44*7E
$GPGSV,3,2,11,06,50,297,39,07,29,181,25,09,70,275,46,11,20,316,40*70
$GPGSV,3,3,11,22,22,110,46,26,06,057,40,30,00,199,*4D
$GPGLL,4049.54618,N,01413.24288,E,131947.00,A,A*64
$GPGST,131947.00,19,,,,1.6,0.96,1.8*67
!AIVDM,1,1,,A,33cSeD0P@AQ1Bo>GGRd9@G5@01sh,0*42
!AIVDM,1,1,,B,33coMi04P0Q17@vGG7QVmJKH20pi,0*07
!AIVDM,1,1,,A,34hIsh5000117W2GG8Guw:IH0DgJ,0*53
!AIVDM,1,1,,A,13cVCE002;11G2dGG7qVf5ED0D2W,0*5C
!AIVDM,1,1,,A,B3clE@P09P@Ce05mjU7JGwn5kP06,0*4E
$GPRMC,131948.00,A,4049.54618,N,01413.24288,E,0.000,0.00,210921,3.71,E,A*3B
$GPVTG,0.00,T,356.29,M,0.000,N,0.000,K,A*28
$GPGGA,131948.00,4049.54618,N,01413.24288,E,1,09,0.91,11.6,M,41.2,M,,*6E
$GPGSA,A,3,26,02,03,04,01,06,07,09,22,,,,1.52,0.91,1.22*05
$GPGSV,3,1,11,01,10,159,30,02,16,319,40,03,39,098,45,04,64,040,44*74
$GPGSV,3,2,11,06,50,297,39,07,29,181,27,09,70,275,46,11,20,316,40*72
$GPGSV,3,3,11,22,22,110,45,26,06,057,40,30,00,199,*4E
$GPGLL,4049.54618,N,01413.24288,E,131948.00,A,A*6B
$GPGST,131948.00,15,,,,1.6,0.97,1.8*65
!AIVDM,1,1,,A,13ce490P5H11Hi`GFno2<?wH0pJa,0*16
$GPRMC,131949.00,A,4049.54618,N,01413.24288,E,0.000,0.00,210921,3.71,E,A*3A
$GPVTG,0.00,T,356.29,M,0.000,N,0.000,K,A*28
$GPGGA,131949.00,4049.54618,N,01413.24288,E,1,09,0.91,11.6,M,41.2,M,,*6F
$GPGSA,A,3,26,02,03,04,01,06,07,09,22,,,,1.52,0.91,1.22*05
$GPGSV,3,1,11,01,10,159,29,02,16,319,40,03,39,098,45,04,64,040,43*7B
$GPGSV,3,2,11,06,50,297,39,07,29,181,28,09,70,275,46,11,20,316,41*7C
$GPGSV,3,3,11,22,22,110,44,26,06,057,39,30,00,199,*41
$GPGLL,4049.54618,N,01413.24288,E,131949.00,A,A*6A
$GPGST,131949.00,15,,,,1.6,0.97,1.8*64
!AIVDM,1,1,,A,33coMi0vh0Q17A0GG7QneJKL2000,0*14
$GPRMC,131950.00,A,4049.54618,N,01413.24288,E,0.000,0.00,210921,3.71,E,A*32
$GPVTG,0.00,T,356.29,M,0.000,N,0.000,K,A*28
$GPGGA,131950.00,4049.54618,N,01413.24288,E,1,09,0.91,11.6,M,41.2,M,,*67
$GPGSA,A,3,26,02,03,04,01,06,07,09,22,,,,1.52,0.91,1.22*05
$GPGSV,3,1,11,01,10,159,28,02,16,319,39,03,39,098,45,04,64,040,43*74
$GPGSV,3,2,11,06,50,297,39,07,29,181,29,09,70,275,46,11,20,316,41*7D
!AIVDM,1,1,,B,14i80v0P00117F<GG7eEigwN00SA,0*28
$GPGSV,3,3,11,22,22,110,45,26,06,057,39,30,00,199,*40
$GPGLL,4049.54618,N,01413.24288,E,131950.00,A,A*62
$GPGST,131950.00,16,,,,1.6,0.97,1.8*6F
$GPRMC,131951.00,A,4049.54618,N,01413.24288,E,0.000,0.00,210921,3.71,E,A*33
$GPVTG,0.00,T,356.29,M,0.000,N,0.000,K,A*28
$GPGGA,131951.00,4049.54618,N,01413.24288,E,1,09,0.91,11.6,M,41.2,M,,*66
!AIVDM,1,1,,A,13cmfm0P0011C;lGGe?02gwN0D1w,0*61
$GPGSA,A,3,26,02,03,04,01,06,07,09,22,,,,1.52,0.91,1.22*05
$GPGSV,3,1,11,01,10,159,26,02,16,319,40,03,39,098,46,04,64,040,43*77
$GPGSV,3,2,11,06,50,297,39,07,29,181,29,09,70,275,46,11,20,316,41*7D
$GPGSV,3,3,11,22,22,110,45,26,06,057,39,30,00,199,*40
$GPGLL,4049.54618,N,01413.24288,E,131951.00,A,A*63
$GPGST,131951.00,17,,,,1.6,0.98,1.8*60
$GPRMC,131952.00,A,4049.54618,N,01413.24288,E,0.000,0.00,210921,3.71,E,A*30
$GPVTG,0.00,T,356.29,M,0.000,N,0.000,K,A*28
$GPGGA,131952.00,4049.54618,N,01413.24288,E,1,09,0.91,11.6,M,41.2,M,,*65
$GPGSA,A,3,26,02,03,04,01,06,07,09,22,,,,1.52,0.91,1.22*05
$GPGSV,3,1,11,01,10,159,25,02,16,319,39,03,39,098,46,04,64,040,44*7D
$GPGSV,3,2,11,06,50,297,39,07,29,181,29,09,70,275,46,11,20,316,41*7D
$GPGSV,3,3,11,22,22,110,44,26,06,057,38,30,00,199,*40
$GPGLL,4049.54618,N,01413.24288,E,131952.00,A,A*60
$GPGST,131952.00,18,,,,1.6,0.98,1.8*6C
!AIVDM,1,1,,A,13ce490P5E11Hp<GFpF1u?wP0PS7,0*54
!AIVDM,1,1,,A,33d1qF0000Q1BrbGGIN@2S5P0PsA,0*67
$GPRMC,131953.00,A,4049.54618,N,01413.24288,E,0.000,0.00,210921,3.71,E,A*31
$GPVTG,0.00,T,356.29,M,0.000,N,0.000,K,A*28
$GPGGA,131953.00,4049.54618,N,01413.24288,E,1,09,0.91,11.6,M,41.2,M,,*64
$GPGSA,A,3,26,02,03,04,01,06,07,09,22,,,,1.52,0.91,1.22*05
$GPGSV,3,1,11,01,10,159,26,02,16,319,40,03,39,098,46,04,64,040,44*70
!AIVDM,1,1,,B,13cwdf0P0111FOPGGWb20OwT08MH,0*5F
$GPGSV,3,2,11,06,50,297,39,07,29,181,30,09,70,275,46,11,20,316,41*75
$GPGSV,3,3,11,22,22,110,44,26,06,057,39,30,00,199,*41
$GPGLL,4049.54618,N,01413.24288,E,131953.00,A,A*61
$GPGST,131953.00,16,,,,1.6,0.99,1.8*62
!AIVDM,1,1,,B,33coMi0vh0Q17A2GG7R6CrKT20uh,0*55
!AIVDM,1,1,,A,13c`==0P0011Hi0GGU<<CgwV0<2<,0*04
$GPRMC,131954.00,A,4049.54618,N,01413.24288,E,0.000,0.00,210921,3.71,E,A*36
$GPVTG,0.00,T,356.29,M,0.000,N,0.000,K,A*28
$GPGGA,131954.00,4049.54618,N,01413.24288,E,1,09,0.91,11.6,M,41.2,M,,*63
$GPGSA,A,3,26,02,03,04,01,06,07,09,22,,,,1.52,0.91,1.22*05
$GPGSV,3,1,11,01,10,159,27,02,16,319,40,03,39,098,45,04,64,040,44*72
$GPGSV,3,2,11,06,50,297,40,07,29,181,30,09,70,275,46,11,20,316,40*7A
$GPGSV,3,3,11,22,22,110,44,26,06,057,39,30,00,199,*41
$GPGLL,4049.54618,N,01413.24288,E,131954.00,A,A*66
$GPGST,131954.00,15,,,,1.6,0.99,1.8*66
$GPRMC,131955.00,A,4049.54618,N,01413.24288,E,0.000,0.00,210921,3.71,E,A*37
$GPVTG,0.00,T,356.29,M,0.000,N,0.000,K,A*28
$GPGGA,131955.00,4049.54618,N,01413.24288,E,1,09,0.91,11.6,M,41.2,M,,*62
$GPGSA,A,3,26,02,03,04,01,06,07,09,22,,,,1.52,0.91,1.22*05
$GPGSV,3,1,11,01,10,159,28,02,16,319,40,03,39,098,46,04,64,040,43*79
$GPGSV,3,2,11,06,50,297,39,07,29,181,30,09,70,275,46,11,20,316,41*75
$GPGSV,3,3,11,22,22,110,44,26,06,057,40,30,00,199,*4F
$GPGLL,4049.54618,N,01413.24288,E,131955.00,A,A*67
$GPGST,131955.00,15,,,,1.6,0.99,1.8*67
!AIVDM,1,1,,A,33cVCE002<11G4TGG6d6cUIV0000,0*71
!AIVDM,2,1,0,A,54`a1J42:Ccp?I`WT01<EHDr1<D5>0p5HTL5@u8t42=??6?d0BkPD31Dp888,0*6F
!AIVDM,2,2,0,A,88000000000,2*24
$GPRMC,131956.00,A,4049.54618,N,01413.24288,E,0.000,0.00,210921,3.71,E,A*34
$GPVTG,0.00,T,356.29,M,0.000,N,0.000,K,A*28
$GPGGA,131956.00,4049.54618,N,01413.24288,E,1,09,0.91,11.6,M,41.2,M,,*61
$GPGSA,A,3,26,02,03,04,01,06,07,09,22,,,,1.52,0.91,1.22*05
$GPGSV,3,1,11,01,10,159,27,02,16,319,40,03,39,098,46,04,64,040,43*76
$GPGSV,3,2,11,06,50,297,39,07,29,181,30,09,70,275,46,11,20,316,41*75
$GPGSV,3,3,11,22,21,110,44,26,06,057,40,30,00,199,*4C
$GPGLL,4049.54618,N,01413.24288,E,131956.00,A,A*64
$GPGST,131956.00,15,,,,1.6,0.99,1.8*64
!AIVDM,1,1,,A,13ce490P5C11HtTGFqr1f?wV0Ua<,0*22
$GPRMC,131957.00,A,4049.54618,N,01413.24288,E,0.000,0.00,210921,3.71,E,A*35
$GPVTG,0.00,T,356.29,M,0.000,N,0.000,K,A*28
$GPGGA,131957.00,4049.54618,N,01413.24288,E,1,09,0.91,11.6,M,41.2,M,,*60
$GPGSA,A,3,26,02,03,04,01,06,07,09,22,,,,1.52,0.91,1.22*05
$GPGSV,3,1,11,01,10,159,27,02,16,319,40,03,39,098,46,04,64,040,43*76
$GPGSV,3,2,11,06,50,297,39,07,29,181,29,09,70,275,46,11,20,316,41*7D
$GPGSV,3,3,11,22,21,110,45,26,06,057,40,30,00,199,*4D
$GPGLL,4049.54618,N,01413.24288,E,131957.00,A,A*65
$GPGST,131957.00,16,,,,1.6,0.99,1.8*66
!AIVDM,1,1,,A,33coMi01h0Q17A4GG7RV3rKb20nQ,0*13
$GPRMC,131958.00,A,4049.54618,N,01413.24288,E,0.000,0.00,210921,3.71,E,A*3A
$GPVTG,0.00,T,356.29,M,0.000,N,0.000,K,A*28
$GPGGA,131958.00,4049.54618,N,01413.24288,E,1,09,0.91,11.6,M,41.2,M,,*6F
$GPGSA,A,3,26,02,03,04,01,06,07,09,22,,,,1.52,0.91,1.22*05
$GPGSV,3,1,11,01,10,159,27,02,16,319,40,03,39,098,45,04,64,040,43*75
$GPGSV,3,2,11,06,50,297,39,07,29,181,30,09,70,275,46,11,20,316,41*75
$GPGSV,3,3,11,22,21,110,45,26,06,057,40,30,00,199,*4D
$GPGLL,4049.54618,N,01413.24288,E,131958.00,A,A*6A
$GPGST,131958.00,15,,,,1.6,1.0,1.8*5B
!AIVDM,1,1,,B,33cVCE002=11G5RGG5tVcUIf02GP,0*22
!AIVDM,1,1,,A,33d1qF0000Q1BrbGGIN=ck5d0Q1h,0*2D
$GPRMC,131959.00,A,4049.54618,N,01413.24288,E,0.000,0.00,210921,3.71,E,A*3B
$GPVTG,0.00,T,356.29,M,0.000,N,0.000,K,A*28
$GPGGA,131959.00,4049.54618,N,01413.24288,E,1,09,0.91,11.6,M,41.2,M,,*6E
$GPGSA,A,3,26,02,03,04,01,06,07,09,22,,,,1.52,0.91,1.22*05
$GPGSV,3,1,11,01,10,159,26,02,16,319,40,03,39,098,45,04,64,040,44*73
$GPGSV,3,2,11,06,50,297,39,07,29,181,30,09,70,275,46,11,20,316,40*74
$GPGSV,3,3,11,22,21,110,45,26,06,057,40,30,00,199,*4D
$GPGLL,4049.54618,N,01413.24288,E,131959.00,A,A*6B
$GPGST,131959.00,16,,,,1.6,1.0,1.8*59
!AIVDM,1,1,,A,14i80v0P00117F<GG7eUigwj0@Q7,0*1B
$GPRMC,132000.00,A,4049.54618,N,01413.24288,E,0.000,0.00,210921,3.71,E,A*3D
$GPVTG,0.00,T,356.29,M,0.000,N,0.000,K,A*28
$GPGGA,132000.00,4049.54618,N,01413.24288,E,1,09,0.91,11.6,M,41.2,M,,*68
$GPGSA,A,3,26,02,03,04,01,06,07,09,22,,,,1.52,0.91,1.22*05
$GPGSV,3,1,11,01,10,159,26,02,16,319,40,03,39,098,46,04,64,040,44*70
$GPGSV,3,2,11,06,50,297,39,07,29,181,31,09,70,275,46,11,20,316,41*74
$GPGSV,3,3,11,22,21,110,45,26,06,057,40,30,00,199,*4D
!AIVDM,1,1,,B,33coMi0000Q17A4GG7RmuJKh2000,0*39
$GPGLL,4049.54618,N,01413.24288,E,132000.00,A,A*6D
$GPGST,132000.00,16,,,,1.6,1.0,1.8*5F
$GPRMC,132001.00,A,4049.54618,N,01413.24288,E,0.000,0.00,210921,3.71,E,A*3C
$GPVTG,0.00,T,356.29,M,0.000,N,0.000,K,A*28
$GPGGA,132001.00,4049.54618,N,01413.24288,E,1,09,0.91,11.6,M,41.2,M,,*69
$GPGSA,A,3,26,02,03,04,01,06,07,09,22,,,,1.52,0.91,1.22*05
$GPGSV,3,1,11,01,10,159,25,02,16,319,39,03,39,098,46,04,64,040,44*7D
$GPGSV,3,2,11,06,50,297,39,07,29,181,29,09,70,275,46,11,20,316,40*7C
$GPGSV,3,3,11,22,21,110,45,26,06,057,40,30,00,199,*4D
$GPGLL,4049.54618,N,01413.24288,E,132001.00,A,A*6C
$GPGST,132001.00,18,,,,1.6,1.0,1.8*50
$GPRMC,132002.00,A,4049.54618,N,01413.24288,E,0.000,0.00,210921,3.71,E,A*3F
$GPVTG,0.00,T,356.29,M,0.000,N,0.000,K,A*28
$GPGGA,132002.00,4049.54618,N,01413.24288,E,1,09,0.91,11.6,M,41.2,M,,*6A
$GPGSA,A,3,26,02,03,04,01,06,07,09,22,,,,1.52,0.91,1.22*05
$GPGSV,3,1,11,01,10,159,24,02,16,319,39,03,39,098,46,04,64,040,44*7C
$GPGSV,3,2,11,06,50,297,39,07,29,181,28,09,70,275,46,11,20,316,41*7C
$GPGSV,3,3,11,22,21,110,44,26,06,057,40,30,00,199,*4C
$GPGLL,4049.54618,N,01413.24288,E,132002.00,A,A*6F
$GPGST,132002.00,20,,,,1.6,1.0,1.8*58
!AIVDM,1,1,,A,34RA=J500111GpfGGU36bhOn0ldr,0*21
$GPRMC,132003.00,A,4049.54618,N,01413.24288,E,0.000,0.00,210921,3.71,E,A*3E
$GPVTG,0.00,T,356.29,M,0.000,N,0.000,K,A*28
$GPGGA,132003.00,4049.54618,N,01413.24288,E,1,09,0.91,11.6,M,41.2,M,,*6B
$GPGSA,A,3,26,02,03,04,01,06,07,09,22,,,,1.52,0.91,1.22*05
$GPGSV,3,1,11,01,10,159,23,02,16,319,39,03,39,098,46,04,64,040,44*7B
!AIVDM,1,1,,A,33coMi0uh0Q17@vGG7RmorKn210@,0*31
$GPGSV,3,2,11,06,50,297,39,07,29,181,29,09,70,275,46,11,20,316,41*7D
$GPGSV,3,3,11,22,21,110,44,26,06,057,39,30,00,199,*42
!AIVDM,1,1,,B,13c`==0P0011Hi0GGU<<Hgv00807,0*66
$GPGLL,4049.54618,N,01413.24288,E,132003.00,A,A*6E
$GPGST,132003.00,26,,,,1.6,1.0,1.8*5F
$GPRMC,132004.00,A,4049.54618,N,01413.24288,E,0.000,0.00,210921,3.71,E,A*39
$GPVTG,0.00,T,356.29,M,0.000,N,0.000,K,A*28
$GPGGA,132004.00,4049.54618,N,01413.24288,E,1,09,0.91,11.6,M,41.2,M,,*6C
$GPGSA,A,3,26,02,03,04,01,06,07,09,22,,,,1.52,0.91,1.22*05
$GPGSV,3,1,11,01,10,159,24,02,16,319,40,03,39,098,46,04,64,040,44*72
$GPGSV,3,2,11,06,50,297,39,07,29,181,28,09,70,275,46,11,20,316,40*7D
$GPGSV,3,3,11,22,21,110,44,26,06,057,39,30,01,199,*43
$GPGLL,4049.54618,N,01413.24288,E,132004.00,A,A*69
$GPGST,132004.00,20,,,,1.6,1.0,1.8*5E
!AIVDM,1,1,,A,402FhOQvFJeD111BePGGgg700<1k,0*6C
!AIVDM,1,1,,A,13ce490P5>11HvLGFu9QBgwn0h0m,0*13
!AIVDM,1,1,,A,13cwdf0P0111FONGGWcQGgv2080n,0*43
!AIVDM,1,1,,A,17f6F1P00111EfTGGhNWamT200Se,0*3C
$GPRMC,132005.00,A,4049.54618,N,01413.24288,E,0.000,0.00,210921,3.71,E,A*38
$GPVTG,0.00,T,356.29,M,0.000,N,0.000,K,A*28
$GPGGA,132005.00,4049.54618,N,01413.24288,E,1,09,0.91,11.6,M,41.2,M,,*6D
$GPGSA,A,3,26,02,03,04,01,06,07,09,22,,,,1.52,0.91,1.22*05
$GPGSV,3,1,11,01,10,159,25,02,16,319,39,03,39,098,46,04,64,040,44*7D
$GPGSV,3,2,11,06,50,297,39,07,29,181,28,09,70,275,46,11,20,316,40*7D
$GPGSV,3,3,11,22,21,110,44,26,06,057,39,30,01,199,*43
$GPGLL,4049.54618,N,01413.24288,E,132005.00,A,A*68
$GPGST,132005.00,19,,,,1.7,1.0,1.8*54
!AIVDM,1,1,,A,33d1qF0000Q1BrbGGIN=s3420P00,0*6A
!AIVDM,1,1,,A,ENjOsphrg@6a9Qh92SSTWh1PV0Q0Slm@:r;8000000N014R@@0,4*23
!AIVDM,1,1,,B,33coMi03@0Q17@tGG7SEPbL4217Q,0*13
$GPRMC,132006.00,A,4049.54618,N,01413.24288,E,0.000,0.00,210921,3.71,E,A*3B
$GPVTG,0.00,T,356.29,M,0.000,N,0.000,K,A*28
$GPGGA,132006.00,4049.54618,N,01413.24288,E,1,09,0.91,11.6,M,41.2,M,,*6E
$GPGSA,A,3,26,02,03,04,01,06,07,09,22,,,,1.52,0.91,1.22*05
$GPGSV,3,1,11,01,10,159,26,02,16,319,39,03,39,098,46,04,64,040,44*7E
$GPGSV,3,2,11,06,50,297,39,07,29,181,29,09,70,275,46,11,20,316,41*7D
$GPGSV,3,3,11,22,21,110,44,26,06,057,39,30,01,199,*43
$GPGLL,4049.54618,N,01413.24288,E,132006.00,A,A*6B
$GPGST,132006.00,17,,,,1.7,1.0,1.8*59
$GPRMC,132007.00,A,4049.54618,N,01413.24288,E,0.000,0.00,210921,3.71,E,A*3A
$GPVTG,0.00,T,356.29,M,0.000,N,0.000,K,A*28
$GPGGA,132007.00,4049.54618,N,01413.24288,E,1,09,0.91,11.6,M,41.2,M,,*6F
$GPGSA,A,3,26,02,03,04,01,06,07,09,22,,,,1.52,0.91,1.22*05
$GPGSV,3,1,11,01,10,159,27,02,16,319,39,03,39,098,46,04,64,040,44*7F
$GPGSV,3,2,11,06,50,297,40,07,29,181,29,09,70,275,46,11,20,316,41*73
$GPGSV,3,3,11,22,21,110,44,26,06,057,39,30,01,199,*43
$GPGLL,4049.54618,N,01413.24288,E,132007.00,A,A*6A
$GPGST,132007.00,16,,,,1.7,1.0,1.8*59
!AIVDM,1,1,,A,33cVCE0Oj=11G76GG4dVhUP601k1,0*7D
$GPRMC,132008.00,A,4049.54618,N,01413.24288,E,0.000,0.00,210921,3.71,E,A*35
$GPVTG,0.00,T,356.29,M,0.000,N,0.000,K,A*28
$GPGGA,132008.00,4049.54618,N,01413.24288,E,1,09,0.91,11.6,M,41.2,M,,*60
$GPGSA,A,3,26,02,03,04,01,06,07,09,22,,,,1.52,0.91,1.22*05
$GPGSV,3,1,11,01,10,159,27,02,16,319,39,03,39,098,46,04,64,040,44*7F
$GPGSV,3,2,11,06,50,297,39,07,29,181,30,09,70,275,46,11,20,316,41*75
$GPGSV,3,3,11,22,21,110,44,26,06,057,39,30,01,199,*43
$GPGLL,4049.54618,N,01413.24288,E,132008.00,A,A*65
$GPGST,132008.00,15,,,,1.7,1.0,1.9*54
!AIVDM,1,1,,A,ENjOsp@qg@6a9Qh1Tc4b0c2QQT4PKwS4;tmkP00000N010@,2*04
!AIVDM,1,1,,A,13ce490P5<11HulGFvG11?v60h3>,0*0D
!AIVDM,1,1,,B,14i80v0P00117FBGG7emigv<00T2,0*79
$GPRMC,132009.00,A,4049.54618,N,01413.24288,E,0.000,0.00,210921,3.71,E,A*34
$GPVTG,0.00,T,356.29,M,0.000,N,0.000,K,A*28
$GPGGA,132009.00,4049.54618,N,01413.24288,E,1,09,0.91,11.6,M,41.2,M,,*61
$GPGSA,A,3,26,02,03,04,01,06,07,09,22,,,,1.52,0.91,1.22*05
$GPGSV,3,1,11,01,10,159,27,02,16,319,39,03,39,098,46,04,64,040,44*7F
$GPGSV,3,2,11,06,50,297,39,07,29,181,30,09,70,275,46,11,20,316,41*75
$GPGSV,3,3,11,22,21,110,44,26,06,057,40,30,01,199,*4D
$GPGLL,4049.54618,N,01413.24288,E,132009.00,A,A*64
$GPGST,132009.00,15,,,,1.7,1.0,1.9*55
!AIVDM,1,1,,A,33coMi0200Q17@rGG7T5DJL<2000,0*43
$GPRMC,132010.00,A,4049.54618,N,01413.24288,E,0.000,0.00,210921,3.71,E,A*3C
$GPVTG,0.00,T,356.29,M,0.000,N,0.000,K,A*28
$GPGGA,132010.00,4049.54618,N,01413.24288,E,1,09,0.91,11.6,M,41.2,M,,*69
$GPGSA,A,3,26,02,03,04,01,06,07,09,22,,,,1.52,0.91,1.22*05
$GPGSV,3,1,11,01,10,159,26,02,16,319,39,03,39,098,46,04,64,040,44*7E
$GPGSV,3,2,11,06,50,297,40,07,29,181,31,09,70,275,46,11,20,316,41*7A
$GPGSV,3,3,11,22,21,110,44,26,06,057,40,30,01,199,*4D
$GPGLL,4049.54618,N,01413.24288,E,132010.00,A,A*6C
$GPGST,132010.00,16,,,,1.6,1.0,1.8*5E
$GPRMC,132011.00,A,4049.54618,N,01413.24288,E,0.000,0.00,210921,3.71,E,A*3D
$GPVTG,0.00,T,356.29,M,0.000,N,0.000,K,A*28
$GPGGA,132011.00,4049.54618,N,01413.24288,E,1,09,0.91,11.6,M,41.2,M,,*68
$GPGSA,A,3,26,02,03,04,01,06,07,09,22,,,,1.52,0.91,1.22*05
$GPGSV,3,1,11,01,10,159,26,02,16,319,39,03,39,098,46,04,64,040,44*7E
$GPGSV,3,2,11,06,50,297,40,07,29,181,32,09,70,275,46,11,20,316,41*79
$GPGSV,3,3,11,22,21,110,45,26,06,057,41,30,01,199,*4D
$GPGLL,4049.54618,N,01413.24288,E,132011.00,A,A*6D
$GPGST,132011.00,20,,,,1.6,0.99,1.8*6B
$GPRMC,132012.00,A,4049.54618,N,01413.24288,E,0.000,0.00,210921,3.71,E,A*3E
$GPVTG,0.00,T,356.29,M,0.000,N,0.000,K,A*28
$GPGGA,132012.00,4049.54618,N,01413.24288,E,1,09,0.91,11.6,M,41.2,M,,*6B
$GPGSA,A,3,26,02,03,04,01,06,07,09,22,,,,1.52,0.91,1.22*05
!AIVDM,1,1,,A,33d1qF0Oh0Q1BrbGGIN=mC4@0Pvi,0*4E
$GPGSV,3,1,11,01,10,159,26,02,16,319,39,03,39,098,46,04,64,040,44*7E
$GPGSV,3,2,11,06,50,297,39,07,29,181,30,09,70,275,46,11,20,316,41*75
$GPGSV,3,3,11,22,21,110,45,26,06,057,41,30,01,199,*4D
$GPGLL,4049.54618,N,01413.24288,E,132012.00,A,A*6E
$GPGST,132012.00,19,,,,1.6,0.99,1.8*62
!AIVDM,1,1,,A,13ce490P5<11HplGG0FPj?v>0p5S,0*0F
!AIVDM,2,1,1,A,53Ijia42:rJpHiLr220<50v0<Tq@v22222222216:89886J90:SPD3k2H888,0*2E
!AIVDM,2,2,1,A,88888888880,2*25
!AIVDM,1,1,,B,13cc0q3P0GQ1CDJGGfeD7wvB00Se,0*5A
$GPRMC,132013.00,A,4049.54618,N,01413.24288,E,0.000,0.00,210921,3.71,E,A*3F
$GPVTG,0.00,T,356.29,M,0.000,N,0.000,K,A*28
$GPGGA,132013.00,4049.54618,N,01413.24288,E,1,09,0.91,11.6,M,41.2,M,,*6A
$GPGSA,A,3,26,02,03,04,01,06,07,09,22,,,,1.52,0.91,1.22*05
$GPGSV,3,1,11,01,10,159,26,02,16,319,40,03,39,098,46,04,64,040,44*70
$GPGSV,3,2,11,06,50,297,39,07,29,181,34,09,70,275,46,11,20,316,41*71
!AIVDM,1,1,,B,13cwdf0P0111FOrGGWdeiwvD0D0t,0*61
$GPGSV,3,3,11,22,21,110,45,26,06,057,41,30,01,199,*4D
$GPGLL,4049.54618,N,01413.24288,E,132013.00,A,A*6F
$GPGST,132013.00,16,,,,1.6,0.98,1.8*6D
!AIVDM,1,1,,A,13c`==0P0011Hi0GGU<<CgvF0<2:,0*13
!AIVDM,1,1,,B,33coMi0v@0Q17A4GG7TEG:LD20uh,0*55
$GPRMC,132014.00,A,4049.54618,N,01413.24288,E,0.000,0.00,210921,3.71,E,A*38
$GPVTG,0.00,T,356.29,M,0.000,N,0.000,K,A*28
$GPGGA,132014.00,4049.54618,N,01413.24288,E,1,09,0.91,11.6,M,41.2,M,,*6D
$GPGSA,A,3,26,02,03,04,01,06,07,09,22,,,,1.52,0.91,1.22*05
$GPGSV,3,1,11,01,10,159,26,02,16,319,39,03,39,098,47,04,64,040,44*7F
$GPGSV,3,2,11,06,50,297,41,07,29,181,30,09,70,275,45,11,20,316,41*79
$GPGSV,3,3,11,22,21,110,44,26,06,057,41,30,01,199,*4C
$GPGLL,4049.54618,N,01413.24288,E,132014.00,A,A*68
$GPGST,132014.00,17,,,,1.6,0.98,1.8*6B
!AIVDM,1,1,,A,13cek10P0011FFhGGW<P0?vD0<1S,0*18
!AIVDM,1,1,,B,33cVCE0Oj=11G7dGG3`VmU`F01Ui,0*0C
$GPRMC,132015.00,A,4049.54618,N,01413.24288,E,0.000,0.00,210921,3.71,E,A*39
$GPVTG,0.00,T,356.29,M,0.000,N,0.000,K,A*28
$GPGGA,132015.00,4049.54618,N,01413.24288,E,1,09,0.91,11.6,M,41.2,M,,*6C
$GPGSA,A,3,26,02,03,04,01,06,07,09,22,,,,1.52,0.91,1.22*05
$GPGSV,3,1,11,01,10,159,26,02,16,319,40,03,39,098,46,04,64,040,44*70
!AIVDM,1,1,,B,17f6F1P00111EfNGGhNWamTH0@77,0*19
$GPGSV,3,2,11,06,50,297,39,07,29,181,27,09,70,275,44,11,20,316,41*71
$GPGSV,3,3,11,22,21,110,44,26,06,057,40,30,01,199,*4D
$GPGLL,4049.54618,N,01413.24288,E,132015.00,A,A*69
$GPGST,132015.00,18,,,,1.6,0.98,1.8*65
!AIVDM,1,1,,B,35RPmt500011GvlGGTNt5STR2000,0*6C
!AIVDM,1,1,,B,33d1qF0000Q1BrbGGIN>2C4F0P00,0*2F
$GPRMC,132016.00,A,4049.54618,N,01413.24288,E,0.000,0.00,210921,3.71,E,A*3A
$GPVTG,0.00,T,356.29,M,0.000,N,0.000,K,A*28
$GPGGA,132016.00,4049.54618,N,01413.24288,E,1,09,0.91,11.6,M,41.2,M,,*6F
$GPGSA,A,3,26,02,03,04,01,06,07,09,22,,,,1.52,0.91,1.22*05
$GPGSV,3,1,11,01,10,159,27,02,16,319,40,03,39,098,46,04,64,040,44*71
$GPGSV,3,2,11,06,50,297,39,07,29,181,24,09,70,275,44,11,20,316,41*72
$GPGSV,3,3,11,22,21,110,44,26,06,057,40,30,01,199,*4D
$GPGLL,4049.54618,N,01413.24288,E,132016.00,A,A*6A
$GPGST,132016.00,20,,,,1.6,0.99,1.8*6C
!AIVDM,1,1,,A,13ce490P5911HhdGG1p0PgvF0Ua@,0*35
!AIVDM,1,1,,A,33Ijia1001Q1ArlGG2<j=npL2DW:,0*22
$GPRMC,132017.00,A,4049.54618,N,01413.24288,E,0.000,0.00,210921,3.71,E,A*3B
$GPVTG,0.00,T,356.29,M,0.000,N,0.000,K,A*28
$GPGGA,132017.00,4049.54618,N,01413.24288,E,1,09,0.91,11.6,M,41.2,M,,*6E
$GPGSA,A,3,26,02,03,04,01,06,07,09,22,,,,1.52,0.91,1.22*05
$GPGSV,3,1,11,01,10,159,26,02,16,319,40,03,39,098,46,04,64,040,44*70
!AIVDM,1,1,,A,13cWA3000111@FdGGQcLS8RL05a@,0*2E
$GPGSV,3,2,11,06,50,297,39,07,29,181,21,09,70,275,44,11,20,316,41*77
$GPGSV,3,3,11,22,21,110,44,26,06,057,39,30,01,199,*43
$GPGLL,4049.54618,N,01413.24288,E,132017.00,A,A*6B
$GPGST,132017.00,29,,,,1.6,0.99,1.8*64
!AIVDM,1,1,,A,13ce9>3P0O11<OpGD:PirgvJ0@8E,0*1E
!AIVDM,1,1,,B,33cSeD0P@:Q1BlnGGRG`OVVD01p@,0*41
!AIVDM,1,1,,A,33coMi0th0Q17A4GG7TEQ:LJ20qi,0*61
$GPRMC,132018.00,A,4049.54618,N,01413.24288,E,0.000,0.00,210921,3.71,E,A*34
$GPVTG,0.00,T,356.29,M,0.000,N,0.000,K,A*28
$GPGGA,132018.00,4049.54618,N,01413.24288,E,1,08,1.04,11.6,M,41.2,M,,*6D
$GPGSA,A,3,26,02,03,04,01,06,09,22,,,,,1.61,1.04,1.23*0E
$GPGSV,3,1,11,01,10,159,24,02,16,319,41,03,39,098,46,04,64,040,45*72
$GPGSV,3,2,11,06,50,297,39,07,29,181,,09,70,275,45,11,20,316,42*76
$GPGSV,3,3,11,22,21,110,45,26,06,057,39,30,01,199,*42
$GPGLL,4049.54618,N,01413.24288,E,132018.00,A,A*64
$GPGST,132018.00,17,,,,1.6,1.0,1.8*57
!AIVDM,1,1,,A,33d1qF0000Q1BrbGGIN01S4L0Q1P,0*5B
!AIVDM,1,1,,A,13ci>S0P00Q1CmHGGhFf4?vN25a@,0*78
!AIVDM,1,1,,A,14i80v0P00117F@GG7fEigvP05a@,0*7D
$GPRMC,132019.00,A,4049.54618,N,01413.24288,E,0.000,0.00,210921,3.71,E,A*35
$GPVTG,0.00,T,356.29,M,0.000,N,0.000,K,A*28
$GPGGA,132019.00,4049.54618,N,01413.24288,E,1,09,1.04,11.6,M,41.2,M,,*6D
!AIVDM,1,1,,B,13cVCE0Oj=11G80GG2nVrUdN0000,0*74
$GPGSA,A,3,26,02,03,04,01,06,07,09,22,,,,1.61,1.04,1.23*09
$GPGSV,3,1,11,01,10,159,22,02,16,319,41,03,39,098,46,04,64,040,45*74
$GPGSV,3,2,11,06,50,297,39,07,29,181,26,09,70,275,45,11,20,316,41*71
$GPGSV,3,3,11,22,21,110,45,26,06,057,39,30,01,199,*42
$GPGLL,4049.54618,N,01413.24288,E,132019.00,A,A*65
$GPGST,132019.00,26,,,,1.6,1.0,1.8*54
!AIVDM,1,1,,A,33cVCE0Oj=11G80GG2nVrUfN01bi,0*7D
$GPRMC,132020.00,A,4049.54618,N,01413.24288,E,0.000,0.00,210921,3.71,E,A*3F
$GPVTG,0.00,T,356.29,M,0.000,N,0.000,K,A*28
$GPGGA,132020.00,4049.54618,N,01413.24288,E,1,09,0.91,11.6,M,41.2,M,,*6A
$GPGSA,A,3,26,02,03,04,01,06,07,09,22,,,,1.52,0.91,1.22*05
!AIVDM,1,1,,B,33coMi0v00Q17A2GG7TEQ:LP2000,0*3C
$GPGSV,3,1,11,01,10,159,24,02,16,319,42,03,39,098,43,04,64,040,42*73
$GPGSV,3,2,11,06,50,297,40,07,29,181,26,09,70,275,43,11,20,316,42*7A
$GPGSV,3,3,11,22,21,110,44,26,06,057,41,30,01,199,*4C
$GPGLL,4049.54618,N,01413.24288,E,132020.00,A,A*6F
$GPGST,132020.00,20,,,,1.6,1.0,1.8*58
!AIVDM,1,1,,A,13ce490P5711H`TGG3DP<gvN0p:8,0*37
!AIVDM,2,1,2,A,54hIsh40?Iju`=P7:20l585T622222222222220U4@D736Ca08SPD31Dp888,0*43
!AIVDM,2,2,2,A,88888888880,2*26
!AIVDM,1,1,,A,13cpSd0000Q1B6PGGc<tP4@R00S`,0*2A
!AIVDM,1,1,,A,13cf4V0P0IQ2:4tGBQoRWgvP0@:U,0*23
$GPRMC,132021.00,A,4049.54618,N,01413.24288,E,0.000,0.00,210921,3.71,E,A*3E
$GPVTG,0.00,T,356.29,M,0.000,N,0.000,K,A*28
$GPGGA,132021.00,4049.54618,N,01413.24288,E,1,09,0.91,11.6,M,41.2,M,,*6B
$GPGSA,A,3,26,02,03,04,01,06,07,09,22,,,,1.52,0.91,1.22*05
$GPGSV,3,1,11,01,10,159,37,02,16,319,45,03,39,098,39,04,64,040,41*78
$GPGSV,3,2,11,06,50,297,45,07,29,181,42,09,70,275,50,11,20,316,43*7E
$GPGSV,3,3,11,22,21,110,39,26,06,057,32,30,01,199,*42
$GPGLL,4049.54618,N,01413.24288,E,132021.00,A,A*6E
$GPGST,132021.00,15,,,,1.6,1.0,1.9*5E
!AIVDM,1,1,,B,B3coTp000H@BlLUmk@g0owa5oP06,0*17
!AIVDM,1,1,,B,33d1qF0000Q1BrbGGIN0:k4R0Q1i,0*4C
!AIVDM,1,1,,B,13cmfm0P0011C;PGGe?02gvT0H;8,0*0C
